Raw and processed data/Altitude Variations/us_greatcircle_3sat_400km/Aircraft-B747LAX_Narita-Transmitter-adsb_out6211-To-Satellite-400km_p1_1-Receiver-adsb_satrcvr2 Access.csv

"Access","Start Time (UTCG)","Stop Time (UTCG)","Duration (sec)"
1,3 Dec 2013 07:18:09.585,3 Dec 2013 07:30:37.523,747.938
2,3 Dec 2013 08:58:59.731,3 Dec 2013 09:07:10.913,491.182
3,3 Dec 2013 10:42:10.740,3 Dec 2013 10:47:04.272,293.533
4,3 Dec 2013 12:12:55.753,3 Dec 2013 12:23:20.877,625.123
5,3 Dec 2013 13:45:17.035,3 Dec 2013 13:56:59.410,702.375
6,3 Dec 2013 15:18:06.814,3 Dec 2013 15:30:04.525,717.711
7,3 Dec 2013 16:51:26.675,3 Dec 2013 17:03:28.193,721.518
8,3 Dec 2013 18:25:30.064,3 Dec 2013 18:37:34.993,724.929
9,3 Dec 2013 20:00:25.067,3 Dec 2013 20:12:27.110,722.043
10,4 Dec 2013 04:51:33.281,4 Dec 2013 05:03:46.830,733.549
11,4 Dec 2013 06:29:43.356,4 Dec 2013 06:38:49.150,545.795
12,4 Dec 2013 08:04:21.098,4 Dec 2013 08:14:17.099,596.001
13,4 Dec 2013 09:38:09.871,4 Dec 2013 09:48:41.816,631.945
14,4 Dec 2013 11:11:39.604,4 Dec 2013 11:22:13.011,633.407
15,4 Dec 2013 12:45:27.451,4 Dec 2013 12:55:13.168,585.717
16,4 Dec 2013 14:20:33.945,4 Dec 2013 14:27:47.508,433.563
17,4 Dec 2013 15:58:14.756,4 Dec 2013 16:02:10.808,236.052
18,4 Dec 2013 17:32:44.907,4 Dec 2013 17:45:09.191,744.285
19,5 Dec 2013 04:01:45.112,5 Dec 2013 04:08:07.254,382.143
20,5 Dec 2013 05:34:37.736,5 Dec 2013 05:42:46.891,489.155
21,5 Dec 2013 07:06:58.116,5 Dec 2013 07:16:27.139,569.023
22,5 Dec 2013 08:38:45.081,5 Dec 2013 08:49:38.951,653.870
23,5 Dec 2013 10:10:38.935,5 Dec 2013 10:22:28.421,709.486
24,5 Dec 2013 11:46:43.584,5 Dec 2013 11:58:00.692,677.108
25,5 Dec 2013 13:28:27.982,5 Dec 2013 13:38:18.929,590.947
26,5 Dec 2013 15:06:47.419,5 Dec 2013 15:19:22.492,755.073
27,5 Dec 2013 16:47:28.614,5 Dec 2013 16:52:09.088,280.475
28,6 Dec 2013 07:47:24.817,6 Dec 2013 07:53:29.729,364.913
29,6 Dec 2013 09:21:44.522,6 Dec 2013 09:34:24.617,760.095
30,6 Dec 2013 11:02:30.449,6 Dec 2013 11:13:35.611,665.162
31,6 Dec 2013 12:42:13.258,6 Dec 2013 12:54:39.031,745.773
32,6 Dec 2013 14:21:45.364,6 Dec 2013 14:31:35.000,589.636
33,7 Dec 2013 06:57:18.290,7 Dec 2013 07:09:48.992,750.702
34,7 Dec 2013 08:37:32.780,7 Dec 2013 08:47:39.167,606.387
35,7 Dec 2013 10:18:47.361,7 Dec 2013 10:28:47.379,600.017
36,7 Dec 2013 11:55:41.228,7 Dec 2013 12:07:30.220,708.992
37,7 Dec 2013 13:28:22.181,7 Dec 2013 13:39:32.614,670.433
38,7 Dec 2013 15:01:31.238,7 Dec 2013 15:11:01.799,570.562
39,7 Dec 2013 16:35:05.193,7 Dec 2013 16:42:48.760,463.566
40,7 Dec 2013 18:09:27.850,7 Dec 2013 18:15:08.879,341.029
41,8 Dec 2013 04:31:35.304,8 Dec 2013 04:43:52.158,736.854
42,8 Dec 2013 06:12:18.980,8 Dec 2013 06:18:49.162,390.182
43,8 Dec 2013 07:51:11.817,8 Dec 2013 07:55:23.345,251.528
44,8 Dec 2013 09:22:57.836,8 Dec 2013 09:31:56.304,538.468
45,8 Dec 2013 10:55:43.555,8 Dec 2013 11:06:09.666,626.112
46,8 Dec 2013 12:28:55.356,8 Dec 2013 12:39:42.513,647.157
47,8 Dec 2013 14:02:49.047,8 Dec 2013 14:13:21.950,632.904
48,8 Dec 2013 15:37:41.613,8 Dec 2013 15:47:39.716,598.103
49,8 Dec 2013 17:12:52.676,8 Dec 2013 17:25:07.431,734.755
50,9 Dec 2013 02:04:26.809,9 Dec 2013 02:16:16.897,710.088

"Access","Start Time (UTCG)","Stop Time (UTCG)","Duration (sec)"
1,3 Dec 2013 02:28:24.223,3 Dec 2013 02:40:47.163,742.940
2,3 Dec 2013 11:21:37.121,3 Dec 2013 11:30:01.993,504.872
3,3 Dec 2013 12:55:36.930,3 Dec 2013 13:05:34.136,597.206
4,3 Dec 2013 14:29:17.261,3 Dec 2013 14:39:51.296,634.035
5,3 Dec 2013 16:02:15.003,3 Dec 2013 16:13:19.784,664.781
6,3 Dec 2013 17:34:39.077,3 Dec 2013 17:46:19.691,700.613
7,3 Dec 2013 19:07:09.865,3 Dec 2013 19:18:57.561,707.696
8,3 Dec 2013 20:42:30.133,3 Dec 2013 20:52:59.877,629.744
9,3 Dec 2013 22:24:16.321,3 Dec 2013 22:33:41.306,564.986
10,4 Dec 2013 00:02:12.253,4 Dec 2013 00:14:46.561,754.309
11,4 Dec 2013 01:43:38.868,4 Dec 2013 01:46:11.990,153.122
12,4 Dec 2013 16:41:29.272,4 Dec 2013 16:49:19.990,470.717
13,4 Dec 2013 18:17:01.431,4 Dec 2013 18:29:38.363,756.931
14,4 Dec 2013 19:57:58.381,4 Dec 2013 20:09:01.009,662.628
15,4 Dec 2013 21:37:27.794,4 Dec 2013 21:50:00.346,752.552
16,4 Dec 2013 23:17:15.732,4 Dec 2013 23:26:05.489,529.757
17,5 Dec 2013 15:52:38.042,5 Dec 2013 16:05:12.137,754.095
18,5 Dec 2013 17:32:59.447,5 Dec 2013 17:43:21.266,621.819
19,5 Dec 2013 19:13:47.720,5 Dec 2013 19:24:38.276,650.556
20,5 Dec 2013 20:52:12.867,5 Dec 2013 21:03:55.408,702.541
21,5 Dec 2013 22:25:17.606,5 Dec 2013 22:35:08.159,590.553
22,5 Dec 2013 23:59:09.601,6 Dec 2013 00:05:27.382,377.781
23,6 Dec 2013 13:27:08.495,6 Dec 2013 13:39:29.644,741.149
24,6 Dec 2013 15:07:56.182,6 Dec 2013 15:14:59.273,423.091
25,6 Dec 2013 16:49:00.745,6 Dec 2013 16:51:47.000,166.256
26,6 Dec 2013 18:19:47.988,6 Dec 2013 18:28:59.150,551.162
27,6 Dec 2013 19:52:20.101,6 Dec 2013 20:03:10.550,650.450
28,6 Dec 2013 21:25:21.395,6 Dec 2013 21:36:41.244,679.849
29,6 Dec 2013 22:58:59.960,6 Dec 2013 23:10:23.147,683.188
30,7 Dec 2013 00:33:29.216,7 Dec 2013 00:44:47.004,677.788
31,7 Dec 2013 02:08:39.061,7 Dec 2013 02:20:53.956,734.895
32,7 Dec 2013 11:00:09.052,7 Dec 2013 11:12:09.408,720.355
33,7 Dec 2013 12:35:38.449,7 Dec 2013 12:47:32.687,714.239
34,7 Dec 2013 14:10:22.696,7 Dec 2013 14:22:11.875,709.180
35,7 Dec 2013 15:44:17.282,7 Dec 2013 15:56:01.409,704.127
36,7 Dec 2013 17:17:43.251,7 Dec 2013 17:29:10.354,687.103
37,7 Dec 2013 18:51:21.688,7 Dec 2013 19:01:50.202,628.514
38,7 Dec 2013 20:26:31.932,7 Dec 2013 20:33:42.818,430.887
39,7 Dec 2013 22:05:14.648,7 Dec 2013 22:11:46.646,391.998
40,7 Dec 2013 23:41:32.751,7 Dec 2013 23:53:59.263,746.513
41,8 Dec 2013 01:22:28.305,8 Dec 2013 01:24:46.357,138.053
42,8 Dec 2013 14:48:59.552,8 Dec 2013 14:54:49.284,349.732
43,8 Dec 2013 16:18:40.298,8 Dec 2013 16:28:59.291,618.993
44,8 Dec 2013 17:55:36.833,8 Dec 2013 18:07:50.601,733.767
45,8 Dec 2013 19:37:04.381,8 Dec 2013 19:47:35.394,631.013
46,8 Dec 2013 21:16:03.284,8 Dec 2013 21:28:37.670,754.386
47,8 Dec 2013 22:56:00.434,8 Dec 2013 23:03:19.163,438.729

"Access","Start Time (UTCG)","Stop Time (UTCG)","Duration (sec)"
1,3 Dec 2013 02:06:57.914,3 Dec 2013 02:18:47.947,710.032
2,3 Dec 2013 03:45:55.718,3 Dec 2013 03:57:46.680,710.962
3,3 Dec 2013 05:26:50.399,3 Dec 2013 05:38:11.652,681.254
4,3 Dec 2013 07:05:36.003,3 Dec 2013 07:18:06.735,750.732
5,3 Dec 2013 23:44:53.919,3 Dec 2013 23:54:09.884,555.965
6,4 Dec 2013 01:20:54.397,4 Dec 2013 01:33:15.541,741.144
7,4 Dec 2013 03:02:17.205,4 Dec 2013 03:12:26.363,609.158
8,4 Dec 2013 04:41:44.890,4 Dec 2013 04:54:05.039,740.149
9,4 Dec 2013 06:20:04.019,4 Dec 2013 06:30:12.006,607.987
10,4 Dec 2013 07:54:38.565,4 Dec 2013 07:59:21.366,282.801
11,4 Dec 2013 21:21:31.145,4 Dec 2013 21:28:43.866,432.721
12,4 Dec 2013 22:55:12.917,4 Dec 2013 23:07:19.082,726.165
13,5 Dec 2013 00:39:40.858,5 Dec 2013 00:42:18.267,157.409
14,5 Dec 2013 02:15:29.553,5 Dec 2013 02:22:16.149,406.595
15,5 Dec 2013 03:47:09.901,5 Dec 2013 03:57:38.435,628.534
16,5 Dec 2013 05:19:45.182,5 Dec 2013 05:31:16.920,691.738
17,5 Dec 2013 06:52:48.774,5 Dec 2013 07:04:38.703,709.929
18,5 Dec 2013 08:26:30.354,5 Dec 2013 08:38:27.065,716.711
19,5 Dec 2013 10:01:00.577,5 Dec 2013 10:13:03.315,722.738
20,5 Dec 2013 11:36:33.345,5 Dec 2013 11:48:00.459,687.115
21,5 Dec 2013 18:57:22.206,5 Dec 2013 19:00:48.463,206.258
22,5 Dec 2013 20:27:52.585,5 Dec 2013 20:39:45.058,712.473
23,5 Dec 2013 22:04:05.920,5 Dec 2013 22:15:02.593,656.673
24,5 Dec 2013 23:38:34.539,5 Dec 2013 23:49:43.176,668.637
25,6 Dec 2013 01:12:19.449,6 Dec 2013 01:23:30.544,671.095
26,6 Dec 2013 02:45:50.753,6 Dec 2013 02:56:37.736,646.983
27,6 Dec 2013 04:19:56.772,6 Dec 2013 04:29:16.503,559.731
28,6 Dec 2013 05:56:24.703,6 Dec 2013 06:00:44.450,259.747
29,6 Dec 2013 07:33:10.292,6 Dec 2013 07:42:23.781,553.489
30,6 Dec 2013 09:09:32.078,6 Dec 2013 09:21:31.636,719.559
31,6 Dec 2013 21:12:22.550,6 Dec 2013 21:15:34.209,191.659
32,6 Dec 2013 22:42:54.538,6 Dec 2013 22:50:10.039,435.501
33,7 Dec 2013 00:13:39.339,7 Dec 2013 00:23:46.754,607.415
34,7 Dec 2013 01:45:02.271,7 Dec 2013 01:57:08.493,726.221
35,7 Dec 2013 03:25:04.284,7 Dec 2013 03:35:55.041,650.757
36,7 Dec 2013 05:05:54.467,7 Dec 2013 05:16:55.165,660.698
37,7 Dec 2013 06:44:09.992,7 Dec 2013 06:56:31.797,741.805
38,7 Dec 2013 23:22:39.000,7 Dec 2013 23:32:44.225,605.225
39,8 Dec 2013 00:59:38.039,8 Dec 2013 01:12:00.025,741.986
40,8 Dec 2013 02:40:41.882,8 Dec 2013 02:51:43.684,661.802
41,8 Dec 2013 04:19:53.619,8 Dec 2013 04:32:34.104,760.485
42,8 Dec 2013 06:01:09.177,8 Dec 2013 06:06:55.386,346.209
43,8 Dec 2013 21:00:28.107,8 Dec 2013 21:07:37.493,429.385
44,8 Dec 2013 22:34:32.719,8 Dec 2013 22:46:55.822,743.103
45,9 Dec 2013 00:16:28.359,9 Dec 2013 00:24:47.350,498.991
46,9 Dec 2013 01:56:43.633,9 Dec 2013 02:07:12.460,628.827

