Raw and processed data/Inclination variations/us_greatcircle_12sat_70deg/Aircraft-B747LAX_Narita-Transmitter-adsb_out6211-To-Satellite-700km_70deg_p1_1-Receiver-adsb_satrcvr2 Access.csv

"Access","Start Time (UTCG)","Stop Time (UTCG)","Duration (sec)"
1,3 Dec 2013 06:02:19.783,3 Dec 2013 06:16:32.725,852.942
2,3 Dec 2013 07:43:59.202,3 Dec 2013 07:58:53.735,894.533
3,3 Dec 2013 11:21:37.634,3 Dec 2013 11:28:54.168,436.534
4,3 Dec 2013 12:58:03.347,3 Dec 2013 13:11:13.081,789.734
5,3 Dec 2013 14:36:18.893,3 Dec 2013 14:51:09.512,890.619
6,3 Dec 2013 16:15:27.255,3 Dec 2013 16:30:53.947,926.692
7,3 Dec 2013 17:55:32.178,3 Dec 2013 18:11:18.989,946.811
8,3 Dec 2013 19:36:34.112,3 Dec 2013 19:52:43.001,968.889
9,3 Dec 2013 21:18:22.476,3 Dec 2013 21:31:22.149,779.673
10,4 Dec 2013 03:28:01.594,4 Dec 2013 03:38:08.609,607.014
11,4 Dec 2013 05:04:47.440,4 Dec 2013 05:20:28.884,941.444
12,4 Dec 2013 06:50:36.896,4 Dec 2013 07:00:43.125,606.228
13,4 Dec 2013 08:31:42.621,4 Dec 2013 08:42:46.311,663.690
14,4 Dec 2013 10:11:48.319,4 Dec 2013 10:23:30.338,702.019
15,4 Dec 2013 11:51:55.301,4 Dec 2013 12:02:57.529,662.228
16,4 Dec 2013 13:33:29.611,4 Dec 2013 13:41:10.403,460.791
17,4 Dec 2013 16:58:50.787,4 Dec 2013 17:11:16.262,745.475
18,4 Dec 2013 18:39:44.382,4 Dec 2013 18:55:23.430,939.048
19,5 Dec 2013 02:29:13.010,5 Dec 2013 02:41:00.275,707.265
20,5 Dec 2013 04:08:53.862,5 Dec 2013 04:22:49.376,835.514
21,5 Dec 2013 05:48:23.349,5 Dec 2013 06:03:06.694,883.345
22,5 Dec 2013 07:27:07.190,5 Dec 2013 07:42:23.403,916.214
23,5 Dec 2013 09:05:16.085,5 Dec 2013 09:21:00.981,944.896
24,5 Dec 2013 10:43:39.941,5 Dec 2013 10:59:03.120,923.179
25,5 Dec 2013 12:31:48.078,5 Dec 2013 12:42:18.441,630.363
26,5 Dec 2013 14:20:05.364,5 Dec 2013 14:32:24.946,739.581
27,5 Dec 2013 16:03:02.990,5 Dec 2013 16:19:37.661,994.671
28,6 Dec 2013 08:08:25.948,6 Dec 2013 08:23:51.935,925.986
29,6 Dec 2013 09:52:42.434,6 Dec 2013 10:07:55.780,913.345
30,6 Dec 2013 11:42:44.457,6 Dec 2013 11:54:18.768,694.311
31,6 Dec 2013 13:27:45.163,6 Dec 2013 13:44:03.297,978.134
32,6 Dec 2013 15:12:55.465,6 Dec 2013 15:25:44.149,768.684
33,7 Dec 2013 05:36:11.190,7 Dec 2013 05:47:52.677,701.487
34,7 Dec 2013 07:15:38.761,7 Dec 2013 07:31:49.199,970.438
35,7 Dec 2013 09:06:28.376,7 Dec 2013 09:14:02.844,454.468
36,7 Dec 2013 10:54:26.310,7 Dec 2013 11:05:33.635,667.324
37,7 Dec 2013 12:33:40.593,7 Dec 2013 12:48:46.407,905.814
38,7 Dec 2013 14:11:43.670,7 Dec 2013 14:27:34.009,950.340
39,7 Dec 2013 15:50:25.498,7 Dec 2013 16:06:11.184,945.686
40,7 Dec 2013 17:29:51.557,7 Dec 2013 17:45:25.519,933.962
41,7 Dec 2013 19:10:18.777,7 Dec 2013 19:25:27.167,908.390
42,7 Dec 2013 20:52:05.804,7 Dec 2013 21:05:48.348,822.544
43,8 Dec 2013 03:04:57.561,8 Dec 2013 03:08:48.780,231.219
44,8 Dec 2013 04:38:01.486,8 Dec 2013 04:54:18.778,977.292
45,8 Dec 2013 09:50:39.645,8 Dec 2013 09:59:13.834,514.189
46,8 Dec 2013 11:29:30.664,8 Dec 2013 11:40:13.900,643.236
47,8 Dec 2013 13:09:28.407,8 Dec 2013 13:20:04.250,635.843
48,8 Dec 2013 14:51:02.390,8 Dec 2013 14:59:46.808,524.418
49,8 Dec 2013 16:34:26.773,8 Dec 2013 16:41:14.572,407.799
50,8 Dec 2013 18:12:44.395,8 Dec 2013 18:28:56.914,972.519
51,9 Dec 2013 02:00:00.732,9 Dec 2013 02:15:25.115,924.383

"Access","Start Time (UTCG)","Stop Time (UTCG)","Duration (sec)"
1,3 Dec 2013 05:39:09.525,3 Dec 2013 05:49:59.309,649.784
2,3 Dec 2013 07:17:28.077,3 Dec 2013 07:33:35.439,967.363
3,3 Dec 2013 09:10:43.048,3 Dec 2013 09:12:07.653,84.605
4,3 Dec 2013 10:59:24.905,3 Dec 2013 11:01:11.082,106.176
5,3 Dec 2013 12:33:40.302,3 Dec 2013 12:46:01.082,740.781
6,3 Dec 2013 14:11:39.817,3 Dec 2013 14:26:14.482,874.666
7,3 Dec 2013 15:50:35.153,3 Dec 2013 16:05:55.460,920.308
8,3 Dec 2013 17:30:25.373,3 Dec 2013 17:46:07.345,941.972
9,3 Dec 2013 19:11:13.776,3 Dec 2013 19:27:16.792,963.015
10,3 Dec 2013 20:52:36.828,3 Dec 2013 21:07:49.932,913.104
11,4 Dec 2013 04:39:18.521,4 Dec 2013 04:55:30.196,971.675
12,4 Dec 2013 06:25:03.028,4 Dec 2013 06:35:05.725,602.697
13,4 Dec 2013 08:06:34.389,4 Dec 2013 08:17:21.871,647.482
14,4 Dec 2013 09:46:49.153,4 Dec 2013 09:58:27.265,698.112
15,4 Dec 2013 11:26:49.790,4 Dec 2013 11:38:11.963,682.173
16,4 Dec 2013 13:07:49.369,4 Dec 2013 13:16:47.360,537.991
17,4 Dec 2013 16:34:35.820,4 Dec 2013 16:42:34.272,478.452
18,4 Dec 2013 18:14:10.374,4 Dec 2013 18:30:31.735,981.361
19,5 Dec 2013 02:04:26.719,5 Dec 2013 02:15:10.699,643.980
20,5 Dec 2013 03:43:57.197,5 Dec 2013 03:57:32.420,815.223
21,5 Dec 2013 05:23:34.747,5 Dec 2013 05:38:09.039,874.292
22,5 Dec 2013 07:02:30.644,5 Dec 2013 07:17:38.572,907.928
23,5 Dec 2013 08:40:45.008,5 Dec 2013 08:56:24.570,939.562
24,5 Dec 2013 10:18:58.558,5 Dec 2013 10:34:36.943,938.384
25,5 Dec 2013 12:03:37.903,5 Dec 2013 12:16:12.486,754.583
26,5 Dec 2013 13:54:01.604,5 Dec 2013 14:04:19.333,617.729
27,5 Dec 2013 15:37:17.049,5 Dec 2013 15:53:45.162,988.113
28,5 Dec 2013 17:22:10.030,5 Dec 2013 17:32:29.905,619.874
29,6 Dec 2013 07:44:08.817,6 Dec 2013 07:57:11.457,782.640
30,6 Dec 2013 09:25:46.288,6 Dec 2013 09:42:00.548,974.261
31,6 Dec 2013 11:15:28.399,6 Dec 2013 11:27:00.811,692.413
32,6 Dec 2013 13:01:48.302,6 Dec 2013 13:17:06.825,918.523
33,6 Dec 2013 14:46:05.927,6 Dec 2013 15:01:26.738,920.811
34,7 Dec 2013 05:15:04.279,7 Dec 2013 05:19:23.899,259.619
35,7 Dec 2013 06:49:38.779,7 Dec 2013 07:06:12.323,993.544
36,7 Dec 2013 08:37:47.460,7 Dec 2013 08:48:22.950,635.491
37,7 Dec 2013 10:28:42.919,7 Dec 2013 10:36:49.543,486.624
38,7 Dec 2013 12:09:18.563,7 Dec 2013 12:23:53.460,874.898
39,7 Dec 2013 13:47:08.884,7 Dec 2013 14:02:55.761,946.877
40,7 Dec 2013 15:25:41.476,7 Dec 2013 15:41:29.635,948.159
41,7 Dec 2013 17:04:54.979,7 Dec 2013 17:20:32.256,937.277
42,7 Dec 2013 18:45:05.347,7 Dec 2013 19:00:23.168,917.822
43,7 Dec 2013 20:26:29.923,7 Dec 2013 20:40:44.336,854.414
44,8 Dec 2013 04:13:01.038,8 Dec 2013 04:28:56.758,955.720
45,8 Dec 2013 05:58:15.546,8 Dec 2013 06:08:30.907,615.361
46,8 Dec 2013 09:26:09.822,8 Dec 2013 09:33:33.979,444.157
47,8 Dec 2013 11:04:42.025,8 Dec 2013 11:15:08.826,626.802
48,8 Dec 2013 12:44:21.490,8 Dec 2013 12:55:09.225,647.735
49,8 Dec 2013 14:25:27.887,8 Dec 2013 14:34:49.461,561.573
50,8 Dec 2013 16:08:28.884,8 Dec 2013 16:14:58.736,389.851
51,8 Dec 2013 17:47:32.536,8 Dec 2013 18:03:36.231,963.695
52,8 Dec 2013 19:30:53.861,8 Dec 2013 19:39:32.655,518.794
53,9 Dec 2013 01:36:22.453,9 Dec 2013 01:49:47.783,805.330

"Access","Start Time (UTCG)","Stop Time (UTCG)","Duration (sec)"
1,3 Dec 2013 06:51:40.979,3 Dec 2013 07:08:08.179,987.200
2,3 Dec 2013 08:39:46.147,3 Dec 2013 08:48:54.465,548.319
3,3 Dec 2013 12:09:24.517,3 Dec 2013 12:20:38.605,674.089
4,3 Dec 2013 13:47:03.956,3 Dec 2013 14:01:17.740,853.784
5,3 Dec 2013 15:25:46.489,3 Dec 2013 15:40:59.068,912.579
6,3 Dec 2013 17:05:22.282,3 Dec 2013 17:20:59.467,937.186
7,3 Dec 2013 18:45:56.548,3 Dec 2013 19:01:53.834,957.286
8,3 Dec 2013 20:27:19.052,3 Dec 2013 20:43:24.134,965.082
9,4 Dec 2013 04:14:35.833,4 Dec 2013 04:30:12.549,936.715
10,4 Dec 2013 05:58:49.217,4 Dec 2013 06:09:28.549,639.332
11,4 Dec 2013 07:41:21.463,4 Dec 2013 07:51:52.557,631.094
12,4 Dec 2013 09:21:49.072,4 Dec 2013 09:33:19.042,689.970
13,4 Dec 2013 11:01:47.602,4 Dec 2013 11:13:22.369,694.767
14,4 Dec 2013 12:42:22.799,4 Dec 2013 12:52:16.008,593.209
15,4 Dec 2013 14:26:46.535,4 Dec 2013 14:28:22.610,96.075
16,4 Dec 2013 17:48:50.163,4 Dec 2013 18:04:55.917,965.753
17,4 Dec 2013 19:32:16.028,4 Dec 2013 19:42:14.648,598.620
18,5 Dec 2013 01:39:50.976,5 Dec 2013 01:49:05.941,554.965
19,5 Dec 2013 03:19:00.525,5 Dec 2013 03:32:09.273,788.748
20,5 Dec 2013 04:58:43.321,5 Dec 2013 05:13:07.209,863.888
21,5 Dec 2013 06:37:51.297,5 Dec 2013 06:52:51.080,899.783
22,5 Dec 2013 08:16:13.718,5 Dec 2013 08:31:46.214,932.497
23,5 Dec 2013 09:54:21.693,5 Dec 2013 10:10:07.487,945.794
24,5 Dec 2013 11:35:50.125,5 Dec 2013 11:50:18.633,868.508
25,5 Dec 2013 13:27:24.291,5 Dec 2013 13:36:16.985,532.694
26,5 Dec 2013 15:11:35.336,5 Dec 2013 15:27:14.765,939.428
27,5 Dec 2013 16:55:12.917,5 Dec 2013 17:09:15.545,842.628
28,6 Dec 2013 07:21:28.743,6 Dec 2013 07:29:17.790,469.047
29,6 Dec 2013 08:59:22.812,6 Dec 2013 09:16:05.710,1002.898
30,6 Dec 2013 10:47:48.543,6 Dec 2013 11:00:15.959,747.416
31,6 Dec 2013 12:35:45.459,6 Dec 2013 12:49:42.323,836.865
32,6 Dec 2013 14:19:46.845,6 Dec 2013 14:36:16.838,989.992
33,7 Dec 2013 06:24:19.302,7 Dec 2013 06:40:26.722,967.420
34,7 Dec 2013 08:09:41.963,7 Dec 2013 08:22:51.359,789.396
35,7 Dec 2013 10:02:36.898,7 Dec 2013 10:07:58.045,321.147
36,7 Dec 2013 11:45:02.267,7 Dec 2013 11:58:52.218,829.951
37,7 Dec 2013 13:22:36.507,7 Dec 2013 13:38:15.945,939.438
38,7 Dec 2013 15:00:59.928,7 Dec 2013 15:16:50.061,950.133
39,7 Dec 2013 16:40:01.967,7 Dec 2013 16:55:42.188,940.222
40,7 Dec 2013 18:19:56.497,7 Dec 2013 18:35:21.249,924.752
41,7 Dec 2013 20:01:00.614,7 Dec 2013 20:15:38.666,878.052
42,7 Dec 2013 21:46:05.433,7 Dec 2013 21:49:40.288,214.854
43,8 Dec 2013 03:48:48.050,8 Dec 2013 04:03:15.783,867.733
44,8 Dec 2013 05:30:24.833,8 Dec 2013 05:44:14.314,829.481
45,8 Dec 2013 09:01:51.930,8 Dec 2013 09:07:34.341,342.410
46,8 Dec 2013 10:39:57.095,8 Dec 2013 10:49:58.361,601.266
47,8 Dec 2013 12:19:19.955,8 Dec 2013 12:30:13.065,653.109
48,8 Dec 2013 14:00:01.002,8 Dec 2013 14:09:53.703,592.701
49,8 Dec 2013 15:42:33.864,8 Dec 2013 15:49:49.998,436.134
50,8 Dec 2013 17:22:37.560,8 Dec 2013 17:37:27.617,890.057
51,8 Dec 2013 19:04:06.729,8 Dec 2013 19:17:14.304,787.575
52,9 Dec 2013 01:14:03.093,9 Dec 2013 01:23:17.963,554.870

"Access","Start Time (UTCG)","Stop Time (UTCG)","Duration (sec)"
1,3 Dec 2013 06:26:36.584,3 Dec 2013 06:42:29.483,952.898
2,3 Dec 2013 08:11:20.617,3 Dec 2013 08:24:02.455,761.838
3,3 Dec 2013 11:45:20.130,3 Dec 2013 11:55:00.244,580.114
4,3 Dec 2013 13:22:31.605,3 Dec 2013 13:36:17.867,826.262
5,3 Dec 2013 15:01:01.104,3 Dec 2013 15:16:04.039,902.935
6,3 Dec 2013 16:40:22.923,3 Dec 2013 16:55:55.118,932.196
7,3 Dec 2013 18:20:42.620,3 Dec 2013 18:36:34.499,951.879
8,3 Dec 2013 20:01:57.393,3 Dec 2013 20:18:11.944,974.551
9,3 Dec 2013 21:45:06.654,3 Dec 2013 21:53:27.411,500.757
10,4 Dec 2013 03:50:43.159,4 Dec 2013 04:04:31.799,828.640
11,4 Dec 2013 05:31:09.075,4 Dec 2013 05:45:04.872,835.797
12,4 Dec 2013 07:16:02.687,4 Dec 2013 07:26:19.235,616.548
13,4 Dec 2013 08:56:47.196,4 Dec 2013 09:08:05.423,678.228
14,4 Dec 2013 10:36:47.478,4 Dec 2013 10:48:28.593,701.115
15,4 Dec 2013 12:17:05.661,4 Dec 2013 12:27:39.022,633.361
16,4 Dec 2013 13:59:32.451,4 Dec 2013 14:05:17.816,345.365
17,4 Dec 2013 17:23:42.356,4 Dec 2013 17:38:33.975,891.618
18,4 Dec 2013 19:05:38.943,4 Dec 2013 19:19:25.408,826.465
19,5 Dec 2013 01:17:39.289,5 Dec 2013 01:22:07.632,268.342
20,5 Dec 2013 02:54:05.189,5 Dec 2013 03:06:39.026,753.837
21,5 Dec 2013 04:33:49.502,5 Dec 2013 04:48:00.801,851.299
22,5 Dec 2013 06:13:08.894,5 Dec 2013 06:28:00.579,891.686
23,5 Dec 2013 07:51:41.356,5 Dec 2013 08:07:05.875,924.518
24,5 Dec 2013 09:29:47.950,5 Dec 2013 09:45:35.361,947.411
25,5 Dec 2013 11:08:34.537,5 Dec 2013 11:24:27.274,952.737
26,5 Dec 2013 12:59:55.571,5 Dec 2013 13:08:53.630,538.059
27,5 Dec 2013 14:45:53.341,5 Dec 2013 15:00:07.091,853.749
28,5 Dec 2013 16:28:58.541,5 Dec 2013 16:44:50.212,951.671
29,6 Dec 2013 08:33:34.569,6 Dec 2013 08:50:05.343,990.774
30,6 Dec 2013 10:20:06.740,6 Dec 2013 10:33:57.963,831.222
31,6 Dec 2013 12:09:27.857,6 Dec 2013 12:21:59.969,752.112
32,6 Dec 2013 13:53:42.623,6 Dec 2013 14:10:27.481,1004.858
33,6 Dec 2013 15:41:11.297,6 Dec 2013 15:48:14.432,423.135
34,7 Dec 2013 05:59:44.861,7 Dec 2013 06:14:25.555,880.694
35,7 Dec 2013 07:42:19.227,7 Dec 2013 07:57:21.225,901.998
36,7 Dec 2013 09:35:11.538,7 Dec 2013 09:40:14.663,303.126
37,7 Dec 2013 11:20:06.184,7 Dec 2013 11:33:39.475,813.291
38,7 Dec 2013 12:58:06.881,7 Dec 2013 13:13:33.317,926.436
39,7 Dec 2013 14:36:20.692,7 Dec 2013 14:52:11.791,951.099
40,7 Dec 2013 16:15:12.235,7 Dec 2013 16:30:55.244,943.009
41,7 Dec 2013 17:54:51.985,7 Dec 2013 18:10:21.920,929.935
42,7 Dec 2013 19:35:37.077,7 Dec 2013 19:50:32.609,895.532
43,7 Dec 2013 21:17:54.979,7 Dec 2013 21:29:19.624,684.645
44,8 Dec 2013 03:25:37.226,8 Dec 2013 03:37:01.823,684.596
45,8 Dec 2013 05:03:47.286,8 Dec 2013 05:19:25.435,938.148
46,8 Dec 2013 08:38:11.506,8 Dec 2013 08:40:47.818,156.312
47,8 Dec 2013 10:15:16.053,8 Dec 2013 10:24:40.789,564.736
48,8 Dec 2013 11:54:23.187,8 Dec 2013 12:05:14.939,651.752
49,8 Dec 2013 13:34:41.368,8 Dec 2013 13:44:58.849,617.481
50,8 Dec 2013 15:16:44.552,8 Dec 2013 15:24:46.602,482.050
51,8 Dec 2013 16:58:07.452,8 Dec 2013 17:10:17.818,730.366
52,8 Dec 2013 18:38:13.327,8 Dec 2013 18:53:31.992,918.665

"Access","Start Time (UTCG)","Stop Time (UTCG)","Duration (sec)"
1,3 Dec 2013 01:28:04.556,3 Dec 2013 01:36:32.607,508.051
2,3 Dec 2013 03:07:16.069,3 Dec 2013 03:23:29.064,972.994
3,3 Dec 2013 10:54:58.803,3 Dec 2013 11:09:36.693,877.890
4,3 Dec 2013 12:35:42.655,3 Dec 2013 12:51:23.391,940.736
5,3 Dec 2013 14:16:02.673,3 Dec 2013 14:31:56.974,954.301
6,3 Dec 2013 15:55:33.950,3 Dec 2013 16:11:29.703,955.754
7,3 Dec 2013 17:34:27.220,3 Dec 2013 17:50:15.372,948.151
8,3 Dec 2013 19:13:29.729,3 Dec 2013 19:28:19.716,889.987
9,3 Dec 2013 20:57:45.223,3 Dec 2013 21:08:10.269,625.046
10,3 Dec 2013 22:47:35.067,3 Dec 2013 22:57:33.472,598.406
11,4 Dec 2013 00:30:06.112,4 Dec 2013 00:46:37.712,991.601
12,4 Dec 2013 02:15:22.948,4 Dec 2013 02:23:49.409,506.461
13,4 Dec 2013 16:35:42.040,4 Dec 2013 16:50:01.272,859.232
14,4 Dec 2013 18:18:43.313,4 Dec 2013 18:34:34.959,951.646
15,4 Dec 2013 20:08:43.183,4 Dec 2013 20:20:12.389,689.207
16,4 Dec 2013 21:54:21.739,4 Dec 2013 22:10:11.368,949.630
17,4 Dec 2013 23:38:49.309,4 Dec 2013 23:53:12.651,863.342
18,5 Dec 2013 14:05:40.296,5 Dec 2013 14:13:16.346,456.050
19,5 Dec 2013 15:42:27.350,5 Dec 2013 15:59:02.135,994.785
20,5 Dec 2013 17:31:07.775,5 Dec 2013 17:41:50.644,642.869
21,5 Dec 2013 19:20:25.210,5 Dec 2013 19:31:26.319,661.110
22,5 Dec 2013 21:02:58.334,5 Dec 2013 21:18:30.948,932.615
23,5 Dec 2013 22:41:02.294,5 Dec 2013 22:56:37.515,935.222
24,6 Dec 2013 00:19:39.897,6 Dec 2013 00:34:26.600,886.703
25,6 Dec 2013 01:58:53.632,6 Dec 2013 02:12:49.470,835.838
26,6 Dec 2013 03:39:07.993,6 Dec 2013 03:51:56.587,768.594
27,6 Dec 2013 05:21:06.423,6 Dec 2013 05:31:04.511,598.088
28,6 Dec 2013 13:05:53.657,6 Dec 2013 13:22:04.297,970.640
29,6 Dec 2013 14:52:14.620,6 Dec 2013 15:01:53.540,578.921
30,6 Dec 2013 18:21:21.729,6 Dec 2013 18:28:41.457,439.728
31,6 Dec 2013 19:59:11.979,6 Dec 2013 20:10:32.058,680.079
32,6 Dec 2013 21:38:23.516,6 Dec 2013 21:50:44.328,740.812
33,6 Dec 2013 23:18:45.249,6 Dec 2013 23:30:55.763,730.514
34,7 Dec 2013 01:00:19.120,7 Dec 2013 01:12:05.466,706.346
35,7 Dec 2013 02:40:45.316,7 Dec 2013 02:56:54.355,969.039
36,7 Dec 2013 04:24:58.153,7 Dec 2013 04:30:54.425,356.272
37,7 Dec 2013 10:28:59.337,7 Dec 2013 10:43:24.247,864.911
38,7 Dec 2013 12:08:57.401,7 Dec 2013 12:24:48.709,951.308
39,7 Dec 2013 13:50:37.560,7 Dec 2013 14:06:01.014,923.454
40,7 Dec 2013 15:31:14.436,7 Dec 2013 15:46:18.113,903.677
41,7 Dec 2013 17:11:08.492,7 Dec 2013 17:25:36.148,867.656
42,7 Dec 2013 18:51:13.286,7 Dec 2013 19:03:58.711,765.425
43,7 Dec 2013 20:33:39.859,7 Dec 2013 20:40:31.364,411.505
44,8 Dec 2013 00:02:42.144,8 Dec 2013 00:18:31.215,949.071
45,8 Dec 2013 01:45:52.852,8 Dec 2013 01:58:20.963,748.112
46,8 Dec 2013 12:55:59.930,8 Dec 2013 13:02:50.598,410.667
47,8 Dec 2013 14:31:55.351,8 Dec 2013 14:42:43.525,648.174
48,8 Dec 2013 16:07:51.082,8 Dec 2013 16:21:51.192,840.110
49,8 Dec 2013 17:49:32.808,8 Dec 2013 18:05:42.809,970.001
50,8 Dec 2013 19:39:44.535,8 Dec 2013 19:50:42.591,658.056
51,8 Dec 2013 21:25:56.284,8 Dec 2013 21:40:59.863,903.579
52,8 Dec 2013 23:09:41.664,8 Dec 2013 23:25:09.901,928.236

"Access","Start Time (UTCG)","Stop Time (UTCG)","Duration (sec)"
1,3 Dec 2013 02:41:57.669,3 Dec 2013 02:58:08.965,971.296
2,3 Dec 2013 04:25:47.901,3 Dec 2013 04:33:56.605,488.704
3,3 Dec 2013 10:30:40.270,3 Dec 2013 10:43:55.506,795.236
4,3 Dec 2013 12:10:32.155,3 Dec 2013 12:26:04.214,932.059
5,3 Dec 2013 13:51:01.877,3 Dec 2013 14:06:54.729,952.852
6,3 Dec 2013 15:30:45.719,3 Dec 2013 15:46:41.509,955.789
7,3 Dec 2013 17:09:45.527,3 Dec 2013 17:25:37.682,952.155
8,3 Dec 2013 18:48:39.155,3 Dec 2013 19:03:53.277,914.122
9,3 Dec 2013 20:29:28.023,3 Dec 2013 20:42:22.159,774.136
10,3 Dec 2013 22:21:30.427,3 Dec 2013 22:29:03.194,452.767
11,4 Dec 2013 00:04:28.755,4 Dec 2013 00:20:20.653,951.898
12,4 Dec 2013 01:48:04.863,4 Dec 2013 02:01:14.358,789.495
13,4 Dec 2013 16:12:04.636,4 Dec 2013 16:22:46.059,641.423
14,4 Dec 2013 17:52:03.324,4 Dec 2013 18:08:39.034,995.710
15,4 Dec 2013 19:41:12.159,4 Dec 2013 19:53:12.339,720.180
16,4 Dec 2013 21:28:23.309,4 Dec 2013 21:43:00.585,877.276
17,4 Dec 2013 23:12:22.430,4 Dec 2013 23:28:27.271,964.841
18,5 Dec 2013 15:16:52.420,5 Dec 2013 15:33:15.121,982.700
19,5 Dec 2013 17:03:04.341,5 Dec 2013 17:16:01.222,776.881
20,5 Dec 2013 18:54:12.855,5 Dec 2013 19:03:03.675,530.819
21,5 Dec 2013 20:37:58.653,5 Dec 2013 20:53:47.567,948.914
22,5 Dec 2013 22:16:27.554,5 Dec 2013 22:32:10.206,942.652
23,5 Dec 2013 23:54:57.692,6 Dec 2013 00:09:57.572,899.880
24,6 Dec 2013 01:34:00.713,6 Dec 2013 01:48:09.211,848.499
25,6 Dec 2013 03:13:56.889,6 Dec 2013 03:27:06.906,790.016
26,6 Dec 2013 04:55:22.557,6 Dec 2013 05:06:23.065,660.508
27,6 Dec 2013 12:41:22.416,6 Dec 2013 12:56:25.470,903.054
28,6 Dec 2013 14:24:06.472,6 Dec 2013 14:37:29.820,803.348
29,6 Dec 2013 17:57:31.465,6 Dec 2013 18:02:22.516,291.050
30,6 Dec 2013 19:34:34.427,6 Dec 2013 19:45:19.664,645.237
31,6 Dec 2013 21:13:29.525,6 Dec 2013 21:25:43.974,734.449
32,6 Dec 2013 22:53:32.609,6 Dec 2013 23:05:49.594,736.985
33,7 Dec 2013 00:34:50.276,7 Dec 2013 00:46:39.632,709.356
34,7 Dec 2013 02:15:51.713,7 Dec 2013 02:31:03.717,912.003
35,7 Dec 2013 03:57:31.050,7 Dec 2013 04:09:32.311,721.261
36,7 Dec 2013 10:05:59.617,7 Dec 2013 10:17:20.350,680.733
37,7 Dec 2013 11:43:23.682,7 Dec 2013 11:59:23.771,960.089
38,7 Dec 2013 13:25:18.480,7 Dec 2013 13:40:47.583,929.102
39,7 Dec 2013 15:06:10.589,7 Dec 2013 15:21:19.530,908.940
40,7 Dec 2013 16:46:11.688,7 Dec 2013 17:00:51.836,880.148
41,7 Dec 2013 18:26:06.533,7 Dec 2013 18:39:28.820,802.287
42,7 Dec 2013 20:07:31.640,7 Dec 2013 20:16:47.186,555.545
43,7 Dec 2013 23:37:22.821,7 Dec 2013 23:51:41.538,858.717
44,8 Dec 2013 01:19:35.691,8 Dec 2013 01:34:38.238,902.546
45,8 Dec 2013 12:32:01.856,8 Dec 2013 12:37:38.118,336.262
46,8 Dec 2013 14:07:57.641,8 Dec 2013 14:17:50.677,593.036
47,8 Dec 2013 15:43:49.723,8 Dec 2013 15:57:07.694,797.972
48,8 Dec 2013 17:23:01.318,8 Dec 2013 17:39:45.113,1003.795
49,8 Dec 2013 19:11:58.331,8 Dec 2013 19:23:58.292,719.960
50,8 Dec 2013 20:59:58.390,8 Dec 2013 21:13:33.613,815.223
51,8 Dec 2013 22:43:33.883,8 Dec 2013 23:00:04.100,990.216

"Access","Start Time (UTCG)","Stop Time (UTCG)","Duration (sec)"
1,3 Dec 2013 02:16:53.707,3 Dec 2013 02:32:02.672,908.965
2,3 Dec 2013 03:58:49.987,3 Dec 2013 04:11:44.871,774.884
3,3 Dec 2013 10:08:29.038,3 Dec 2013 10:17:22.493,533.455
4,3 Dec 2013 11:45:20.721,3 Dec 2013 12:00:40.325,919.605
5,3 Dec 2013 13:25:58.039,3 Dec 2013 13:41:48.487,950.448
6,3 Dec 2013 15:05:54.568,3 Dec 2013 15:21:50.144,955.575
7,3 Dec 2013 16:45:03.257,3 Dec 2013 17:00:57.590,954.333
8,3 Dec 2013 18:23:52.844,3 Dec 2013 18:39:23.400,930.556
9,3 Dec 2013 20:03:31.610,3 Dec 2013 20:16:57.948,806.338
10,3 Dec 2013 21:54:31.545,3 Dec 2013 22:01:03.198,391.652
11,3 Dec 2013 23:38:54.057,3 Dec 2013 23:53:23.765,869.708
12,4 Dec 2013 01:21:45.791,4 Dec 2013 01:37:10.808,925.017
13,4 Dec 2013 17:25:56.967,4 Dec 2013 17:42:39.853,1002.886
14,4 Dec 2013 19:13:28.426,4 Dec 2013 19:26:42.819,794.393
15,4 Dec 2013 21:02:14.142,4 Dec 2013 21:15:26.059,791.917
16,4 Dec 2013 22:46:15.008,4 Dec 2013 23:02:57.771,1002.764
17,5 Dec 2013 14:51:59.821,5 Dec 2013 15:07:15.377,915.556
18,5 Dec 2013 16:35:33.727,5 Dec 2013 16:50:20.827,887.100
19,5 Dec 2013 18:27:17.625,5 Dec 2013 18:35:04.161,466.536
20,5 Dec 2013 20:12:08.034,5 Dec 2013 20:27:12.170,904.136
21,5 Dec 2013 21:51:55.000,5 Dec 2013 22:07:40.832,945.832
22,5 Dec 2013 23:30:17.417,5 Dec 2013 23:45:30.252,912.835
23,6 Dec 2013 01:09:11.069,6 Dec 2013 01:23:32.063,860.995
24,6 Dec 2013 02:48:51.194,6 Dec 2013 03:02:18.720,807.526
25,6 Dec 2013 04:29:49.612,6 Dec 2013 04:41:36.237,706.625
26,6 Dec 2013 06:13:31.791,6 Dec 2013 06:19:44.917,373.127
27,6 Dec 2013 12:17:46.714,6 Dec 2013 12:30:20.289,753.575
28,6 Dec 2013 13:57:12.247,6 Dec 2013 14:12:36.287,924.040
29,6 Dec 2013 19:10:01.949,6 Dec 2013 19:19:59.693,597.744
30,6 Dec 2013 20:48:39.677,6 Dec 2013 21:00:42.646,722.970
31,6 Dec 2013 22:28:24.846,6 Dec 2013 22:40:46.213,741.367
32,7 Dec 2013 00:09:24.522,7 Dec 2013 00:21:19.934,715.412
33,7 Dec 2013 01:51:22.155,7 Dec 2013 02:04:14.805,772.650
34,7 Dec 2013 03:31:28.976,7 Dec 2013 03:46:14.287,885.312
35,7 Dec 2013 09:45:37.697,7 Dec 2013 09:49:08.561,210.865
36,7 Dec 2013 11:17:52.468,7 Dec 2013 11:33:56.481,964.012
37,7 Dec 2013 12:59:55.263,7 Dec 2013 13:15:30.865,935.602
38,7 Dec 2013 14:41:03.408,7 Dec 2013 14:56:17.129,913.721
39,7 Dec 2013 16:21:14.302,7 Dec 2013 16:36:04.139,889.837
40,7 Dec 2013 18:01:04.600,7 Dec 2013 18:14:54.790,830.190
41,7 Dec 2013 19:41:51.474,7 Dec 2013 19:52:40.946,649.472
42,7 Dec 2013 23:12:11.566,7 Dec 2013 23:24:00.848,709.283
43,8 Dec 2013 00:53:45.110,8 Dec 2013 01:09:59.502,974.393
44,8 Dec 2013 12:08:11.325,8 Dec 2013 12:12:11.477,240.152
45,8 Dec 2013 13:43:59.111,8 Dec 2013 13:52:54.866,535.755
46,8 Dec 2013 15:19:50.591,8 Dec 2013 15:32:21.891,751.301
47,8 Dec 2013 16:57:04.173,8 Dec 2013 17:13:40.136,995.963
48,8 Dec 2013 18:44:08.726,8 Dec 2013 18:57:41.363,812.638
49,8 Dec 2013 20:33:44.765,8 Dec 2013 20:45:47.669,722.905
50,8 Dec 2013 22:17:38.127,8 Dec 2013 22:34:18.158,1000.031
51,9 Dec 2013 00:03:52.248,9 Dec 2013 00:12:07.626,495.377

"Access","Start Time (UTCG)","Stop Time (UTCG)","Duration (sec)"
1,3 Dec 2013 01:52:08.555,3 Dec 2013 02:05:00.689,772.134
2,3 Dec 2013 03:32:50.610,3 Dec 2013 03:48:03.829,913.219
3,3 Dec 2013 11:20:09.245,3 Dec 2013 11:35:11.336,902.091
4,3 Dec 2013 13:00:51.484,3 Dec 2013 13:16:38.089,946.604
5,3 Dec 2013 14:41:00.247,3 Dec 2013 14:56:55.377,955.130
6,3 Dec 2013 16:20:19.618,3 Dec 2013 16:36:14.990,955.372
7,3 Dec 2013 17:59:09.291,3 Dec 2013 18:14:50.656,941.365
8,3 Dec 2013 19:38:26.412,3 Dec 2013 19:52:41.783,855.371
9,3 Dec 2013 21:26:20.721,3 Dec 2013 21:34:13.952,473.232
10,3 Dec 2013 23:13:18.185,3 Dec 2013 23:25:46.619,748.434
11,4 Dec 2013 00:55:49.927,4 Dec 2013 01:12:15.298,985.371
12,4 Dec 2013 17:00:27.358,4 Dec 2013 17:16:30.754,963.396
13,4 Dec 2013 18:45:53.947,4 Dec 2013 19:00:33.724,879.777
14,4 Dec 2013 20:35:44.096,4 Dec 2013 20:47:42.649,718.554
15,4 Dec 2013 22:20:16.952,4 Dec 2013 22:36:51.448,994.496
16,5 Dec 2013 00:05:59.666,5 Dec 2013 00:16:51.463,651.797
17,5 Dec 2013 14:28:00.927,5 Dec 2013 14:40:50.346,769.419
18,5 Dec 2013 16:08:41.238,5 Dec 2013 16:24:42.606,961.368
19,5 Dec 2013 17:59:25.337,5 Dec 2013 18:08:03.173,517.836
20,5 Dec 2013 19:46:19.199,5 Dec 2013 19:59:34.682,795.482
21,5 Dec 2013 21:27:25.050,5 Dec 2013 21:43:08.193,943.142
22,5 Dec 2013 23:05:38.950,5 Dec 2013 23:21:03.863,924.913
23,6 Dec 2013 00:44:24.252,6 Dec 2013 00:58:57.951,873.699
24,6 Dec 2013 02:23:50.289,6 Dec 2013 02:37:32.740,822.450
25,6 Dec 2013 04:04:25.239,6 Dec 2013 04:16:46.801,741.562
26,6 Dec 2013 05:47:05.720,6 Dec 2013 05:55:35.685,509.965
27,6 Dec 2013 11:55:50.214,6 Dec 2013 12:03:07.109,436.894
28,6 Dec 2013 13:31:10.384,6 Dec 2013 13:47:26.984,976.600
29,6 Dec 2013 18:45:36.328,6 Dec 2013 18:54:28.871,532.543
30,6 Dec 2013 20:23:53.825,6 Dec 2013 20:35:39.142,705.317
31,6 Dec 2013 22:03:21.876,6 Dec 2013 22:15:44.753,742.877
32,6 Dec 2013 23:44:02.659,6 Dec 2013 23:56:05.589,722.930
33,7 Dec 2013 01:25:50.085,7 Dec 2013 01:37:38.036,707.951
34,7 Dec 2013 03:05:57.317,7 Dec 2013 03:21:57.810,960.493
35,7 Dec 2013 10:53:01.761,7 Dec 2013 11:08:51.617,949.856
36,7 Dec 2013 12:34:28.113,7 Dec 2013 12:50:11.152,943.039
37,7 Dec 2013 14:15:52.492,7 Dec 2013 14:31:10.924,918.432
38,7 Dec 2013 15:56:15.466,7 Dec 2013 16:11:12.945,897.478
39,7 Dec 2013 17:36:05.733,7 Dec 2013 17:50:17.154,851.421
40,7 Dec 2013 19:16:27.174,7 Dec 2013 19:28:23.417,716.243
41,7 Dec 2013 22:47:15.445,7 Dec 2013 22:55:16.392,480.947
42,8 Dec 2013 00:28:08.916,8 Dec 2013 00:44:36.370,987.453
43,8 Dec 2013 02:13:24.500,8 Dec 2013 02:20:18.137,413.636
44,8 Dec 2013 11:45:23.101,8 Dec 2013 11:45:35.606,12.505
45,8 Dec 2013 13:19:59.680,8 Dec 2013 13:27:55.303,475.623
46,8 Dec 2013 14:55:52.761,8 Dec 2013 15:07:33.858,701.097
47,8 Dec 2013 16:31:55.602,8 Dec 2013 16:47:20.020,924.418
48,8 Dec 2013 18:16:36.633,8 Dec 2013 18:31:39.325,902.692
49,8 Dec 2013 20:07:03.078,8 Dec 2013 20:18:02.478,659.401
50,8 Dec 2013 21:51:47.437,8 Dec 2013 22:07:56.033,968.597
51,8 Dec 2013 23:36:14.289,8 Dec 2013 23:49:24.548,790.259

"Access","Start Time (UTCG)","Stop Time (UTCG)","Duration (sec)"
1,3 Dec 2013 01:03:06.897,3 Dec 2013 01:15:53.116,766.219
2,3 Dec 2013 02:44:50.736,3 Dec 2013 03:01:09.034,978.298
3,3 Dec 2013 04:34:39.984,3 Dec 2013 04:46:07.655,687.671
4,3 Dec 2013 06:21:04.090,3 Dec 2013 06:36:12.194,908.104
5,3 Dec 2013 08:05:01.438,3 Dec 2013 08:20:31.598,930.160
6,4 Dec 2013 00:09:26.442,4 Dec 2013 00:26:00.277,993.835
7,4 Dec 2013 01:56:24.613,4 Dec 2013 02:09:09.439,764.826
8,4 Dec 2013 03:46:21.057,4 Dec 2013 03:57:21.316,660.258
9,4 Dec 2013 05:30:17.117,4 Dec 2013 05:46:57.938,1000.821
10,4 Dec 2013 07:10:34.703,4 Dec 2013 07:25:21.994,887.291
11,4 Dec 2013 08:49:22.633,4 Dec 2013 09:02:09.037,766.404
12,4 Dec 2013 10:28:41.951,4 Dec 2013 10:39:20.684,638.734
13,4 Dec 2013 12:09:08.065,4 Dec 2013 12:17:05.119,477.053
14,4 Dec 2013 21:33:58.918,4 Dec 2013 21:49:29.785,930.866
15,4 Dec 2013 23:17:45.371,4 Dec 2013 23:30:45.909,780.538
16,5 Dec 2013 02:51:44.099,5 Dec 2013 02:58:33.782,409.683
17,5 Dec 2013 04:28:41.599,5 Dec 2013 04:40:53.905,732.306
18,5 Dec 2013 06:07:19.762,5 Dec 2013 06:21:06.306,826.544
19,5 Dec 2013 07:46:57.794,5 Dec 2013 08:01:12.433,854.639
20,5 Dec 2013 09:27:38.962,5 Dec 2013 09:42:06.849,867.886
21,5 Dec 2013 11:09:06.687,5 Dec 2013 11:24:38.807,932.120
22,5 Dec 2013 12:51:08.204,5 Dec 2013 13:01:39.697,631.493
23,5 Dec 2013 18:58:15.768,5 Dec 2013 19:11:02.346,766.577
24,5 Dec 2013 20:37:18.842,5 Dec 2013 20:51:59.566,880.724
25,5 Dec 2013 22:20:06.711,5 Dec 2013 22:33:43.725,817.014
26,6 Dec 2013 00:01:08.744,6 Dec 2013 00:14:42.051,813.306
27,6 Dec 2013 01:41:19.174,6 Dec 2013 01:54:34.285,795.111
28,6 Dec 2013 03:21:34.237,6 Dec 2013 03:33:23.366,709.130
29,6 Dec 2013 05:03:49.152,6 Dec 2013 05:10:37.294,408.143
30,6 Dec 2013 08:30:32.021,6 Dec 2013 08:45:06.767,874.746
31,6 Dec 2013 10:12:34.588,6 Dec 2013 10:27:02.751,868.163
32,6 Dec 2013 18:05:20.144,6 Dec 2013 18:10:44.515,324.371
33,6 Dec 2013 19:43:03.513,6 Dec 2013 19:53:26.224,622.711
34,6 Dec 2013 21:21:27.026,6 Dec 2013 21:33:40.310,733.284
35,6 Dec 2013 22:59:09.923,6 Dec 2013 23:12:53.377,823.454
36,7 Dec 2013 00:36:23.438,7 Dec 2013 00:51:34.586,911.148
37,7 Dec 2013 02:15:41.379,7 Dec 2013 02:32:09.169,987.790
38,7 Dec 2013 04:05:47.776,7 Dec 2013 04:16:29.501,641.726
39,7 Dec 2013 05:52:54.789,7 Dec 2013 06:06:50.687,835.898
40,7 Dec 2013 07:36:14.673,7 Dec 2013 07:52:28.191,973.518
41,7 Dec 2013 23:41:17.186,7 Dec 2013 23:57:27.788,970.603
42,8 Dec 2013 01:26:50.066,8 Dec 2013 01:41:10.723,860.657
43,8 Dec 2013 03:16:43.720,8 Dec 2013 03:28:26.506,702.786
44,8 Dec 2013 05:01:13.742,8 Dec 2013 05:17:49.685,995.943
45,8 Dec 2013 06:47:25.883,8 Dec 2013 06:58:04.562,638.679
46,8 Dec 2013 21:07:31.303,8 Dec 2013 21:21:31.352,840.049
47,8 Dec 2013 22:49:03.863,8 Dec 2013 23:04:19.438,915.574

"Access","Start Time (UTCG)","Stop Time (UTCG)","Duration (sec)"
1,3 Dec 2013 02:18:25.890,3 Dec 2013 02:35:11.072,1005.182
2,3 Dec 2013 04:06:57.074,3 Dec 2013 04:19:25.203,748.129
3,3 Dec 2013 05:55:02.575,3 Dec 2013 06:08:46.676,824.100
4,3 Dec 2013 07:38:50.501,3 Dec 2013 07:55:22.343,991.842
5,3 Dec 2013 23:44:16.193,4 Dec 2013 00:00:01.428,945.236
6,4 Dec 2013 01:28:47.933,4 Dec 2013 01:43:18.156,870.223
7,4 Dec 2013 03:19:42.117,4 Dec 2013 03:29:21.294,579.178
8,4 Dec 2013 05:04:21.078,4 Dec 2013 05:20:19.512,958.434
9,4 Dec 2013 06:45:57.238,4 Dec 2013 07:01:07.887,910.649
10,4 Dec 2013 08:24:38.151,4 Dec 2013 08:37:56.729,798.578
11,4 Dec 2013 10:03:48.064,4 Dec 2013 10:14:58.707,670.642
12,4 Dec 2013 11:43:51.087,4 Dec 2013 11:52:38.978,527.891
13,4 Dec 2013 13:27:04.995,4 Dec 2013 13:28:58.166,113.171
14,4 Dec 2013 21:10:01.656,4 Dec 2013 21:23:29.897,808.241
15,4 Dec 2013 22:50:36.403,4 Dec 2013 23:05:45.732,909.329
16,5 Dec 2013 02:28:56.649,5 Dec 2013 02:31:16.847,140.198
17,5 Dec 2013 04:04:12.764,5 Dec 2013 04:15:39.302,686.538
18,5 Dec 2013 05:42:34.646,5 Dec 2013 05:56:06.661,812.015
19,5 Dec 2013 07:21:57.401,5 Dec 2013 07:36:08.012,850.611
20,5 Dec 2013 09:02:23.046,5 Dec 2013 09:16:46.773,863.727
21,5 Dec 2013 10:43:44.242,5 Dec 2013 10:58:35.680,891.439
22,5 Dec 2013 12:24:51.332,5 Dec 2013 12:38:51.877,840.546
23,5 Dec 2013 18:36:18.820,5 Dec 2013 18:44:10.056,471.235
24,5 Dec 2013 20:11:18.422,5 Dec 2013 20:27:13.076,954.654
25,5 Dec 2013 21:54:38.773,5 Dec 2013 22:08:20.613,821.840
26,5 Dec 2013 23:35:59.776,5 Dec 2013 23:49:33.407,813.630
27,6 Dec 2013 01:16:18.765,6 Dec 2013 01:29:42.397,803.632
28,6 Dec 2013 02:56:25.756,6 Dec 2013 03:08:46.994,741.238
29,6 Dec 2013 04:37:49.726,6 Dec 2013 04:46:37.136,527.409
30,6 Dec 2013 08:05:31.690,6 Dec 2013 08:17:36.048,724.358
31,6 Dec 2013 09:46:42.720,6 Dec 2013 10:02:41.774,959.053
32,6 Dec 2013 19:18:26.587,6 Dec 2013 19:28:06.412,579.825
33,6 Dec 2013 20:56:54.033,6 Dec 2013 21:08:44.303,710.270
34,6 Dec 2013 22:34:48.364,6 Dec 2013 22:48:08.730,800.367
35,7 Dec 2013 00:12:05.271,7 Dec 2013 00:26:56.789,891.518
36,7 Dec 2013 01:49:31.479,7 Dec 2013 02:06:08.997,997.518
37,7 Dec 2013 03:37:48.115,7 Dec 2013 03:50:04.501,736.385
38,7 Dec 2013 05:26:54.173,7 Dec 2013 05:39:05.623,731.450
39,7 Dec 2013 07:10:19.110,7 Dec 2013 07:26:58.886,999.776
40,7 Dec 2013 08:57:47.264,7 Dec 2013 09:02:23.227,275.963
41,7 Dec 2013 23:16:30.416,7 Dec 2013 23:31:09.402,878.986
42,8 Dec 2013 00:59:36.602,8 Dec 2013 01:15:14.953,938.351
43,8 Dec 2013 02:49:45.226,8 Dec 2013 03:00:51.038,665.812
44,8 Dec 2013 04:35:17.024,8 Dec 2013 04:51:06.942,949.919
45,8 Dec 2013 06:20:01.993,8 Dec 2013 06:34:20.883,858.891
46,8 Dec 2013 20:44:26.192,8 Dec 2013 20:54:47.348,621.156
47,8 Dec 2013 22:22:36.208,8 Dec 2013 22:38:53.060,976.852
48,9 Dec 2013 00:13:26.302,9 Dec 2013 00:19:57.096,390.793
49,9 Dec 2013 02:03:09.678,9 Dec 2013 02:10:40.722,451.044

"Access","Start Time (UTCG)","Stop Time (UTCG)","Duration (sec)"
1,3 Dec 2013 01:52:35.781,3 Dec 2013 02:09:05.882,990.101
2,3 Dec 2013 03:39:13.363,3 Dec 2013 03:53:08.407,835.044
3,3 Dec 2013 05:28:44.785,3 Dec 2013 05:41:03.710,738.925
4,3 Dec 2013 07:12:51.878,3 Dec 2013 07:29:33.544,1001.666
5,3 Dec 2013 08:59:21.425,3 Dec 2013 09:07:36.966,495.542
6,3 Dec 2013 23:19:54.160,3 Dec 2013 23:33:42.277,828.116
7,4 Dec 2013 01:01:44.185,4 Dec 2013 01:17:33.309,949.124
8,4 Dec 2013 02:52:19.602,4 Dec 2013 03:01:56.055,576.454
9,4 Dec 2013 04:38:27.859,4 Dec 2013 04:53:07.454,879.595
10,4 Dec 2013 06:21:22.064,4 Dec 2013 06:36:50.758,928.694
11,4 Dec 2013 07:59:55.315,4 Dec 2013 08:13:45.406,830.091
12,4 Dec 2013 09:38:57.246,4 Dec 2013 09:50:39.546,702.299
13,4 Dec 2013 11:18:42.278,4 Dec 2013 11:28:11.710,569.432
14,4 Dec 2013 13:00:23.596,4 Dec 2013 13:05:36.419,312.823
15,4 Dec 2013 20:47:22.876,4 Dec 2013 20:56:42.025,559.149
16,4 Dec 2013 22:24:19.408,4 Dec 2013 22:40:32.497,973.089
17,5 Dec 2013 03:39:50.435,5 Dec 2013 03:50:15.185,624.751
18,5 Dec 2013 05:17:53.127,5 Dec 2013 05:31:05.671,792.544
19,5 Dec 2013 06:57:01.011,5 Dec 2013 07:11:06.046,845.035
20,5 Dec 2013 08:37:10.714,5 Dec 2013 08:51:31.283,860.569
21,5 Dec 2013 10:18:20.009,5 Dec 2013 10:33:01.389,881.379
22,5 Dec 2013 11:59:14.472,5 Dec 2013 12:14:55.975,941.503
23,5 Dec 2013 19:46:08.216,5 Dec 2013 20:02:12.921,964.705
24,5 Dec 2013 21:29:05.370,5 Dec 2013 21:42:55.165,829.796
25,5 Dec 2013 23:10:46.822,5 Dec 2013 23:24:20.597,813.776
26,6 Dec 2013 00:51:17.473,6 Dec 2013 01:04:46.489,809.016
27,6 Dec 2013 02:31:21.435,6 Dec 2013 02:44:06.554,765.119
28,6 Dec 2013 04:12:12.622,6 Dec 2013 04:22:20.586,607.964
29,6 Dec 2013 07:40:58.956,6 Dec 2013 07:48:48.730,469.774
30,6 Dec 2013 09:21:08.063,6 Dec 2013 09:37:34.031,985.968
31,6 Dec 2013 11:07:35.991,6 Dec 2013 11:10:55.250,199.259
32,6 Dec 2013 18:53:53.095,6 Dec 2013 19:02:36.582,523.487
33,6 Dec 2013 20:32:18.579,6 Dec 2013 20:43:43.895,685.316
34,6 Dec 2013 22:10:24.212,6 Dec 2013 22:23:21.959,777.746
35,6 Dec 2013 23:47:47.582,7 Dec 2013 00:02:17.298,869.716
36,7 Dec 2013 01:25:05.425,7 Dec 2013 01:40:44.191,938.766
37,7 Dec 2013 03:09:58.047,7 Dec 2013 03:24:00.077,842.030
38,7 Dec 2013 05:00:30.725,7 Dec 2013 05:11:09.524,638.799
39,7 Dec 2013 06:44:30.847,7 Dec 2013 07:00:51.580,980.732
40,7 Dec 2013 08:29:08.411,7 Dec 2013 08:41:00.704,712.293
41,7 Dec 2013 22:52:45.662,7 Dec 2013 23:04:14.417,688.755
42,8 Dec 2013 00:32:54.730,8 Dec 2013 00:49:23.127,988.396
43,8 Dec 2013 02:22:14.152,8 Dec 2013 02:33:47.879,693.727
44,8 Dec 2013 04:09:18.620,8 Dec 2013 04:23:53.262,874.642
45,8 Dec 2013 05:53:27.328,8 Dec 2013 06:09:31.831,964.503
46,8 Dec 2013 07:39:31.907,8 Dec 2013 07:43:50.904,258.997
47,8 Dec 2013 21:56:50.471,8 Dec 2013 22:13:19.401,988.930
48,8 Dec 2013 23:44:21.140,8 Dec 2013 23:54:54.847,633.707

"Access","Start Time (UTCG)","Stop Time (UTCG)","Duration (sec)"
1,3 Dec 2013 01:27:25.040,3 Dec 2013 01:42:45.231,920.191
2,3 Dec 2013 03:11:47.917,3 Dec 2013 03:27:05.948,918.031
3,3 Dec 2013 05:01:59.372,3 Dec 2013 05:13:23.298,683.926
4,3 Dec 2013 06:46:58.344,3 Dec 2013 07:03:09.335,970.992
5,3 Dec 2013 08:31:37.912,3 Dec 2013 08:44:50.159,792.247
6,3 Dec 2013 22:56:47.850,3 Dec 2013 23:06:35.264,587.414
7,4 Dec 2013 00:35:16.655,4 Dec 2013 00:51:48.962,992.307
8,4 Dec 2013 02:24:23.337,4 Dec 2013 02:35:16.801,653.463
9,4 Dec 2013 04:12:31.087,4 Dec 2013 04:25:24.628,773.541
10,4 Dec 2013 05:56:21.722,4 Dec 2013 06:12:29.539,967.818
11,4 Dec 2013 07:35:14.135,4 Dec 2013 07:49:34.160,860.025
12,4 Dec 2013 09:14:08.909,4 Dec 2013 09:26:23.109,734.200
13,4 Dec 2013 10:53:39.682,4 Dec 2013 11:03:45.232,605.550
14,4 Dec 2013 12:34:36.491,4 Dec 2013 12:41:26.750,410.259
15,4 Dec 2013 21:58:47.166,4 Dec 2013 22:15:07.990,980.824
16,4 Dec 2013 23:46:05.348,4 Dec 2013 23:55:21.478,556.131
17,5 Dec 2013 03:15:38.000,5 Dec 2013 03:24:36.724,538.724
18,5 Dec 2013 04:53:15.324,5 Dec 2013 05:06:01.980,766.656
19,5 Dec 2013 06:32:08.512,5 Dec 2013 06:46:05.768,837.256
20,5 Dec 2013 08:12:02.243,5 Dec 2013 08:26:19.999,857.756
21,5 Dec 2013 09:52:58.101,5 Dec 2013 10:07:31.708,873.606
22,5 Dec 2013 11:34:00.622,5 Dec 2013 11:50:10.715,970.093
23,5 Dec 2013 19:21:44.705,5 Dec 2013 19:36:51.734,907.029
24,5 Dec 2013 21:03:26.686,5 Dec 2013 21:17:27.984,841.298
25,5 Dec 2013 22:45:29.288,5 Dec 2013 22:59:03.900,814.612
26,6 Dec 2013 00:26:14.398,6 Dec 2013 00:39:46.410,812.012
27,6 Dec 2013 02:06:19.687,6 Dec 2013 02:19:22.304,782.618
28,6 Dec 2013 03:46:48.930,6 Dec 2013 03:57:55.020,666.090
29,6 Dec 2013 05:30:47.250,6 Dec 2013 05:33:46.328,179.079
30,6 Dec 2013 08:55:44.997,6 Dec 2013 09:11:43.216,958.219
31,6 Dec 2013 10:38:59.496,6 Dec 2013 10:50:20.917,681.421
32,6 Dec 2013 18:29:27.440,6 Dec 2013 18:36:52.652,445.211
33,6 Dec 2013 20:07:41.382,6 Dec 2013 20:18:38.232,656.850
34,6 Dec 2013 21:45:57.136,6 Dec 2013 21:58:32.661,755.525
35,6 Dec 2013 23:23:29.422,6 Dec 2013 23:37:36.176,846.754
36,7 Dec 2013 01:00:43.122,7 Dec 2013 01:16:10.492,927.370
37,7 Dec 2013 02:42:33.741,7 Dec 2013 02:58:04.212,930.471
38,7 Dec 2013 04:33:29.414,7 Dec 2013 04:43:30.182,600.768
39,7 Dec 2013 06:18:44.528,7 Dec 2013 06:34:08.162,923.634
40,7 Dec 2013 08:02:25.407,7 Dec 2013 08:17:14.164,888.757
41,7 Dec 2013 22:32:14.319,7 Dec 2013 22:34:32.101,137.782
42,8 Dec 2013 00:06:47.380,8 Dec 2013 00:23:29.408,1002.028
43,8 Dec 2013 01:54:27.878,8 Dec 2013 02:07:18.095,770.217
44,8 Dec 2013 03:43:11.017,8 Dec 2013 03:56:14.944,783.927
45,8 Dec 2013 05:27:14.897,8 Dec 2013 05:43:58.931,1004.035
46,8 Dec 2013 07:13:41.353,8 Dec 2013 07:21:13.839,452.486
47,8 Dec 2013 21:31:46.782,8 Dec 2013 21:47:34.780,947.999
48,8 Dec 2013 23:16:16.869,8 Dec 2013 23:29:40.159,803.290

