Raw and processed data/Inclination variations/us_greatcircle_12sat_70deg/Aircraft-B747LAX_Heathrow-Transmitter-adsb_out6-To-Satellite-700km_70deg_p1_1-Receiver-adsb_satrcvr2 Access.csv

"Access","Start Time (UTCG)","Stop Time (UTCG)","Duration (sec)"
1,3 Dec 2013 01:17:58.148,3 Dec 2013 01:31:29.787,811.639
2,3 Dec 2013 02:56:26.454,3 Dec 2013 03:11:34.399,907.945
3,3 Dec 2013 04:34:42.883,3 Dec 2013 04:50:06.298,923.416
4,3 Dec 2013 06:13:32.832,3 Dec 2013 06:28:25.173,892.341
5,3 Dec 2013 07:54:27.310,3 Dec 2013 08:07:02.824,755.514
6,3 Dec 2013 09:39:43.153,3 Dec 2013 09:45:33.942,350.789
7,3 Dec 2013 11:21:07.171,3 Dec 2013 11:33:19.398,732.226
8,3 Dec 2013 12:59:51.042,3 Dec 2013 13:15:12.672,921.630
9,3 Dec 2013 19:16:58.054,3 Dec 2013 19:28:26.687,688.633
10,3 Dec 2013 20:53:55.010,3 Dec 2013 21:10:12.552,977.541
11,3 Dec 2013 22:34:41.819,3 Dec 2013 22:50:36.232,954.413
12,4 Dec 2013 00:13:53.770,4 Dec 2013 00:29:21.237,927.467
13,4 Dec 2013 01:51:42.382,4 Dec 2013 02:07:12.456,930.073
14,4 Dec 2013 03:29:08.912,4 Dec 2013 03:44:51.441,942.529
15,4 Dec 2013 05:08:12.998,4 Dec 2013 05:21:57.383,824.385
16,4 Dec 2013 06:55:09.799,4 Dec 2013 07:01:19.991,370.192
17,4 Dec 2013 08:39:27.211,4 Dec 2013 08:52:48.841,801.630
18,4 Dec 2013 10:21:01.268,4 Dec 2013 10:37:11.946,970.677
19,4 Dec 2013 12:06:03.079,4 Dec 2013 12:09:30.668,207.589
20,5 Dec 2013 00:54:50.112,5 Dec 2013 00:57:36.956,166.844
21,5 Dec 2013 02:28:11.464,5 Dec 2013 02:44:07.545,956.081
22,5 Dec 2013 04:13:04.867,5 Dec 2013 04:29:26.178,981.311
23,5 Dec 2013 06:00:01.617,5 Dec 2013 06:15:59.370,957.752
24,5 Dec 2013 07:44:25.304,5 Dec 2013 08:00:55.385,990.082
25,5 Dec 2013 09:30:43.689,5 Dec 2013 09:36:17.868,334.178
26,5 Dec 2013 23:59:42.576,6 Dec 2013 00:08:30.856,528.280
27,6 Dec 2013 01:38:22.555,6 Dec 2013 01:55:09.518,1006.962
28,6 Dec 2013 03:23:55.997,6 Dec 2013 03:40:34.828,998.831
29,6 Dec 2013 05:09:35.524,6 Dec 2013 05:26:30.538,1015.014
30,6 Dec 2013 06:55:31.369,6 Dec 2013 07:07:00.897,689.528
31,6 Dec 2013 08:33:38.529,6 Dec 2013 08:42:46.265,547.736
32,6 Dec 2013 10:11:05.659,6 Dec 2013 10:21:04.717,599.057
33,6 Dec 2013 11:50:02.334,6 Dec 2013 12:01:06.136,663.802
34,6 Dec 2013 13:31:33.125,6 Dec 2013 13:41:22.584,589.459
35,6 Dec 2013 23:04:04.354,6 Dec 2013 23:20:18.602,974.249
36,7 Dec 2013 00:48:23.588,7 Dec 2013 01:04:19.082,955.495
37,7 Dec 2013 02:34:44.132,7 Dec 2013 02:49:27.365,883.234
38,7 Dec 2013 04:12:28.328,7 Dec 2013 04:28:09.003,940.675
39,7 Dec 2013 05:50:31.701,7 Dec 2013 06:06:22.113,950.412
40,7 Dec 2013 07:29:33.555,7 Dec 2013 07:45:22.731,949.177
41,7 Dec 2013 09:10:25.098,7 Dec 2013 09:25:48.799,923.701
42,7 Dec 2013 10:52:59.850,7 Dec 2013 11:08:08.900,909.050
43,7 Dec 2013 12:35:02.715,7 Dec 2013 12:50:58.263,955.548
44,7 Dec 2013 14:17:18.322,7 Dec 2013 14:23:23.436,365.114
45,7 Dec 2013 20:27:44.705,7 Dec 2013 20:43:36.831,952.126

"Access","Start Time (UTCG)","Stop Time (UTCG)","Duration (sec)"
1,3 Dec 2013 01:00:00.000,3 Dec 2013 01:06:00.925,360.925
2,3 Dec 2013 02:31:51.167,3 Dec 2013 02:46:45.985,894.818
3,3 Dec 2013 04:10:08.277,3 Dec 2013 04:25:31.870,923.592
4,3 Dec 2013 05:48:42.862,3 Dec 2013 06:03:49.131,906.269
5,3 Dec 2013 07:28:55.724,3 Dec 2013 07:42:21.607,805.883
6,3 Dec 2013 09:12:46.875,3 Dec 2013 09:21:04.343,497.469
7,3 Dec 2013 10:58:03.939,3 Dec 2013 11:04:52.777,408.839
8,3 Dec 2013 12:34:46.963,3 Dec 2013 12:50:48.823,961.859
9,3 Dec 2013 14:17:34.491,3 Dec 2013 14:23:08.021,333.530
10,3 Dec 2013 18:55:11.849,3 Dec 2013 19:01:56.868,405.019
11,3 Dec 2013 20:28:31.342,3 Dec 2013 20:44:50.583,979.241
12,3 Dec 2013 22:09:38.822,3 Dec 2013 22:25:40.358,961.536
13,3 Dec 2013 23:49:14.644,4 Dec 2013 00:04:47.326,932.682
14,4 Dec 2013 01:27:20.787,4 Dec 2013 01:42:46.650,925.863
15,4 Dec 2013 03:04:43.716,4 Dec 2013 03:20:27.589,943.873
16,4 Dec 2013 04:43:08.689,4 Dec 2013 04:57:48.859,880.170
17,4 Dec 2013 06:27:00.270,4 Dec 2013 06:34:51.160,470.890
18,4 Dec 2013 08:13:59.150,4 Dec 2013 08:25:12.395,673.245
19,4 Dec 2013 09:55:35.758,4 Dec 2013 10:11:59.606,983.848
20,4 Dec 2013 11:38:20.149,4 Dec 2013 11:48:41.666,621.517
21,5 Dec 2013 02:03:06.381,5 Dec 2013 02:17:23.765,857.383
22,5 Dec 2013 03:46:22.704,5 Dec 2013 04:03:06.752,1004.048
23,5 Dec 2013 05:33:30.172,5 Dec 2013 05:49:12.989,942.817
24,5 Dec 2013 07:18:28.186,5 Dec 2013 07:35:14.101,1005.915
25,5 Dec 2013 09:02:59.501,5 Dec 2013 09:14:22.401,682.900
26,6 Dec 2013 01:12:41.498,6 Dec 2013 01:28:55.572,974.074
27,6 Dec 2013 02:57:20.082,6 Dec 2013 03:14:04.162,1004.080
28,6 Dec 2013 04:43:19.358,6 Dec 2013 05:00:14.748,1015.391
29,6 Dec 2013 06:28:35.690,6 Dec 2013 06:42:54.786,859.096
30,6 Dec 2013 08:09:16.472,6 Dec 2013 08:18:36.734,560.262
31,6 Dec 2013 09:46:39.727,6 Dec 2013 09:56:17.064,577.337
32,6 Dec 2013 11:25:05.256,6 Dec 2013 11:36:00.660,655.404
33,6 Dec 2013 13:05:53.149,6 Dec 2013 13:16:23.544,630.395
34,6 Dec 2013 14:51:12.780,6 Dec 2013 14:54:11.685,178.905
35,6 Dec 2013 22:39:10.657,6 Dec 2013 22:54:20.696,910.039
36,7 Dec 2013 00:21:46.110,7 Dec 2013 00:38:08.641,982.531
37,7 Dec 2013 02:08:44.439,7 Dec 2013 02:24:11.111,926.672
38,7 Dec 2013 03:48:00.872,7 Dec 2013 04:03:35.438,934.566
39,7 Dec 2013 05:25:57.643,7 Dec 2013 05:41:46.461,948.818
40,7 Dec 2013 07:04:39.327,7 Dec 2013 07:20:30.730,951.403
41,7 Dec 2013 08:45:00.760,7 Dec 2013 09:00:32.618,931.858
42,7 Dec 2013 10:27:15.095,7 Dec 2013 10:42:22.323,907.228
43,7 Dec 2013 12:10:21.125,7 Dec 2013 12:25:52.597,931.472
44,7 Dec 2013 13:50:38.985,7 Dec 2013 14:02:01.202,682.216
45,7 Dec 2013 20:03:27.902,7 Dec 2013 20:18:05.300,877.397
46,7 Dec 2013 21:44:18.284,7 Dec 2013 21:57:56.203,817.918

"Access","Start Time (UTCG)","Stop Time (UTCG)","Duration (sec)"
1,3 Dec 2013 02:07:14.689,3 Dec 2013 02:21:50.294,875.605
2,3 Dec 2013 03:45:34.507,3 Dec 2013 04:00:55.899,921.391
3,3 Dec 2013 05:23:58.878,3 Dec 2013 05:39:14.256,915.379
4,3 Dec 2013 07:03:37.442,3 Dec 2013 07:17:41.433,843.991
5,3 Dec 2013 08:46:19.746,3 Dec 2013 08:56:25.796,606.050
6,3 Dec 2013 12:09:55.404,3 Dec 2013 12:25:46.091,950.687
7,3 Dec 2013 13:50:50.189,3 Dec 2013 14:01:48.522,658.333
8,3 Dec 2013 20:03:57.693,3 Dec 2013 20:19:29.422,931.729
9,3 Dec 2013 21:44:29.882,3 Dec 2013 22:00:37.756,967.874
10,3 Dec 2013 23:24:29.709,3 Dec 2013 23:40:09.090,939.380
11,4 Dec 2013 01:02:56.162,4 Dec 2013 01:18:19.990,923.828
12,4 Dec 2013 02:40:22.156,4 Dec 2013 02:56:02.916,940.760
13,4 Dec 2013 04:18:18.858,4 Dec 2013 04:33:33.443,914.585
14,4 Dec 2013 05:59:33.368,4 Dec 2013 06:09:29.579,596.211
15,4 Dec 2013 07:48:20.474,4 Dec 2013 07:57:06.178,525.703
16,4 Dec 2013 09:30:12.973,4 Dec 2013 09:46:12.109,959.135
17,4 Dec 2013 11:12:14.427,4 Dec 2013 11:25:42.256,807.829
18,5 Dec 2013 01:39:04.061,5 Dec 2013 01:50:00.277,656.216
19,5 Dec 2013 03:19:56.142,5 Dec 2013 03:36:50.783,1014.641
20,5 Dec 2013 05:06:46.604,5 Dec 2013 05:22:29.058,942.454
21,5 Dec 2013 06:52:27.824,5 Dec 2013 07:09:07.308,999.484
22,5 Dec 2013 08:36:30.862,5 Dec 2013 08:50:40.001,849.140
23,6 Dec 2013 00:47:30.429,6 Dec 2013 01:02:35.008,904.579
24,6 Dec 2013 02:30:48.081,6 Dec 2013 02:47:40.429,1012.348
25,6 Dec 2013 04:16:57.983,6 Dec 2013 04:33:45.754,1007.770
26,6 Dec 2013 06:02:07.232,6 Dec 2013 06:17:57.692,950.460
27,6 Dec 2013 07:44:51.159,6 Dec 2013 07:54:37.301,586.142
28,6 Dec 2013 09:22:18.061,6 Dec 2013 09:31:37.202,559.141
29,6 Dec 2013 11:00:17.261,6 Dec 2013 11:10:57.786,640.525
30,6 Dec 2013 12:40:25.619,6 Dec 2013 12:51:19.367,653.748
31,6 Dec 2013 14:23:48.925,6 Dec 2013 14:30:41.744,412.818
32,6 Dec 2013 22:14:58.748,6 Dec 2013 22:28:10.582,791.834
33,6 Dec 2013 23:55:26.819,7 Dec 2013 00:12:07.815,1000.995
34,7 Dec 2013 01:42:01.125,7 Dec 2013 01:57:20.673,919.548
35,7 Dec 2013 03:23:34.168,7 Dec 2013 03:38:58.652,924.484
36,7 Dec 2013 05:01:26.224,7 Dec 2013 05:17:13.136,946.912
37,7 Dec 2013 06:39:51.558,7 Dec 2013 06:55:43.628,952.069
38,7 Dec 2013 08:19:43.965,7 Dec 2013 08:35:23.211,939.246
39,7 Dec 2013 10:01:33.446,7 Dec 2013 10:16:43.369,909.923
40,7 Dec 2013 11:44:33.644,7 Dec 2013 12:00:01.472,927.827
41,7 Dec 2013 13:25:03.661,7 Dec 2013 13:39:07.491,843.830
42,7 Dec 2013 19:39:56.270,7 Dec 2013 19:52:19.104,742.834
43,7 Dec 2013 21:18:10.608,7 Dec 2013 21:34:19.632,969.024

"Access","Start Time (UTCG)","Stop Time (UTCG)","Duration (sec)"
1,3 Dec 2013 01:42:36.972,3 Dec 2013 01:56:45.538,848.565
2,3 Dec 2013 03:21:00.769,3 Dec 2013 03:36:17.197,916.428
3,3 Dec 2013 04:59:19.348,3 Dec 2013 05:14:40.170,920.822
4,3 Dec 2013 06:38:30.438,3 Dec 2013 06:53:02.593,872.155
5,3 Dec 2013 08:20:14.433,3 Dec 2013 08:31:44.557,690.124
6,3 Dec 2013 10:08:03.268,3 Dec 2013 10:09:00.307,57.039
7,3 Dec 2013 11:45:18.868,3 Dec 2013 12:00:00.641,881.773
8,3 Dec 2013 13:25:09.327,3 Dec 2013 13:38:55.793,826.466
9,3 Dec 2013 19:40:03.859,3 Dec 2013 19:54:07.565,843.707
10,3 Dec 2013 21:19:15.186,3 Dec 2013 21:35:28.410,973.225
11,3 Dec 2013 22:59:38.789,3 Dec 2013 23:15:25.637,946.848
12,4 Dec 2013 00:38:27.426,4 Dec 2013 00:53:51.804,924.377
13,4 Dec 2013 02:16:02.310,4 Dec 2013 02:31:37.827,935.517
14,4 Dec 2013 03:53:39.851,4 Dec 2013 04:09:13.752,933.902
15,4 Dec 2013 05:33:37.458,4 Dec 2013 05:45:54.355,736.897
16,4 Dec 2013 07:22:15.090,4 Dec 2013 07:28:52.858,397.768
17,4 Dec 2013 09:04:50.815,4 Dec 2013 09:19:48.897,898.083
18,4 Dec 2013 10:46:32.419,4 Dec 2013 11:01:47.786,915.366
19,5 Dec 2013 01:16:23.254,5 Dec 2013 01:24:00.586,457.333
20,5 Dec 2013 02:53:50.658,5 Dec 2013 03:10:33.211,1002.553
21,5 Dec 2013 04:39:55.603,5 Dec 2013 04:55:52.967,957.364
22,5 Dec 2013 06:26:20.137,5 Dec 2013 06:42:40.184,980.048
23,5 Dec 2013 08:10:23.944,5 Dec 2013 08:26:06.289,942.345
24,6 Dec 2013 00:23:00.581,6 Dec 2013 00:35:56.777,776.196
25,6 Dec 2013 02:04:26.752,6 Dec 2013 02:21:23.078,1016.325
26,6 Dec 2013 03:50:29.882,6 Dec 2013 04:07:10.294,1000.412
27,6 Dec 2013 05:35:49.809,6 Dec 2013 05:52:26.902,997.093
28,6 Dec 2013 07:20:22.432,6 Dec 2013 07:30:46.196,623.764
29,6 Dec 2013 08:57:58.429,6 Dec 2013 09:07:06.558,548.129
30,6 Dec 2013 10:35:37.706,6 Dec 2013 10:45:58.732,621.026
31,6 Dec 2013 12:15:08.954,6 Dec 2013 12:26:12.892,663.937
32,6 Dec 2013 13:57:28.898,6 Dec 2013 14:06:11.852,522.953
33,6 Dec 2013 21:51:49.824,6 Dec 2013 22:01:28.161,578.337
34,6 Dec 2013 23:29:31.407,6 Dec 2013 23:46:12.572,1001.165
35,7 Dec 2013 01:15:11.582,7 Dec 2013 01:30:42.592,931.010
36,7 Dec 2013 02:59:08.409,7 Dec 2013 03:14:16.710,908.302
37,7 Dec 2013 04:36:56.659,7 Dec 2013 04:52:41.072,944.413
38,7 Dec 2013 06:15:09.340,7 Dec 2013 06:31:00.940,951.600
39,7 Dec 2013 07:54:34.944,7 Dec 2013 08:10:20.073,945.129
40,7 Dec 2013 09:35:56.338,7 Dec 2013 09:51:12.254,915.916
41,7 Dec 2013 11:18:46.370,7 Dec 2013 11:34:02.377,916.008
42,7 Dec 2013 12:59:54.005,7 Dec 2013 13:15:23.410,929.405
43,7 Dec 2013 19:17:32.040,7 Dec 2013 19:25:57.285,505.245
44,7 Dec 2013 20:52:39.637,7 Dec 2013 21:09:00.539,980.902

"Access","Start Time (UTCG)","Stop Time (UTCG)","Duration (sec)"
1,3 Dec 2013 09:20:58.450,3 Dec 2013 09:29:10.806,492.356
2,3 Dec 2013 10:54:53.664,3 Dec 2013 11:10:43.111,949.447
3,3 Dec 2013 12:39:46.439,3 Dec 2013 12:56:00.380,973.941
4,3 Dec 2013 14:27:07.377,3 Dec 2013 14:42:33.562,926.186
5,3 Dec 2013 16:11:33.125,3 Dec 2013 16:28:13.712,1000.587
6,3 Dec 2013 17:56:14.620,3 Dec 2013 18:05:49.605,574.985
7,4 Dec 2013 08:28:06.232,4 Dec 2013 08:33:53.198,346.965
8,4 Dec 2013 10:05:13.395,4 Dec 2013 10:21:52.522,999.128
9,4 Dec 2013 11:50:34.277,4 Dec 2013 12:07:14.186,999.909
10,4 Dec 2013 13:36:19.921,4 Dec 2013 13:53:16.020,1016.099
11,4 Dec 2013 15:21:46.315,4 Dec 2013 15:34:33.216,766.901
12,4 Dec 2013 17:05:23.767,4 Dec 2013 17:07:38.500,134.733
13,4 Dec 2013 18:41:50.051,4 Dec 2013 18:45:56.959,246.908
14,4 Dec 2013 20:19:28.242,4 Dec 2013 20:26:18.714,410.472
15,4 Dec 2013 22:00:56.832,4 Dec 2013 22:05:47.194,290.362
16,5 Dec 2013 07:31:36.295,5 Dec 2013 07:47:19.852,943.557
17,5 Dec 2013 09:15:05.443,5 Dec 2013 09:31:27.209,981.766
18,5 Dec 2013 11:01:49.527,5 Dec 2013 11:17:52.520,962.993
19,5 Dec 2013 12:41:33.159,5 Dec 2013 12:57:17.522,944.363
20,5 Dec 2013 14:19:26.269,5 Dec 2013 14:35:17.548,951.279
21,5 Dec 2013 15:58:04.521,5 Dec 2013 16:14:06.270,961.749
22,5 Dec 2013 17:38:18.686,5 Dec 2013 17:54:21.774,963.088
23,5 Dec 2013 19:20:16.512,5 Dec 2013 19:36:20.540,964.028
24,5 Dec 2013 21:03:11.575,5 Dec 2013 21:19:29.652,978.077
25,5 Dec 2013 22:45:03.808,5 Dec 2013 22:53:10.662,486.853
26,6 Dec 2013 04:55:59.065,6 Dec 2013 05:11:15.708,916.643
27,6 Dec 2013 06:38:01.662,6 Dec 2013 06:53:02.451,900.789
28,6 Dec 2013 08:19:12.805,6 Dec 2013 08:34:19.662,906.857
29,6 Dec 2013 09:57:57.827,6 Dec 2013 10:13:30.938,933.111
30,6 Dec 2013 11:36:19.446,6 Dec 2013 11:51:42.690,923.244
31,6 Dec 2013 13:15:33.766,6 Dec 2013 13:29:41.601,847.835
32,6 Dec 2013 14:58:11.161,6 Dec 2013 15:06:58.041,526.880
33,6 Dec 2013 18:23:23.318,6 Dec 2013 18:38:18.691,895.373
34,6 Dec 2013 20:03:43.989,6 Dec 2013 20:17:43.513,839.524
35,7 Dec 2013 02:18:51.558,7 Dec 2013 02:32:44.745,833.186
36,7 Dec 2013 03:59:16.567,7 Dec 2013 04:13:58.522,881.955
37,7 Dec 2013 05:39:20.298,7 Dec 2013 05:53:18.372,838.073
38,7 Dec 2013 07:17:42.752,7 Dec 2013 07:31:15.304,812.552
39,7 Dec 2013 08:54:27.927,7 Dec 2013 09:08:55.045,867.118
40,7 Dec 2013 10:31:00.782,7 Dec 2013 10:46:39.598,938.816
41,7 Dec 2013 12:09:32.191,7 Dec 2013 12:24:32.281,900.090
42,7 Dec 2013 13:58:52.840,7 Dec 2013 14:10:28.515,695.675
43,7 Dec 2013 15:43:27.694,7 Dec 2013 15:59:07.896,940.202
44,7 Dec 2013 17:25:57.731,7 Dec 2013 17:41:00.387,902.656

"Access","Start Time (UTCG)","Stop Time (UTCG)","Duration (sec)"
1,3 Dec 2013 08:58:21.053,3 Dec 2013 09:03:48.435,327.381
2,3 Dec 2013 10:30:38.105,3 Dec 2013 10:43:58.663,800.557
3,3 Dec 2013 12:13:02.077,3 Dec 2013 12:29:43.536,1001.459
4,3 Dec 2013 14:00:29.851,3 Dec 2013 14:15:42.818,912.967
5,3 Dec 2013 15:45:38.883,3 Dec 2013 16:02:19.036,1000.153
6,3 Dec 2013 17:29:32.718,3 Dec 2013 17:42:42.524,789.805
7,4 Dec 2013 09:39:40.384,4 Dec 2013 09:55:35.089,954.705
8,4 Dec 2013 11:23:58.465,4 Dec 2013 11:40:45.594,1007.129
9,4 Dec 2013 13:10:03.096,4 Dec 2013 13:26:55.697,1012.600
10,4 Dec 2013 14:55:07.379,4 Dec 2013 15:10:06.668,899.289
11,4 Dec 2013 16:40:32.373,4 Dec 2013 16:44:12.410,220.037
12,4 Dec 2013 18:17:53.526,4 Dec 2013 18:20:55.268,181.742
13,4 Dec 2013 19:54:45.081,4 Dec 2013 20:01:13.179,388.098
14,4 Dec 2013 21:35:04.172,4 Dec 2013 21:41:12.635,368.463
15,5 Dec 2013 07:07:01.064,5 Dec 2013 07:21:12.266,851.202
16,5 Dec 2013 08:48:38.150,5 Dec 2013 09:05:18.527,1000.377
17,5 Dec 2013 10:35:14.379,5 Dec 2013 10:51:02.292,947.913
18,5 Dec 2013 12:17:07.359,5 Dec 2013 12:32:46.452,939.094
19,5 Dec 2013 13:54:55.736,5 Dec 2013 14:10:45.323,949.587
20,5 Dec 2013 15:33:17.687,5 Dec 2013 15:49:16.904,959.217
21,5 Dec 2013 17:13:04.512,5 Dec 2013 17:29:08.601,964.089
22,5 Dec 2013 18:54:39.534,5 Dec 2013 19:10:41.143,961.609
23,5 Dec 2013 20:37:24.769,5 Dec 2013 20:53:47.527,982.758
24,5 Dec 2013 22:18:51.368,5 Dec 2013 22:31:13.234,741.865
25,6 Dec 2013 04:32:03.204,6 Dec 2013 04:45:32.995,809.791
26,6 Dec 2013 06:11:38.062,6 Dec 2013 06:27:38.433,960.372
27,6 Dec 2013 07:54:23.132,6 Dec 2013 08:09:14.003,890.871
28,6 Dec 2013 09:33:20.652,6 Dec 2013 09:48:51.463,930.811
29,6 Dec 2013 11:11:42.966,6 Dec 2013 11:27:11.914,928.948
30,6 Dec 2013 12:50:34.035,6 Dec 2013 13:05:12.647,878.611
31,6 Dec 2013 14:31:56.904,6 Dec 2013 14:42:52.011,655.107
32,6 Dec 2013 17:58:50.710,6 Dec 2013 18:11:36.886,766.176
33,6 Dec 2013 19:38:22.274,6 Dec 2013 19:53:51.677,929.403
34,7 Dec 2013 01:55:55.560,7 Dec 2013 02:07:04.200,668.640
35,7 Dec 2013 03:34:03.575,7 Dec 2013 03:48:50.870,887.295
36,7 Dec 2013 05:14:27.820,7 Dec 2013 05:28:38.357,850.537
37,7 Dec 2013 06:53:17.616,7 Dec 2013 07:06:50.165,812.548
38,7 Dec 2013 08:30:22.435,7 Dec 2013 08:44:29.180,846.745
39,7 Dec 2013 10:06:46.867,7 Dec 2013 10:22:14.565,927.698
40,7 Dec 2013 11:44:34.605,7 Dec 2013 11:59:34.532,899.927
41,7 Dec 2013 13:31:41.377,7 Dec 2013 13:43:28.811,707.435
42,7 Dec 2013 15:17:44.002,7 Dec 2013 15:32:21.521,877.519
43,7 Dec 2013 17:00:16.361,7 Dec 2013 17:16:23.761,967.400

"Access","Start Time (UTCG)","Stop Time (UTCG)","Duration (sec)"
1,3 Dec 2013 10:07:11.389,3 Dec 2013 10:19:10.573,719.184
2,3 Dec 2013 11:46:35.240,3 Dec 2013 12:03:28.965,1013.725
3,3 Dec 2013 13:33:39.164,3 Dec 2013 13:48:58.265,919.100
4,3 Dec 2013 15:19:39.160,3 Dec 2013 15:36:00.067,980.907
5,3 Dec 2013 17:03:23.318,3 Dec 2013 17:18:32.117,908.799
6,4 Dec 2013 09:14:40.372,4 Dec 2013 09:29:07.086,866.714
7,4 Dec 2013 10:57:28.630,4 Dec 2013 11:14:23.692,1015.062
8,4 Dec 2013 12:43:39.904,4 Dec 2013 13:00:24.217,1004.314
9,4 Dec 2013 14:28:46.760,4 Dec 2013 14:44:57.976,971.216
10,4 Dec 2013 16:15:38.969,4 Dec 2013 16:20:54.215,315.246
11,4 Dec 2013 17:54:02.789,4 Dec 2013 17:55:59.890,117.101
12,4 Dec 2013 19:30:14.711,4 Dec 2013 19:36:07.028,352.317
13,4 Dec 2013 21:09:35.904,4 Dec 2013 21:16:21.451,405.547
14,5 Dec 2013 06:43:16.786,5 Dec 2013 06:54:43.146,686.360
15,5 Dec 2013 08:22:30.737,5 Dec 2013 08:39:17.221,1006.484
16,5 Dec 2013 10:08:31.464,5 Dec 2013 10:24:18.704,947.240
17,5 Dec 2013 11:52:42.443,5 Dec 2013 12:08:11.546,929.103
18,5 Dec 2013 13:30:27.079,5 Dec 2013 13:46:15.419,948.340
19,5 Dec 2013 15:08:36.310,5 Dec 2013 15:24:32.660,956.350
20,5 Dec 2013 16:47:57.490,5 Dec 2013 17:04:01.811,964.321
21,5 Dec 2013 18:29:06.927,5 Dec 2013 18:45:08.031,961.104
22,5 Dec 2013 20:11:39.814,5 Dec 2013 20:27:54.974,975.160
23,5 Dec 2013 21:53:25.575,5 Dec 2013 22:08:03.329,877.754
24,6 Dec 2013 04:09:02.241,6 Dec 2013 04:19:26.764,624.523
25,6 Dec 2013 05:45:49.676,6 Dec 2013 06:02:14.279,984.603
26,6 Dec 2013 07:29:29.163,6 Dec 2013 07:43:59.110,869.947
27,6 Dec 2013 09:08:41.118,6 Dec 2013 09:24:07.234,926.116
28,6 Dec 2013 10:47:08.015,6 Dec 2013 11:02:40.194,932.179
29,6 Dec 2013 12:25:43.171,6 Dec 2013 12:40:42.979,899.808
30,6 Dec 2013 14:06:11.091,6 Dec 2013 14:18:33.476,742.384
31,6 Dec 2013 17:34:56.282,6 Dec 2013 17:43:36.599,520.317
32,6 Dec 2013 19:13:12.480,6 Dec 2013 19:29:19.866,967.387
33,6 Dec 2013 20:55:58.104,6 Dec 2013 21:02:28.005,389.901
34,7 Dec 2013 01:34:27.656,7 Dec 2013 01:40:26.231,358.576
35,7 Dec 2013 03:08:47.211,7 Dec 2013 03:23:35.976,888.765
36,7 Dec 2013 04:49:29.337,7 Dec 2013 05:03:52.052,862.715
37,7 Dec 2013 06:28:45.488,7 Dec 2013 06:42:23.127,817.639
38,7 Dec 2013 08:06:14.109,7 Dec 2013 08:20:04.109,830.000
39,7 Dec 2013 09:42:38.108,7 Dec 2013 09:57:48.268,910.160
40,7 Dec 2013 11:19:52.309,7 Dec 2013 11:35:21.257,928.948
41,7 Dec 2013 13:04:09.888,7 Dec 2013 13:16:53.888,764.000
42,7 Dec 2013 14:51:48.736,7 Dec 2013 15:05:11.262,802.525
43,7 Dec 2013 16:34:40.196,7 Dec 2013 16:51:11.013,990.816
44,7 Dec 2013 18:18:14.484,7 Dec 2013 18:27:46.166,571.682

"Access","Start Time (UTCG)","Stop Time (UTCG)","Duration (sec)"
1,3 Dec 2013 09:43:57.588,3 Dec 2013 09:54:15.449,617.860
2,3 Dec 2013 11:20:30.819,3 Dec 2013 11:37:11.143,1000.324
3,3 Dec 2013 13:06:41.688,3 Dec 2013 13:22:24.189,942.501
4,3 Dec 2013 14:53:29.871,3 Dec 2013 15:09:22.354,952.483
5,3 Dec 2013 16:37:26.208,3 Dec 2013 16:53:39.711,973.503
6,4 Dec 2013 08:50:28.822,4 Dec 2013 09:02:13.096,704.274
7,4 Dec 2013 10:31:11.518,4 Dec 2013 10:48:07.083,1015.566
8,4 Dec 2013 12:17:09.641,4 Dec 2013 12:33:48.372,998.732
9,4 Dec 2013 14:02:33.063,4 Dec 2013 14:19:18.780,1005.717
10,4 Dec 2013 15:49:15.698,4 Dec 2013 15:57:44.821,509.123
11,4 Dec 2013 17:30:00.575,4 Dec 2013 17:31:27.062,86.487
12,4 Dec 2013 19:05:56.616,4 Dec 2013 19:11:01.315,304.699
13,4 Dec 2013 20:44:24.801,4 Dec 2013 20:51:22.205,417.404
14,4 Dec 2013 22:28:01.204,4 Dec 2013 22:29:16.464,75.260
15,5 Dec 2013 06:21:17.763,5 Dec 2013 06:26:59.960,342.197
16,5 Dec 2013 07:56:48.463,5 Dec 2013 08:13:19.252,990.789
17,5 Dec 2013 09:41:45.897,5 Dec 2013 09:57:46.642,960.745
18,5 Dec 2013 11:28:15.685,5 Dec 2013 11:43:30.715,915.030
19,5 Dec 2013 13:05:59.684,5 Dec 2013 13:21:46.627,946.943
20,5 Dec 2013 14:43:59.488,5 Dec 2013 14:59:53.071,953.583
21,5 Dec 2013 16:22:57.597,5 Dec 2013 16:39:01.132,963.535
22,5 Dec 2013 18:03:39.695,5 Dec 2013 18:19:41.544,961.849
23,5 Dec 2013 19:45:56.881,5 Dec 2013 20:02:05.507,968.626
24,5 Dec 2013 21:28:23.537,5 Dec 2013 21:44:06.695,943.158
25,6 Dec 2013 03:48:09.561,6 Dec 2013 03:51:45.491,215.931
26,6 Dec 2013 05:20:36.195,6 Dec 2013 05:36:47.706,971.512
27,6 Dec 2013 07:04:30.341,6 Dec 2013 07:18:34.327,843.987
28,6 Dec 2013 08:43:58.660,6 Dec 2013 08:59:17.034,918.374
29,6 Dec 2013 10:22:33.327,6 Dec 2013 10:38:06.829,933.503
30,6 Dec 2013 12:00:58.948,6 Dec 2013 12:16:12.974,914.027
31,6 Dec 2013 13:40:44.995,6 Dec 2013 13:54:09.042,804.047
32,6 Dec 2013 15:25:20.086,6 Dec 2013 15:30:27.702,307.617
33,6 Dec 2013 18:48:12.475,6 Dec 2013 19:04:09.851,957.376
34,6 Dec 2013 20:29:25.290,6 Dec 2013 20:40:46.828,681.538
35,7 Dec 2013 02:43:28.465,7 Dec 2013 02:58:13.922,885.458
36,7 Dec 2013 04:24:25.389,7 Dec 2013 04:38:58.880,873.491
37,7 Dec 2013 06:04:06.317,7 Dec 2013 06:17:52.936,826.619
38,7 Dec 2013 07:42:01.307,7 Dec 2013 07:55:39.660,818.353
39,7 Dec 2013 09:18:32.477,7 Dec 2013 09:33:21.545,889.068
40,7 Dec 2013 10:55:21.874,7 Dec 2013 11:11:02.298,940.423
41,7 Dec 2013 12:36:35.944,7 Dec 2013 12:50:37.941,841.998
42,7 Dec 2013 14:25:34.428,7 Dec 2013 14:37:47.994,733.566
43,7 Dec 2013 16:09:05.130,7 Dec 2013 16:25:25.155,980.025
44,7 Dec 2013 17:51:51.238,7 Dec 2013 18:04:54.081,782.843

"Access","Start Time (UTCG)","Stop Time (UTCG)","Duration (sec)"
1,3 Dec 2013 15:59:11.842,3 Dec 2013 16:14:11.651,899.809
2,3 Dec 2013 17:41:51.045,3 Dec 2013 17:58:30.206,999.161
3,3 Dec 2013 19:28:22.954,3 Dec 2013 19:44:36.670,973.716
4,3 Dec 2013 21:10:37.713,3 Dec 2013 21:26:23.084,945.371
5,3 Dec 2013 22:48:23.199,3 Dec 2013 23:04:05.282,942.083
6,4 Dec 2013 00:26:41.001,4 Dec 2013 00:42:36.775,955.774
7,4 Dec 2013 02:06:22.094,4 Dec 2013 02:22:36.794,974.700
8,4 Dec 2013 03:47:46.965,4 Dec 2013 04:04:12.838,985.873
9,4 Dec 2013 05:30:26.697,4 Dec 2013 05:46:58.748,992.050
10,4 Dec 2013 07:13:06.430,4 Dec 2013 07:22:41.177,574.748
11,4 Dec 2013 13:24:20.061,4 Dec 2013 13:38:42.352,862.291
12,4 Dec 2013 15:05:08.696,4 Dec 2013 15:20:59.604,950.908
13,4 Dec 2013 16:48:30.372,4 Dec 2013 17:02:55.155,864.783
14,4 Dec 2013 18:27:10.849,4 Dec 2013 18:42:31.802,920.953
15,4 Dec 2013 20:05:31.691,4 Dec 2013 20:20:53.967,922.276
16,4 Dec 2013 21:44:34.756,4 Dec 2013 21:59:04.419,869.664
17,4 Dec 2013 23:26:15.200,4 Dec 2013 23:37:10.601,655.401
18,5 Dec 2013 02:52:06.145,5 Dec 2013 03:05:54.303,828.158
19,5 Dec 2013 04:31:42.975,5 Dec 2013 04:46:30.775,887.800
20,5 Dec 2013 10:47:50.144,5 Dec 2013 11:00:41.335,771.191
21,5 Dec 2013 12:26:26.198,5 Dec 2013 12:42:11.742,945.544
22,5 Dec 2013 14:06:51.532,5 Dec 2013 14:22:03.740,912.208
23,5 Dec 2013 15:45:40.708,5 Dec 2013 16:00:23.669,882.961
24,5 Dec 2013 17:23:01.116,5 Dec 2013 17:38:06.330,905.214
25,5 Dec 2013 19:00:03.258,5 Dec 2013 19:15:45.818,942.559
26,5 Dec 2013 20:38:53.057,5 Dec 2013 20:52:46.711,833.653
27,5 Dec 2013 22:26:44.037,5 Dec 2013 22:36:13.594,569.557
28,6 Dec 2013 00:11:19.788,6 Dec 2013 00:26:04.252,884.464
29,6 Dec 2013 01:53:23.714,6 Dec 2013 02:09:09.037,945.323
30,6 Dec 2013 18:01:27.699,6 Dec 2013 18:17:31.692,963.993
31,6 Dec 2013 19:46:23.788,6 Dec 2013 20:02:51.029,987.242
32,6 Dec 2013 21:33:00.280,6 Dec 2013 21:49:21.150,980.870
33,6 Dec 2013 23:17:25.359,6 Dec 2013 23:33:34.139,968.780
34,7 Dec 2013 15:31:42.904,7 Dec 2013 15:42:36.581,653.677
35,7 Dec 2013 17:11:31.697,7 Dec 2013 17:28:23.921,1012.223
36,7 Dec 2013 18:57:18.233,7 Dec 2013 19:13:54.876,996.643
37,7 Dec 2013 20:42:52.918,7 Dec 2013 20:59:45.111,1012.194

"Access","Start Time (UTCG)","Stop Time (UTCG)","Duration (sec)"
1,3 Dec 2013 15:34:58.185,3 Dec 2013 15:47:50.470,772.284
2,3 Dec 2013 17:15:33.540,3 Dec 2013 17:32:22.503,1008.963
3,3 Dec 2013 19:01:46.652,3 Dec 2013 19:17:51.645,964.994
4,3 Dec 2013 20:46:13.056,3 Dec 2013 21:01:55.554,942.498
5,3 Dec 2013 22:23:55.464,3 Dec 2013 22:39:37.762,942.297
6,4 Dec 2013 00:02:00.712,4 Dec 2013 00:17:51.380,950.667
7,4 Dec 2013 01:41:16.860,4 Dec 2013 01:57:27.720,970.860
8,4 Dec 2013 03:22:17.158,4 Dec 2013 03:38:40.355,983.197
9,4 Dec 2013 05:04:41.540,4 Dec 2013 05:21:14.306,992.765
10,4 Dec 2013 06:47:10.280,4 Dec 2013 07:00:19.877,789.597
11,4 Dec 2013 13:00:50.082,4 Dec 2013 13:12:44.041,713.959
12,4 Dec 2013 14:39:04.619,4 Dec 2013 14:55:28.774,984.155
13,4 Dec 2013 16:23:43.916,4 Dec 2013 16:37:39.044,835.129
14,4 Dec 2013 18:02:33.951,4 Dec 2013 18:17:47.935,913.984
15,4 Dec 2013 19:40:55.782,4 Dec 2013 19:56:21.196,925.413
16,4 Dec 2013 21:19:39.779,4 Dec 2013 21:34:31.339,891.560
17,4 Dec 2013 23:00:26.004,4 Dec 2013 23:12:42.203,736.199
18,5 Dec 2013 02:28:03.041,5 Dec 2013 02:38:34.845,631.805
19,5 Dec 2013 04:06:30.368,5 Dec 2013 04:22:22.136,951.768
20,5 Dec 2013 10:25:21.171,5 Dec 2013 10:34:43.926,562.755
21,5 Dec 2013 12:01:07.242,5 Dec 2013 12:16:56.833,949.591
22,5 Dec 2013 13:41:53.640,5 Dec 2013 13:57:15.787,922.146
23,5 Dec 2013 15:21:07.857,5 Dec 2013 15:35:54.616,886.759
24,5 Dec 2013 16:58:46.714,5 Dec 2013 17:13:41.238,894.524
25,5 Dec 2013 18:35:43.228,5 Dec 2013 18:51:21.834,938.606
26,5 Dec 2013 20:13:51.445,5 Dec 2013 20:28:40.725,889.280
27,5 Dec 2013 21:59:12.313,5 Dec 2013 22:09:20.586,608.273
28,5 Dec 2013 23:45:41.351,5 Dec 2013 23:58:56.328,794.977
29,6 Dec 2013 01:27:50.708,6 Dec 2013 01:44:14.117,983.409
30,6 Dec 2013 03:11:46.517,6 Dec 2013 03:19:03.324,436.806
31,6 Dec 2013 17:36:18.226,6 Dec 2013 17:50:53.529,875.303
32,6 Dec 2013 19:19:43.436,6 Dec 2013 19:36:29.383,1005.947
33,6 Dec 2013 21:06:33.714,6 Dec 2013 21:22:39.651,965.937
34,6 Dec 2013 22:51:24.369,6 Dec 2013 23:08:06.152,1001.783
35,7 Dec 2013 00:36:53.708,7 Dec 2013 00:45:42.093,528.385
36,7 Dec 2013 15:10:27.058,7 Dec 2013 15:13:31.871,184.813
37,7 Dec 2013 16:45:42.376,7 Dec 2013 17:02:12.579,990.203
38,7 Dec 2013 18:30:42.194,7 Dec 2013 18:47:21.838,999.644
39,7 Dec 2013 20:16:36.904,7 Dec 2013 20:33:33.596,1016.692

"Access","Start Time (UTCG)","Stop Time (UTCG)","Duration (sec)"
1,3 Dec 2013 15:11:54.163,3 Dec 2013 15:20:49.081,534.918
2,3 Dec 2013 16:49:37.546,3 Dec 2013 17:06:19.963,1002.417
3,3 Dec 2013 18:35:05.037,3 Dec 2013 18:51:13.766,968.729
4,3 Dec 2013 20:21:12.593,3 Dec 2013 20:37:23.567,970.974
5,3 Dec 2013 21:59:28.883,3 Dec 2013 22:15:12.502,943.619
6,3 Dec 2013 23:37:24.940,3 Dec 2013 23:53:11.335,946.395
7,4 Dec 2013 01:16:18.471,4 Dec 2013 01:32:24.761,966.290
8,4 Dec 2013 02:56:52.650,4 Dec 2013 03:13:13.263,980.612
9,4 Dec 2013 04:38:59.705,4 Dec 2013 04:55:30.915,991.210
10,4 Dec 2013 06:21:52.599,4 Dec 2013 06:36:56.063,903.464
11,4 Dec 2013 12:38:39.163,4 Dec 2013 12:45:59.228,440.065
12,4 Dec 2013 14:13:33.842,4 Dec 2013 14:29:57.966,984.124
13,4 Dec 2013 15:58:51.993,4 Dec 2013 16:12:11.411,799.418
14,4 Dec 2013 17:37:55.134,4 Dec 2013 17:52:58.167,903.033
15,4 Dec 2013 19:16:21.008,4 Dec 2013 19:31:47.233,926.225
16,4 Dec 2013 20:54:52.138,4 Dec 2013 21:09:58.648,906.510
17,4 Dec 2013 22:34:55.252,4 Dec 2013 22:48:10.599,795.347
18,5 Dec 2013 00:19:21.307,5 Dec 2013 00:25:33.432,372.125
19,5 Dec 2013 03:41:29.321,5 Dec 2013 03:57:34.738,965.417
20,5 Dec 2013 05:23:10.314,5 Dec 2013 05:32:21.292,550.978
21,5 Dec 2013 11:35:44.422,5 Dec 2013 11:51:35.490,951.069
22,5 Dec 2013 13:16:49.884,5 Dec 2013 13:32:21.278,931.394
23,5 Dec 2013 14:56:28.755,5 Dec 2013 15:11:22.298,893.544
24,5 Dec 2013 16:34:29.331,5 Dec 2013 16:49:16.129,886.798
25,5 Dec 2013 18:11:27.517,5 Dec 2013 18:26:56.876,929.360
26,5 Dec 2013 19:49:04.878,5 Dec 2013 20:04:26.826,921.948
27,5 Dec 2013 21:31:19.345,5 Dec 2013 21:42:59.208,699.864
28,5 Dec 2013 23:19:50.172,5 Dec 2013 23:31:23.447,693.275
29,6 Dec 2013 01:02:21.071,6 Dec 2013 01:18:44.310,983.239
30,6 Dec 2013 02:45:02.132,6 Dec 2013 02:56:54.051,711.919
31,6 Dec 2013 17:11:57.379,6 Dec 2013 17:23:42.439,705.061
32,6 Dec 2013 18:53:16.748,6 Dec 2013 19:10:12.180,1015.431
33,6 Dec 2013 20:39:56.042,6 Dec 2013 20:55:57.268,961.226
34,6 Dec 2013 22:25:22.635,6 Dec 2013 22:42:11.059,1008.424
35,7 Dec 2013 00:09:52.090,7 Dec 2013 00:22:40.862,768.773
36,7 Dec 2013 16:20:20.466,7 Dec 2013 16:35:57.982,937.516
37,7 Dec 2013 18:04:07.971,7 Dec 2013 18:20:55.810,1007.840
38,7 Dec 2013 19:50:16.939,7 Dec 2013 20:07:06.944,1010.005
39,7 Dec 2013 21:35:31.046,7 Dec 2013 21:50:58.020,926.974

"Access","Start Time (UTCG)","Stop Time (UTCG)","Duration (sec)"
1,3 Dec 2013 16:24:08.321,3 Dec 2013 16:40:18.256,969.935
2,3 Dec 2013 18:08:23.979,3 Dec 2013 18:24:46.559,982.580
3,3 Dec 2013 19:54:51.353,3 Dec 2013 20:11:22.318,990.965
4,3 Dec 2013 21:35:03.019,3 Dec 2013 21:50:48.139,945.120
5,3 Dec 2013 23:12:52.747,3 Dec 2013 23:28:36.183,943.435
6,4 Dec 2013 00:51:26.684,4 Dec 2013 01:07:27.831,961.147
7,4 Dec 2013 02:31:34.123,4 Dec 2013 02:47:52.002,977.878
8,4 Dec 2013 04:13:21.358,4 Dec 2013 04:29:50.014,988.656
9,4 Dec 2013 05:56:15.362,4 Dec 2013 06:12:42.671,987.309
10,4 Dec 2013 13:48:37.756,4 Dec 2013 14:04:23.990,946.234
11,4 Dec 2013 15:31:45.254,4 Dec 2013 15:46:33.556,888.302
12,4 Dec 2013 17:13:14.030,4 Dec 2013 17:28:01.057,887.027
13,4 Dec 2013 18:51:46.313,4 Dec 2013 19:07:11.143,924.830
14,4 Dec 2013 20:30:09.990,4 Dec 2013 20:45:26.284,916.294
15,4 Dec 2013 22:09:39.124,4 Dec 2013 22:23:37.676,838.551
16,4 Dec 2013 23:52:28.913,5 Dec 2013 00:01:31.712,542.799
17,5 Dec 2013 03:16:39.851,5 Dec 2013 03:32:07.715,927.864
18,5 Dec 2013 04:57:11.282,5 Dec 2013 05:09:55.995,764.713
19,5 Dec 2013 11:11:17.799,5 Dec 2013 11:26:09.315,891.516
20,5 Dec 2013 12:51:40.595,5 Dec 2013 13:07:19.939,939.344
21,5 Dec 2013 14:31:43.295,5 Dec 2013 14:46:45.656,902.361
22,5 Dec 2013 16:10:07.651,5 Dec 2013 16:24:50.518,882.867
23,5 Dec 2013 17:47:14.118,5 Dec 2013 18:02:31.582,917.464
24,5 Dec 2013 19:24:29.716,5 Dec 2013 19:40:07.908,938.192
25,5 Dec 2013 21:04:15.517,5 Dec 2013 21:16:55.759,760.242
26,5 Dec 2013 22:53:35.636,5 Dec 2013 23:03:40.945,605.309
27,6 Dec 2013 00:36:51.744,6 Dec 2013 00:52:40.853,949.109
28,6 Dec 2013 02:19:04.538,6 Dec 2013 02:33:25.454,860.916
29,6 Dec 2013 16:49:39.924,6 Dec 2013 16:54:41.849,301.925
30,6 Dec 2013 18:27:09.679,6 Dec 2013 18:43:54.928,1005.249
31,6 Dec 2013 20:13:10.585,6 Dec 2013 20:29:20.125,969.540
32,6 Dec 2013 21:59:15.795,6 Dec 2013 22:15:54.059,998.264
33,6 Dec 2013 23:43:31.350,6 Dec 2013 23:58:29.096,897.746
34,7 Dec 2013 15:55:34.537,7 Dec 2013 16:09:31.913,837.377
35,7 Dec 2013 17:37:42.254,7 Dec 2013 17:54:37.149,1014.895
36,7 Dec 2013 19:23:50.737,7 Dec 2013 19:40:31.782,1001.045
37,7 Dec 2013 21:09:08.991,7 Dec 2013 21:25:35.414,986.423

