Raw and processed data/Altitude Variations/us_greatcircle_12sat_600km/Aircraft-B747LAX_Narita-Transmitter-adsb_out6211-To-Satellite-600km_p1_1-Receiver-adsb_satrcvr2 Access.csv

"Access","Start Time (UTCG)","Stop Time (UTCG)","Duration (sec)"
1,3 Dec 2013 05:58:05.438,3 Dec 2013 06:06:06.013,480.576
2,3 Dec 2013 07:34:44.410,3 Dec 2013 07:50:05.943,921.533
3,3 Dec 2013 09:21:16.154,3 Dec 2013 09:32:01.887,645.733
4,3 Dec 2013 11:05:27.778,3 Dec 2013 11:16:35.067,667.289
5,3 Dec 2013 12:41:34.171,3 Dec 2013 12:55:29.099,834.928
6,3 Dec 2013 14:18:18.990,3 Dec 2013 14:32:55.466,876.476
7,3 Dec 2013 15:55:29.252,3 Dec 2013 16:10:14.245,884.994
8,3 Dec 2013 17:33:18.994,3 Dec 2013 17:48:09.884,890.890
9,3 Dec 2013 19:12:03.554,3 Dec 2013 19:26:59.170,895.617
10,3 Dec 2013 20:52:25.514,3 Dec 2013 21:04:48.656,743.143
11,4 Dec 2013 04:27:58.705,4 Dec 2013 04:42:13.705,855.000
12,4 Dec 2013 06:09:44.011,4 Dec 2013 06:22:13.482,749.470
13,4 Dec 2013 07:49:02.548,4 Dec 2013 08:02:05.286,782.738
14,4 Dec 2013 09:27:17.541,4 Dec 2013 09:40:49.558,812.017
15,4 Dec 2013 11:05:01.797,4 Dec 2013 11:18:35.652,813.856
16,4 Dec 2013 12:42:56.597,4 Dec 2013 12:55:51.561,774.964
17,4 Dec 2013 14:22:01.303,4 Dec 2013 14:32:55.961,654.658
18,4 Dec 2013 16:03:14.198,4 Dec 2013 16:13:35.738,621.540
19,4 Dec 2013 17:43:49.452,4 Dec 2013 17:59:06.513,917.061
20,5 Dec 2013 03:02:38.842,5 Dec 2013 03:11:15.459,516.617
21,5 Dec 2013 04:40:06.190,5 Dec 2013 04:50:51.472,645.282
22,5 Dec 2013 06:17:08.616,5 Dec 2013 06:29:01.367,712.751
23,5 Dec 2013 07:53:23.042,5 Dec 2013 08:06:27.151,784.109
24,5 Dec 2013 09:29:14.949,5 Dec 2013 09:43:30.474,855.525
25,5 Dec 2013 11:05:43.337,5 Dec 2013 11:21:06.518,923.181
26,5 Dec 2013 12:52:06.849,5 Dec 2013 13:05:19.901,793.052
27,5 Dec 2013 14:36:33.471,5 Dec 2013 14:51:41.244,907.773
28,5 Dec 2013 16:19:45.984,5 Dec 2013 16:32:49.799,783.815
29,6 Dec 2013 08:02:30.047,6 Dec 2013 08:14:56.337,746.290
30,6 Dec 2013 09:43:37.345,6 Dec 2013 09:59:07.096,929.751
31,6 Dec 2013 11:29:22.580,6 Dec 2013 11:43:46.778,864.197
32,6 Dec 2013 13:13:29.605,6 Dec 2013 13:29:08.539,938.934
33,6 Dec 2013 14:59:18.656,6 Dec 2013 15:07:35.951,497.295
34,7 Dec 2013 06:38:00.156,7 Dec 2013 06:52:53.963,893.807
35,7 Dec 2013 08:21:26.798,7 Dec 2013 08:35:33.377,846.579
36,7 Dec 2013 10:07:59.380,7 Dec 2013 10:21:02.732,783.352
37,7 Dec 2013 11:50:21.129,7 Dec 2013 12:04:51.203,870.073
38,7 Dec 2013 13:27:02.974,7 Dec 2013 13:41:11.755,848.782
39,7 Dec 2013 15:04:08.557,7 Dec 2013 15:17:01.431,772.874
40,7 Dec 2013 16:41:37.513,7 Dec 2013 16:53:17.234,699.721
41,7 Dec 2013 18:19:53.489,7 Dec 2013 18:30:20.882,627.393
42,7 Dec 2013 19:59:42.793,7 Dec 2013 20:07:42.594,479.801
43,8 Dec 2013 03:34:53.643,8 Dec 2013 03:45:00.618,606.975
44,8 Dec 2013 05:12:32.467,8 Dec 2013 05:27:25.976,893.509
45,8 Dec 2013 07:01:07.508,8 Dec 2013 07:07:11.775,364.267
46,8 Dec 2013 08:37:39.709,8 Dec 2013 08:48:47.909,668.201
47,8 Dec 2013 10:14:43.752,8 Dec 2013 10:27:44.524,780.771
48,8 Dec 2013 11:52:00.528,8 Dec 2013 12:05:36.592,816.063
49,8 Dec 2013 13:29:49.669,8 Dec 2013 13:43:22.234,812.565
50,8 Dec 2013 15:08:38.415,8 Dec 2013 15:21:41.816,783.400
51,8 Dec 2013 16:48:23.588,8 Dec 2013 17:02:39.165,855.577
52,8 Dec 2013 18:29:45.335,8 Dec 2013 18:41:15.140,689.805
53,9 Dec 2013 02:04:28.706,9 Dec 2013 02:17:41.024,792.317

"Access","Start Time (UTCG)","Stop Time (UTCG)","Duration (sec)"
1,3 Dec 2013 07:09:22.869,3 Dec 2013 07:24:38.603,915.734
2,3 Dec 2013 08:54:02.080,3 Dec 2013 09:06:20.190,738.110
3,3 Dec 2013 10:41:42.310,3 Dec 2013 10:51:19.700,577.390
4,3 Dec 2013 12:17:27.281,3 Dec 2013 12:30:58.144,810.863
5,3 Dec 2013 13:54:05.600,3 Dec 2013 14:08:36.978,871.377
6,3 Dec 2013 15:31:08.720,3 Dec 2013 15:45:52.333,883.613
7,3 Dec 2013 17:08:46.853,3 Dec 2013 17:23:36.163,889.311
8,3 Dec 2013 18:47:16.878,3 Dec 2013 19:02:11.853,894.975
9,3 Dec 2013 20:26:48.952,3 Dec 2013 20:41:11.998,863.046
10,4 Dec 2013 04:04:23.776,4 Dec 2013 04:16:28.658,724.883
11,4 Dec 2013 05:43:28.974,4 Dec 2013 05:57:16.240,827.266
12,4 Dec 2013 07:24:20.087,4 Dec 2013 07:37:13.159,773.071
13,4 Dec 2013 09:02:48.018,4 Dec 2013 09:16:14.888,806.870
14,4 Dec 2013 10:40:36.606,4 Dec 2013 10:54:13.065,816.458
15,4 Dec 2013 12:18:24.034,4 Dec 2013 12:31:34.040,790.005
16,4 Dec 2013 13:57:04.435,4 Dec 2013 14:08:40.841,696.405
17,4 Dec 2013 15:37:59.716,4 Dec 2013 15:45:36.221,456.505
18,4 Dec 2013 17:18:33.114,4 Dec 2013 17:33:40.950,907.836
19,4 Dec 2013 19:01:37.238,4 Dec 2013 19:10:44.598,547.360
20,5 Dec 2013 02:38:23.131,5 Dec 2013 02:45:58.426,455.296
21,5 Dec 2013 04:15:44.528,5 Dec 2013 04:26:07.759,623.231
22,5 Dec 2013 05:52:57.509,5 Dec 2013 06:04:34.324,696.814
23,5 Dec 2013 07:29:23.279,5 Dec 2013 07:42:08.276,764.997
24,5 Dec 2013 09:05:16.231,5 Dec 2013 09:19:16.440,840.209
25,5 Dec 2013 10:41:28.821,5 Dec 2013 10:56:02.807,873.986
26,5 Dec 2013 12:25:23.596,5 Dec 2013 12:38:59.353,815.757
27,5 Dec 2013 14:10:47.387,5 Dec 2013 14:25:16.195,868.807
28,5 Dec 2013 15:53:42.203,5 Dec 2013 16:08:25.531,883.328
29,6 Dec 2013 07:39:16.817,6 Dec 2013 07:47:37.288,500.471
30,6 Dec 2013 09:17:37.326,6 Dec 2013 09:33:15.815,938.489
31,6 Dec 2013 11:02:56.733,6 Dec 2013 11:17:20.795,864.062
32,6 Dec 2013 12:47:37.313,6 Dec 2013 13:03:07.599,930.286
33,6 Dec 2013 14:31:55.268,6 Dec 2013 14:44:20.716,745.448
34,7 Dec 2013 06:13:31.200,7 Dec 2013 06:26:57.042,805.841
35,7 Dec 2013 07:54:56.349,7 Dec 2013 08:09:50.286,893.937
36,7 Dec 2013 09:41:37.917,7 Dec 2013 09:54:14.274,756.357
37,7 Dec 2013 11:25:47.541,7 Dec 2013 11:40:32.535,884.993
38,7 Dec 2013 13:02:49.699,7 Dec 2013 13:17:12.203,862.504
39,7 Dec 2013 14:39:50.389,7 Dec 2013 14:53:03.360,792.971
40,7 Dec 2013 16:17:12.158,7 Dec 2013 16:29:08.855,716.698
41,7 Dec 2013 17:55:13.047,7 Dec 2013 18:06:01.086,648.039
42,7 Dec 2013 19:34:32.447,7 Dec 2013 19:43:24.922,532.475
43,8 Dec 2013 04:47:00.291,8 Dec 2013 05:02:16.799,916.508
44,8 Dec 2013 06:33:28.241,8 Dec 2013 06:42:01.168,512.927
45,8 Dec 2013 08:13:25.912,8 Dec 2013 08:23:44.395,618.483
46,8 Dec 2013 09:50:26.846,8 Dec 2013 10:03:09.179,762.332
47,8 Dec 2013 11:27:39.372,8 Dec 2013 11:41:11.090,811.718
48,8 Dec 2013 13:05:17.753,8 Dec 2013 13:18:53.995,816.243
49,8 Dec 2013 14:43:49.634,8 Dec 2013 14:57:01.921,792.288
50,8 Dec 2013 16:23:29.500,8 Dec 2013 16:36:08.273,758.772
51,8 Dec 2013 18:03:50.653,8 Dec 2013 18:17:49.079,838.425
52,9 Dec 2013 01:40:45.789,9 Dec 2013 01:53:31.853,766.064

"Access","Start Time (UTCG)","Stop Time (UTCG)","Duration (sec)"
1,3 Dec 2013 06:44:38.846,3 Dec 2013 06:59:00.640,861.794
2,3 Dec 2013 08:27:06.947,3 Dec 2013 08:40:51.701,824.754
3,3 Dec 2013 10:15:24.918,3 Dec 2013 10:24:49.682,564.764
4,3 Dec 2013 11:53:23.053,3 Dec 2013 12:06:20.392,777.339
5,3 Dec 2013 13:29:53.617,3 Dec 2013 13:44:17.176,863.559
6,3 Dec 2013 15:06:50.347,3 Dec 2013 15:21:32.345,881.998
7,3 Dec 2013 16:44:18.019,3 Dec 2013 16:59:05.799,887.781
8,3 Dec 2013 18:22:33.914,3 Dec 2013 18:37:27.763,893.848
9,3 Dec 2013 20:01:47.942,3 Dec 2013 20:16:42.272,894.330
10,4 Dec 2013 03:42:19.844,4 Dec 2013 03:49:37.773,437.929
11,4 Dec 2013 05:17:35.119,4 Dec 2013 05:32:31.607,896.489
12,4 Dec 2013 06:59:33.152,4 Dec 2013 07:12:16.816,763.665
13,4 Dec 2013 08:38:16.010,4 Dec 2013 08:51:36.106,800.096
14,4 Dec 2013 10:16:11.266,4 Dec 2013 10:29:48.183,816.918
15,4 Dec 2013 11:53:54.667,4 Dec 2013 12:07:15.748,801.082
16,4 Dec 2013 13:32:15.609,4 Dec 2013 13:44:24.943,729.333
17,4 Dec 2013 15:12:26.256,4 Dec 2013 15:21:21.288,535.032
18,4 Dec 2013 16:53:23.490,4 Dec 2013 17:07:38.045,854.554
19,4 Dec 2013 18:35:04.512,4 Dec 2013 18:47:54.313,769.801
20,5 Dec 2013 02:14:17.910,5 Dec 2013 02:20:24.517,366.606
21,5 Dec 2013 03:51:21.849,5 Dec 2013 04:01:18.003,596.154
22,5 Dec 2013 05:28:43.213,5 Dec 2013 05:40:04.062,680.849
23,5 Dec 2013 07:05:21.265,5 Dec 2013 07:17:47.903,746.638
24,5 Dec 2013 08:41:18.659,5 Dec 2013 08:55:01.166,822.507
25,5 Dec 2013 10:17:20.092,5 Dec 2013 10:31:54.007,873.915
26,5 Dec 2013 11:58:37.384,5 Dec 2013 12:12:53.357,855.973
27,5 Dec 2013 13:44:50.254,5 Dec 2013 13:58:37.175,826.922
28,5 Dec 2013 15:27:54.852,5 Dec 2013 15:43:21.051,926.200
29,6 Dec 2013 08:52:01.353,6 Dec 2013 09:07:22.681,921.328
30,6 Dec 2013 10:36:25.021,6 Dec 2013 10:51:05.781,880.759
31,6 Dec 2013 12:21:41.571,6 Dec 2013 12:36:48.632,907.061
32,6 Dec 2013 14:05:28.529,6 Dec 2013 14:19:53.304,864.775
33,7 Dec 2013 05:49:59.364,7 Dec 2013 06:00:26.661,627.298
34,7 Dec 2013 07:28:48.473,7 Dec 2013 07:44:13.171,924.698
35,7 Dec 2013 09:14:59.605,7 Dec 2013 09:27:41.288,761.683
36,7 Dec 2013 10:59:58.353,7 Dec 2013 11:14:40.585,882.232
37,7 Dec 2013 12:38:38.032,7 Dec 2013 12:53:09.711,871.680
38,7 Dec 2013 14:15:33.415,7 Dec 2013 14:29:06.323,812.908
39,7 Dec 2013 15:52:49.151,7 Dec 2013 16:05:03.646,734.495
40,7 Dec 2013 17:30:37.359,7 Dec 2013 17:41:43.561,666.202
41,7 Dec 2013 19:09:32.029,7 Dec 2013 19:19:04.051,572.023
42,7 Dec 2013 20:50:54.318,7 Dec 2013 20:55:46.538,292.220
43,8 Dec 2013 04:22:07.498,8 Dec 2013 04:36:56.247,888.749
44,8 Dec 2013 06:05:40.352,8 Dec 2013 06:17:19.828,699.476
45,8 Dec 2013 07:49:14.231,8 Dec 2013 07:58:29.607,555.376
46,8 Dec 2013 09:26:10.495,8 Dec 2013 09:38:28.807,738.312
47,8 Dec 2013 11:03:19.760,8 Dec 2013 11:16:44.491,804.731
48,8 Dec 2013 12:40:49.244,8 Dec 2013 12:54:27.378,818.133
49,8 Dec 2013 14:19:05.323,8 Dec 2013 14:32:25.696,800.373
50,8 Dec 2013 15:58:28.757,8 Dec 2013 16:11:14.528,765.771
51,8 Dec 2013 17:38:25.642,8 Dec 2013 17:53:28.460,902.818
52,9 Dec 2013 01:18:19.244,9 Dec 2013 01:27:08.843,529.599

"Access","Start Time (UTCG)","Stop Time (UTCG)","Duration (sec)"
1,3 Dec 2013 06:20:41.906,3 Dec 2013 06:33:00.958,739.053
2,3 Dec 2013 08:00:39.816,3 Dec 2013 08:15:28.723,888.907
3,3 Dec 2013 09:48:31.370,3 Dec 2013 09:58:08.158,576.788
4,3 Dec 2013 11:29:22.584,3 Dec 2013 11:41:33.690,731.105
5,3 Dec 2013 13:05:43.076,3 Dec 2013 13:19:54.971,851.895
6,3 Dec 2013 14:42:33.847,3 Dec 2013 14:57:13.634,879.787
7,3 Dec 2013 16:19:52.245,3 Dec 2013 16:34:38.601,886.357
8,3 Dec 2013 17:57:54.643,3 Dec 2013 18:12:47.079,892.435
9,3 Dec 2013 19:36:53.916,3 Dec 2013 19:51:49.435,895.519
10,3 Dec 2013 21:19:02.685,3 Dec 2013 21:27:00.855,478.170
11,4 Dec 2013 04:52:25.341,4 Dec 2013 05:07:31.450,906.109
12,4 Dec 2013 06:34:41.262,4 Dec 2013 06:47:16.708,755.446
13,4 Dec 2013 08:13:41.021,4 Dec 2013 08:26:52.952,791.931
14,4 Dec 2013 09:51:45.110,4 Dec 2013 10:05:20.508,815.397
15,4 Dec 2013 11:29:27.550,4 Dec 2013 11:42:56.406,808.856
16,4 Dec 2013 13:07:33.409,4 Dec 2013 13:20:08.497,755.088
17,4 Dec 2013 14:47:07.871,4 Dec 2013 14:57:09.789,601.919
18,4 Dec 2013 16:28:17.858,4 Dec 2013 16:40:56.761,758.903
19,4 Dec 2013 18:09:16.963,4 Dec 2013 18:23:53.326,876.363
20,5 Dec 2013 01:50:41.694,5 Dec 2013 01:54:15.334,213.639
21,5 Dec 2013 03:26:59.363,5 Dec 2013 03:36:21.098,561.735
22,5 Dec 2013 05:04:25.965,5 Dec 2013 05:15:29.999,664.034
23,5 Dec 2013 06:41:16.488,5 Dec 2013 06:53:25.733,729.246
24,5 Dec 2013 08:17:21.235,5 Dec 2013 08:30:44.745,803.510
25,5 Dec 2013 09:53:15.864,5 Dec 2013 10:07:43.095,867.232
26,5 Dec 2013 11:31:59.076,5 Dec 2013 11:46:57.666,898.590
27,5 Dec 2013 13:18:37.248,5 Dec 2013 13:31:54.757,797.510
28,5 Dec 2013 15:02:14.090,5 Dec 2013 15:17:44.626,930.536
29,5 Dec 2013 16:46:29.282,5 Dec 2013 16:56:11.738,582.456
30,6 Dec 2013 08:26:55.437,6 Dec 2013 08:41:20.309,864.872
31,6 Dec 2013 10:09:55.654,6 Dec 2013 10:25:02.199,906.545
32,6 Dec 2013 11:55:37.653,6 Dec 2013 12:10:18.799,881.146
33,6 Dec 2013 13:39:24.175,6 Dec 2013 13:54:45.761,921.585
34,7 Dec 2013 05:29:41.575,7 Dec 2013 05:31:06.121,84.546
35,7 Dec 2013 07:03:08.268,7 Dec 2013 07:18:36.421,928.153
36,7 Dec 2013 08:48:11.771,7 Dec 2013 09:01:28.468,796.697
37,7 Dec 2013 10:34:04.434,7 Dec 2013 10:47:55.534,831.100
38,7 Dec 2013 12:14:28.334,7 Dec 2013 12:29:03.126,874.792
39,7 Dec 2013 13:51:17.591,7 Dec 2013 14:05:09.449,831.858
40,7 Dec 2013 15:28:28.064,7 Dec 2013 15:41:01.323,753.259
41,7 Dec 2013 17:06:05.725,7 Dec 2013 17:17:28.841,683.116
42,7 Dec 2013 18:44:39.493,7 Dec 2013 18:54:42.215,602.722
43,7 Dec 2013 20:25:06.882,7 Dec 2013 20:31:53.055,406.173
44,8 Dec 2013 03:57:59.052,8 Dec 2013 04:11:17.252,798.201
45,8 Dec 2013 05:38:44.489,8 Dec 2013 05:52:26.820,822.331
46,8 Dec 2013 07:25:06.545,8 Dec 2013 07:33:00.615,474.070
47,8 Dec 2013 09:01:54.719,8 Dec 2013 09:13:42.174,707.455
48,8 Dec 2013 10:39:01.320,8 Dec 2013 10:52:15.953,794.633
49,8 Dec 2013 12:16:23.661,8 Dec 2013 12:30:01.786,818.125
50,8 Dec 2013 13:54:25.414,8 Dec 2013 14:07:52.630,807.216
51,8 Dec 2013 15:33:31.559,8 Dec 2013 15:46:25.857,774.298
52,8 Dec 2013 17:13:17.948,8 Dec 2013 17:28:24.733,906.784
53,8 Dec 2013 18:57:04.819,8 Dec 2013 19:02:50.562,345.743

"Access","Start Time (UTCG)","Stop Time (UTCG)","Duration (sec)"
1,3 Dec 2013 01:24:33.355,3 Dec 2013 01:37:09.465,756.110
2,3 Dec 2013 03:05:13.818,3 Dec 2013 03:19:34.576,860.757
3,3 Dec 2013 10:42:39.759,3 Dec 2013 10:53:37.096,657.337
4,3 Dec 2013 12:21:08.161,3 Dec 2013 12:33:54.909,766.748
5,3 Dec 2013 13:59:20.460,3 Dec 2013 14:12:45.131,804.671
6,3 Dec 2013 15:36:45.828,3 Dec 2013 15:50:34.182,828.354
7,3 Dec 2013 17:13:26.462,3 Dec 2013 17:27:45.750,859.288
8,3 Dec 2013 18:49:59.086,3 Dec 2013 19:04:35.151,876.064
9,3 Dec 2013 20:27:57.580,3 Dec 2013 20:42:19.742,862.163
10,3 Dec 2013 22:14:47.785,3 Dec 2013 22:27:40.798,773.013
11,3 Dec 2013 23:57:58.584,4 Dec 2013 00:13:28.533,929.949
12,4 Dec 2013 01:42:29.203,4 Dec 2013 01:50:53.154,503.951
13,4 Dec 2013 17:22:02.829,4 Dec 2013 17:36:56.521,893.692
14,4 Dec 2013 19:05:44.118,4 Dec 2013 19:20:40.291,896.173
15,4 Dec 2013 20:51:18.422,4 Dec 2013 21:06:09.169,890.747
16,4 Dec 2013 22:34:58.132,4 Dec 2013 22:50:02.228,904.096
17,5 Dec 2013 14:22:51.912,5 Dec 2013 14:28:29.041,337.129
18,5 Dec 2013 15:58:47.304,5 Dec 2013 16:14:19.208,931.903
19,5 Dec 2013 17:44:01.775,5 Dec 2013 17:57:34.372,812.597
20,5 Dec 2013 19:29:27.312,5 Dec 2013 19:44:01.135,873.822
21,5 Dec 2013 21:11:22.674,5 Dec 2013 21:25:42.197,859.523
22,5 Dec 2013 22:48:30.815,5 Dec 2013 23:00:59.479,748.664
23,6 Dec 2013 00:26:06.564,6 Dec 2013 00:35:55.213,588.649
24,6 Dec 2013 02:04:20.146,6 Dec 2013 02:11:15.550,415.404
25,6 Dec 2013 12:53:32.412,6 Dec 2013 13:07:15.249,822.837
26,6 Dec 2013 14:34:55.450,6 Dec 2013 14:48:36.228,820.778
27,6 Dec 2013 16:23:24.071,6 Dec 2013 16:29:54.535,390.464
28,6 Dec 2013 17:59:17.015,6 Dec 2013 18:11:07.411,710.397
29,6 Dec 2013 19:36:06.154,6 Dec 2013 19:49:39.688,813.534
30,6 Dec 2013 21:13:17.245,6 Dec 2013 21:27:22.887,845.642
31,6 Dec 2013 22:51:04.778,6 Dec 2013 23:05:15.810,851.032
32,7 Dec 2013 00:29:48.354,7 Dec 2013 00:43:55.174,846.820
33,7 Dec 2013 02:09:23.665,7 Dec 2013 02:24:31.027,907.362
34,7 Dec 2013 03:54:38.097,7 Dec 2013 03:56:44.221,126.123
35,7 Dec 2013 11:25:12.231,7 Dec 2013 11:40:16.155,903.925
36,7 Dec 2013 13:05:00.081,7 Dec 2013 13:19:48.381,888.300
37,7 Dec 2013 14:43:44.973,7 Dec 2013 14:58:25.889,880.917
38,7 Dec 2013 16:21:38.529,7 Dec 2013 16:36:09.961,871.432
39,7 Dec 2013 17:59:10.884,7 Dec 2013 18:13:17.126,846.242
40,7 Dec 2013 19:37:17.581,7 Dec 2013 19:49:59.343,761.762
41,7 Dec 2013 21:17:53.073,7 Dec 2013 21:27:14.536,561.464
42,7 Dec 2013 23:01:15.046,7 Dec 2013 23:15:29.193,854.148
43,8 Dec 2013 00:43:17.096,8 Dec 2013 00:56:59.270,822.174
44,8 Dec 2013 14:50:43.413,8 Dec 2013 14:59:52.110,548.697
45,8 Dec 2013 16:24:41.840,8 Dec 2013 16:37:53.494,791.654
46,8 Dec 2013 18:06:46.281,8 Dec 2013 18:21:58.796,912.514
47,8 Dec 2013 19:52:53.512,8 Dec 2013 20:06:59.133,845.621
48,8 Dec 2013 21:36:36.191,8 Dec 2013 21:52:11.450,935.259
49,8 Dec 2013 23:22:20.184,8 Dec 2013 23:29:12.667,412.483

"Access","Start Time (UTCG)","Stop Time (UTCG)","Duration (sec)"
1,3 Dec 2013 01:00:00.000,3 Dec 2013 01:09:44.170,584.170
2,3 Dec 2013 02:39:46.986,3 Dec 2013 02:54:58.742,911.756
3,3 Dec 2013 10:21:08.957,3 Dec 2013 10:26:57.860,348.904
4,3 Dec 2013 11:56:30.566,3 Dec 2013 12:09:00.044,749.478
5,3 Dec 2013 13:34:51.150,3 Dec 2013 13:48:09.216,798.066
6,3 Dec 2013 15:12:29.347,3 Dec 2013 15:26:11.341,821.994
7,3 Dec 2013 16:49:19.067,3 Dec 2013 17:03:30.232,851.166
8,3 Dec 2013 18:25:48.479,3 Dec 2013 18:40:24.799,876.320
9,3 Dec 2013 20:02:57.658,3 Dec 2013 20:16:53.850,836.192
10,3 Dec 2013 21:48:22.880,3 Dec 2013 22:00:57.337,754.457
11,3 Dec 2013 23:32:22.281,3 Dec 2013 23:47:31.373,909.092
12,4 Dec 2013 01:15:30.851,4 Dec 2013 01:27:58.871,748.020
13,4 Dec 2013 16:57:17.239,4 Dec 2013 17:10:41.040,803.801
14,4 Dec 2013 18:39:19.770,4 Dec 2013 18:54:41.731,921.961
15,4 Dec 2013 20:25:08.225,4 Dec 2013 20:39:37.327,869.102
16,4 Dec 2013 22:09:02.300,4 Dec 2013 22:24:37.606,935.306
17,4 Dec 2013 23:56:07.871,5 Dec 2013 00:01:00.863,292.993
18,5 Dec 2013 15:33:29.155,5 Dec 2013 15:48:35.436,906.281
19,5 Dec 2013 17:17:19.981,5 Dec 2013 17:31:31.274,851.293
20,5 Dec 2013 19:03:26.155,5 Dec 2013 19:17:16.917,830.762
21,5 Dec 2013 20:47:06.505,5 Dec 2013 21:01:42.205,875.700
22,5 Dec 2013 22:24:10.958,5 Dec 2013 22:37:14.564,783.606
23,6 Dec 2013 00:01:40.056,6 Dec 2013 00:12:10.151,630.095
24,6 Dec 2013 01:39:41.062,6 Dec 2013 01:47:22.572,461.510
25,6 Dec 2013 03:19:11.425,6 Dec 2013 03:22:41.510,210.085
26,6 Dec 2013 12:30:07.757,6 Dec 2013 12:41:06.452,658.695
27,6 Dec 2013 14:08:37.152,6 Dec 2013 14:23:28.509,891.357
28,6 Dec 2013 15:57:43.201,6 Dec 2013 16:03:48.856,365.655
29,6 Dec 2013 17:35:09.378,6 Dec 2013 17:46:11.428,662.050
30,6 Dec 2013 19:11:51.880,6 Dec 2013 19:25:09.150,797.270
31,6 Dec 2013 20:48:56.917,6 Dec 2013 21:02:58.029,841.112
32,6 Dec 2013 22:26:33.235,6 Dec 2013 22:40:44.368,851.133
33,7 Dec 2013 00:05:01.707,7 Dec 2013 00:19:09.579,847.873
34,7 Dec 2013 01:44:28.894,7 Dec 2013 01:58:55.662,866.768
35,7 Dec 2013 03:26:00.503,7 Dec 2013 03:36:37.915,637.412
36,7 Dec 2013 11:00:26.445,7 Dec 2013 11:15:14.307,887.862
37,7 Dec 2013 12:40:09.391,7 Dec 2013 12:55:00.097,890.706
38,7 Dec 2013 14:19:09.255,7 Dec 2013 14:33:51.913,882.658
39,7 Dec 2013 15:57:13.694,7 Dec 2013 16:11:48.168,874.474
40,7 Dec 2013 17:34:47.246,7 Dec 2013 17:49:02.822,855.576
41,7 Dec 2013 19:12:38.424,7 Dec 2013 19:25:51.407,792.983
42,7 Dec 2013 20:52:12.802,7 Dec 2013 21:02:01.098,588.296
43,7 Dec 2013 22:35:49.535,7 Dec 2013 22:48:44.746,775.210
44,8 Dec 2013 00:17:32.183,8 Dec 2013 00:32:32.604,900.420
45,8 Dec 2013 14:27:25.379,8 Dec 2013 14:35:12.238,466.859
46,8 Dec 2013 16:01:05.013,8 Dec 2013 16:13:23.458,738.445
47,8 Dec 2013 17:40:30.296,8 Dec 2013 17:56:05.314,935.018
48,8 Dec 2013 19:26:29.453,8 Dec 2013 19:40:27.401,837.948
49,8 Dec 2013 21:10:50.257,8 Dec 2013 21:26:18.534,928.277
50,8 Dec 2013 22:54:47.079,8 Dec 2013 23:06:36.412,709.333

"Access","Start Time (UTCG)","Stop Time (UTCG)","Duration (sec)"
1,3 Dec 2013 02:14:33.715,3 Dec 2013 02:29:42.377,908.662
2,3 Dec 2013 03:57:52.723,3 Dec 2013 04:05:44.301,471.579
3,3 Dec 2013 11:31:52.567,3 Dec 2013 11:43:59.324,726.757
4,3 Dec 2013 13:10:19.042,3 Dec 2013 13:23:29.104,790.062
5,3 Dec 2013 14:48:09.663,3 Dec 2013 15:01:45.817,816.155
6,3 Dec 2013 16:25:10.243,3 Dec 2013 16:39:13.305,843.062
7,3 Dec 2013 18:01:40.222,3 Dec 2013 18:16:13.024,872.802
8,3 Dec 2013 19:38:32.248,3 Dec 2013 19:52:50.261,858.013
9,3 Dec 2013 21:21:39.637,3 Dec 2013 21:34:28.669,769.032
10,3 Dec 2013 23:06:42.309,3 Dec 2013 23:21:09.329,867.021
11,4 Dec 2013 00:49:23.829,4 Dec 2013 01:03:49.681,865.852
12,4 Dec 2013 16:33:25.187,4 Dec 2013 16:43:48.418,623.232
13,4 Dec 2013 18:13:10.771,4 Dec 2013 18:28:48.678,937.907
14,4 Dec 2013 19:58:46.350,4 Dec 2013 20:13:08.272,861.922
15,4 Dec 2013 21:43:11.012,4 Dec 2013 21:58:46.695,935.684
16,4 Dec 2013 23:27:46.765,4 Dec 2013 23:38:56.190,669.425
17,5 Dec 2013 15:08:47.108,5 Dec 2013 15:22:39.950,832.842
18,5 Dec 2013 16:50:48.150,5 Dec 2013 17:05:41.370,893.220
19,5 Dec 2013 18:37:11.811,5 Dec 2013 18:50:31.102,799.291
20,5 Dec 2013 20:21:11.451,5 Dec 2013 20:36:47.567,936.116
21,5 Dec 2013 21:59:52.832,5 Dec 2013 22:13:27.370,814.538
22,5 Dec 2013 23:37:15.354,5 Dec 2013 23:48:26.364,671.010
23,6 Dec 2013 01:15:06.447,6 Dec 2013 01:23:31.271,504.823
24,6 Dec 2013 02:54:00.047,6 Dec 2013 02:59:00.024,299.977
25,6 Dec 2013 12:08:58.876,6 Dec 2013 12:13:08.138,249.262
26,6 Dec 2013 13:42:56.442,6 Dec 2013 13:58:15.308,918.866
27,6 Dec 2013 15:29:29.894,6 Dec 2013 15:38:44.211,554.318
28,6 Dec 2013 17:11:05.503,6 Dec 2013 17:21:03.954,598.452
29,6 Dec 2013 18:47:38.798,6 Dec 2013 19:00:34.524,775.726
30,6 Dec 2013 20:24:38.487,6 Dec 2013 20:38:33.123,834.635
31,6 Dec 2013 22:02:05.030,6 Dec 2013 22:16:15.429,850.398
32,6 Dec 2013 23:40:18.882,6 Dec 2013 23:54:28.031,849.148
33,7 Dec 2013 01:19:32.276,7 Dec 2013 01:33:39.349,847.073
34,7 Dec 2013 02:59:57.377,7 Dec 2013 03:13:31.073,813.695
35,7 Dec 2013 10:36:27.386,7 Dec 2013 10:49:50.827,803.441
36,7 Dec 2013 12:15:14.984,7 Dec 2013 12:30:08.494,893.510
37,7 Dec 2013 13:54:29.974,7 Dec 2013 14:09:14.360,884.386
38,7 Dec 2013 15:32:46.810,7 Dec 2013 15:47:23.765,876.954
39,7 Dec 2013 17:10:24.565,7 Dec 2013 17:24:47.002,862.437
40,7 Dec 2013 18:48:05.240,7 Dec 2013 19:01:41.507,816.267
41,7 Dec 2013 20:27:01.779,7 Dec 2013 20:38:05.985,664.207
42,7 Dec 2013 22:10:14.349,7 Dec 2013 22:21:36.762,682.413
43,7 Dec 2013 23:52:01.417,8 Dec 2013 00:07:25.661,924.244
44,8 Dec 2013 01:37:35.415,8 Dec 2013 01:41:48.252,252.836
45,8 Dec 2013 14:04:13.660,8 Dec 2013 14:10:24.389,370.729
46,8 Dec 2013 15:37:33.264,8 Dec 2013 15:48:56.828,683.563
47,8 Dec 2013 17:14:35.132,8 Dec 2013 17:30:11.472,936.340
48,8 Dec 2013 18:59:54.702,8 Dec 2013 19:14:06.236,851.534
49,8 Dec 2013 20:45:01.112,8 Dec 2013 21:00:03.948,902.837
50,8 Dec 2013 22:28:23.758,8 Dec 2013 22:42:29.780,846.022

"Access","Start Time (UTCG)","Stop Time (UTCG)","Duration (sec)"
1,3 Dec 2013 01:49:29.683,3 Dec 2013 02:03:46.829,857.145
2,3 Dec 2013 03:31:04.382,3 Dec 2013 03:43:21.183,736.801
3,3 Dec 2013 11:07:15.186,3 Dec 2013 11:18:52.033,696.847
4,3 Dec 2013 12:45:44.538,3 Dec 2013 12:58:44.459,779.920
5,3 Dec 2013 14:23:46.690,3 Dec 2013 14:37:17.208,810.518
6,3 Dec 2013 16:00:59.336,3 Dec 2013 16:14:54.722,835.386
7,3 Dec 2013 17:37:33.218,3 Dec 2013 17:51:59.992,866.774
8,3 Dec 2013 19:14:13.231,3 Dec 2013 19:28:43.796,870.565
9,3 Dec 2013 20:54:47.061,3 Dec 2013 21:08:17.417,810.356
10,3 Dec 2013 22:40:52.833,3 Dec 2013 22:54:29.039,816.206
11,4 Dec 2013 00:23:36.848,4 Dec 2013 00:38:56.292,919.444
12,4 Dec 2013 17:47:23.277,4 Dec 2013 18:02:55.798,932.521
13,4 Dec 2013 19:32:15.920,4 Dec 2013 19:46:48.529,872.608
14,4 Dec 2013 21:17:18.076,4 Dec 2013 21:32:35.043,916.967
15,4 Dec 2013 23:01:07.255,4 Dec 2013 23:14:53.471,826.216
16,5 Dec 2013 14:44:55.116,5 Dec 2013 14:56:17.502,682.386
17,5 Dec 2013 16:24:35.233,5 Dec 2013 16:39:59.207,923.974
18,5 Dec 2013 18:10:42.315,5 Dec 2013 18:23:54.556,792.241
19,5 Dec 2013 19:55:20.438,5 Dec 2013 20:10:33.689,913.251
20,5 Dec 2013 21:35:36.638,5 Dec 2013 21:49:36.909,840.271
21,5 Dec 2013 23:12:52.295,5 Dec 2013 23:24:43.103,710.808
22,6 Dec 2013 00:50:35.196,6 Dec 2013 00:59:42.143,546.946
23,6 Dec 2013 02:29:05.446,6 Dec 2013 02:35:08.945,363.499
24,6 Dec 2013 13:17:53.477,6 Dec 2013 13:32:53.064,899.587
25,6 Dec 2013 15:01:52.781,6 Dec 2013 15:13:40.826,708.045
26,6 Dec 2013 16:47:08.122,6 Dec 2013 16:55:41.014,512.892
27,6 Dec 2013 18:23:27.055,6 Dec 2013 18:35:54.469,747.414
28,6 Dec 2013 20:00:21.640,6 Dec 2013 20:14:07.325,825.685
29,6 Dec 2013 21:37:39.826,6 Dec 2013 21:51:48.468,848.642
30,6 Dec 2013 23:15:39.932,6 Dec 2013 23:29:50.229,850.297
31,7 Dec 2013 00:54:38.637,7 Dec 2013 01:08:45.053,846.416
32,7 Dec 2013 02:34:30.399,7 Dec 2013 02:49:23.606,893.207
33,7 Dec 2013 10:13:32.564,7 Dec 2013 10:23:46.363,613.800
34,7 Dec 2013 11:50:17.095,7 Dec 2013 12:05:13.774,896.680
35,7 Dec 2013 13:29:46.946,7 Dec 2013 13:44:33.171,886.225
36,7 Dec 2013 15:08:17.372,7 Dec 2013 15:22:56.431,879.059
37,7 Dec 2013 16:46:01.925,7 Dec 2013 17:00:29.468,867.543
38,7 Dec 2013 18:23:36.497,7 Dec 2013 18:37:30.028,833.531
39,7 Dec 2013 20:02:04.555,7 Dec 2013 20:14:04.618,720.063
40,7 Dec 2013 21:44:19.601,7 Dec 2013 21:54:19.308,599.707
41,7 Dec 2013 23:26:37.379,7 Dec 2013 23:41:43.730,906.351
42,8 Dec 2013 01:09:32.141,8 Dec 2013 01:20:30.692,658.550
43,8 Dec 2013 13:41:14.703,8 Dec 2013 13:45:21.138,246.434
44,8 Dec 2013 15:14:06.141,8 Dec 2013 15:24:26.574,620.432
45,8 Dec 2013 16:49:05.676,8 Dec 2013 17:04:10.661,904.985
46,8 Dec 2013 18:33:17.137,8 Dec 2013 18:47:57.523,880.386
47,8 Dec 2013 20:19:03.587,8 Dec 2013 20:33:34.511,870.923
48,8 Dec 2013 22:02:24.778,8 Dec 2013 22:17:37.312,912.534

"Access","Start Time (UTCG)","Stop Time (UTCG)","Duration (sec)"
1,3 Dec 2013 01:04:52.257,3 Dec 2013 01:12:01.233,428.976
2,3 Dec 2013 02:42:49.021,3 Dec 2013 02:58:27.553,938.532
3,3 Dec 2013 04:28:08.728,3 Dec 2013 04:42:31.014,862.285
4,3 Dec 2013 06:12:55.391,3 Dec 2013 06:28:19.285,923.894
5,3 Dec 2013 07:56:48.537,3 Dec 2013 08:09:49.291,780.754
6,3 Dec 2013 23:39:52.731,3 Dec 2013 23:52:04.456,731.725
7,4 Dec 2013 01:20:21.132,4 Dec 2013 01:35:43.462,922.331
8,4 Dec 2013 03:06:23.703,4 Dec 2013 03:20:02.362,818.659
9,4 Dec 2013 04:50:45.641,4 Dec 2013 05:06:16.956,931.315
10,4 Dec 2013 06:32:50.747,4 Dec 2013 06:45:36.434,765.687
11,4 Dec 2013 08:10:54.256,4 Dec 2013 08:19:23.298,509.042
12,4 Dec 2013 22:13:38.678,4 Dec 2013 22:28:47.122,908.444
13,4 Dec 2013 23:57:59.878,5 Dec 2013 00:10:01.275,721.398
14,5 Dec 2013 01:44:37.950,5 Dec 2013 01:53:20.063,522.113
15,5 Dec 2013 03:20:32.015,5 Dec 2013 03:33:26.589,774.574
16,5 Dec 2013 04:57:15.975,5 Dec 2013 05:11:26.792,850.816
17,5 Dec 2013 06:34:25.083,5 Dec 2013 06:48:58.543,873.460
18,5 Dec 2013 08:12:12.442,5 Dec 2013 08:26:54.999,882.557
19,5 Dec 2013 09:50:53.905,5 Dec 2013 10:05:44.234,890.329
20,5 Dec 2013 11:30:38.036,5 Dec 2013 11:45:18.346,880.310
21,5 Dec 2013 19:08:55.340,5 Dec 2013 19:20:11.762,676.422
22,5 Dec 2013 20:47:06.557,5 Dec 2013 21:01:17.346,850.789
23,5 Dec 2013 22:26:49.945,5 Dec 2013 22:40:54.239,844.294
24,6 Dec 2013 00:05:24.536,6 Dec 2013 00:19:33.823,849.287
25,6 Dec 2013 01:43:15.173,6 Dec 2013 01:57:18.180,843.008
26,6 Dec 2013 03:21:00.135,6 Dec 2013 03:34:27.723,807.588
27,6 Dec 2013 04:59:40.292,6 Dec 2013 05:11:15.699,695.406
28,6 Dec 2013 06:41:10.124,6 Dec 2013 06:49:57.421,527.297
29,6 Dec 2013 08:22:34.314,6 Dec 2013 08:37:41.355,907.041
30,6 Dec 2013 10:05:31.286,6 Dec 2013 10:15:39.168,607.882
31,6 Dec 2013 19:23:40.174,6 Dec 2013 19:26:37.349,177.174
32,6 Dec 2013 20:58:58.466,6 Dec 2013 21:06:28.783,450.317
33,6 Dec 2013 22:34:21.486,6 Dec 2013 22:44:34.341,612.855
34,7 Dec 2013 00:09:20.347,7 Dec 2013 00:22:05.948,765.602
35,7 Dec 2013 01:44:44.830,7 Dec 2013 01:59:43.957,899.128
36,7 Dec 2013 03:29:16.580,7 Dec 2013 03:43:28.882,852.302
37,7 Dec 2013 05:14:54.528,7 Dec 2013 05:29:24.741,870.212
38,7 Dec 2013 06:58:02.604,7 Dec 2013 07:13:01.536,898.932
39,7 Dec 2013 22:45:36.994,7 Dec 2013 22:51:00.302,323.307
40,8 Dec 2013 00:22:06.553,8 Dec 2013 00:37:41.834,935.280
41,8 Dec 2013 02:07:07.735,8 Dec 2013 02:21:32.508,864.773
42,8 Dec 2013 03:52:04.538,8 Dec 2013 04:07:25.085,920.547
43,8 Dec 2013 05:36:09.093,8 Dec 2013 05:49:36.963,807.871
44,8 Dec 2013 21:18:15.302,8 Dec 2013 21:31:11.467,776.166
45,8 Dec 2013 22:59:02.847,8 Dec 2013 23:13:57.248,894.401
46,9 Dec 2013 00:46:04.294,9 Dec 2013 00:57:48.456,704.162

"Access","Start Time (UTCG)","Stop Time (UTCG)","Duration (sec)"
1,3 Dec 2013 02:17:14.633,3 Dec 2013 02:32:30.812,916.179
2,3 Dec 2013 04:01:35.300,3 Dec 2013 04:16:17.906,882.605
3,3 Dec 2013 05:46:59.821,3 Dec 2013 06:01:57.970,898.149
4,3 Dec 2013 07:30:33.645,3 Dec 2013 07:45:15.540,881.895
5,3 Dec 2013 23:17:02.391,3 Dec 2013 23:24:49.995,467.604
6,4 Dec 2013 00:54:25.804,4 Dec 2013 01:10:00.182,934.378
7,4 Dec 2013 02:39:49.729,4 Dec 2013 02:53:36.855,827.126
8,4 Dec 2013 04:24:52.846,4 Dec 2013 04:39:56.647,903.801
9,4 Dec 2013 06:08:29.203,4 Dec 2013 06:21:56.726,807.523
10,4 Dec 2013 07:46:16.787,4 Dec 2013 07:56:03.865,587.078
11,4 Dec 2013 09:26:03.169,4 Dec 2013 09:28:14.948,131.778
12,4 Dec 2013 21:49:05.816,4 Dec 2013 22:03:09.570,843.753
13,4 Dec 2013 23:31:02.939,4 Dec 2013 23:44:44.656,821.716
14,5 Dec 2013 01:20:25.046,5 Dec 2013 01:27:27.259,422.213
15,5 Dec 2013 02:56:25.915,5 Dec 2013 03:08:42.617,736.702
16,5 Dec 2013 04:33:02.717,5 Dec 2013 04:47:02.136,839.419
17,5 Dec 2013 06:10:04.975,5 Dec 2013 06:24:34.888,869.913
18,5 Dec 2013 07:47:40.968,5 Dec 2013 08:02:21.659,880.691
19,5 Dec 2013 09:26:08.140,5 Dec 2013 09:40:56.266,888.125
20,5 Dec 2013 11:05:31.153,5 Dec 2013 11:20:37.774,906.621
21,5 Dec 2013 18:47:42.729,5 Dec 2013 18:52:40.137,297.408
22,5 Dec 2013 20:21:23.771,5 Dec 2013 20:36:23.611,899.840
23,5 Dec 2013 22:02:01.463,5 Dec 2013 22:16:04.830,843.367
24,5 Dec 2013 23:40:51.135,5 Dec 2013 23:54:59.661,848.526
25,6 Dec 2013 01:18:49.856,6 Dec 2013 01:32:56.240,846.384
26,6 Dec 2013 02:56:31.582,6 Dec 2013 03:10:12.500,820.918
27,6 Dec 2013 04:34:50.520,6 Dec 2013 04:47:06.068,735.548
28,6 Dec 2013 06:15:20.483,6 Dec 2013 06:23:20.226,479.742
29,6 Dec 2013 07:57:18.521,6 Dec 2013 08:11:32.140,853.619
30,6 Dec 2013 09:39:08.951,6 Dec 2013 09:52:26.813,797.862
31,6 Dec 2013 20:35:02.984,6 Dec 2013 20:41:47.361,404.377
32,6 Dec 2013 22:10:34.135,6 Dec 2013 22:20:07.110,572.976
33,6 Dec 2013 23:45:35.617,6 Dec 2013 23:57:45.391,729.774
34,7 Dec 2013 01:20:47.870,7 Dec 2013 01:34:57.316,849.447
35,7 Dec 2013 03:02:37.718,7 Dec 2013 03:17:26.954,889.236
36,7 Dec 2013 04:48:50.527,7 Dec 2013 05:02:47.380,836.853
37,7 Dec 2013 06:32:14.701,7 Dec 2013 06:47:46.242,931.541
38,7 Dec 2013 08:19:06.973,7 Dec 2013 08:22:50.597,223.624
39,7 Dec 2013 23:56:42.373,8 Dec 2013 00:11:48.176,905.804
40,8 Dec 2013 01:40:35.413,8 Dec 2013 01:55:22.422,887.009
41,8 Dec 2013 03:26:05.672,8 Dec 2013 03:40:59.236,893.564
42,8 Dec 2013 05:09:52.165,8 Dec 2013 05:24:48.210,896.045
43,8 Dec 2013 20:55:06.073,8 Dec 2013 21:04:30.779,564.707
44,8 Dec 2013 22:33:00.536,8 Dec 2013 22:48:25.225,924.689
45,9 Dec 2013 00:19:15.106,9 Dec 2013 00:31:22.266,727.160
46,9 Dec 2013 02:04:40.481,9 Dec 2013 02:17:41.024,780.543

"Access","Start Time (UTCG)","Stop Time (UTCG)","Duration (sec)"
1,3 Dec 2013 01:52:10.765,3 Dec 2013 02:06:22.153,851.388
2,3 Dec 2013 03:35:05.466,3 Dec 2013 03:50:15.576,910.109
3,3 Dec 2013 05:20:54.553,3 Dec 2013 05:35:27.011,872.457
4,3 Dec 2013 07:04:36.207,3 Dec 2013 07:20:03.921,927.714
5,4 Dec 2013 00:28:57.873,4 Dec 2013 00:44:14.972,917.099
6,4 Dec 2013 02:13:11.285,4 Dec 2013 02:27:26.861,855.576
7,4 Dec 2013 03:58:54.639,4 Dec 2013 04:13:21.525,866.886
8,4 Dec 2013 05:42:38.876,4 Dec 2013 05:57:51.000,912.124
9,4 Dec 2013 07:21:44.242,4 Dec 2013 07:32:39.600,655.358
10,4 Dec 2013 09:00:34.246,4 Dec 2013 09:05:41.065,306.818
11,4 Dec 2013 21:25:24.245,4 Dec 2013 21:37:06.156,701.912
12,4 Dec 2013 23:04:39.647,4 Dec 2013 23:19:29.473,889.826
13,5 Dec 2013 00:53:04.189,5 Dec 2013 01:01:07.426,483.236
14,5 Dec 2013 02:32:23.270,5 Dec 2013 02:43:49.278,686.008
15,5 Dec 2013 04:08:50.861,5 Dec 2013 04:22:34.751,823.891
16,5 Dec 2013 05:45:46.932,5 Dec 2013 06:00:12.242,865.309
17,5 Dec 2013 07:23:12.760,5 Dec 2013 07:37:51.405,878.645
18,5 Dec 2013 09:01:25.958,5 Dec 2013 09:16:12.121,886.163
19,5 Dec 2013 10:40:35.599,5 Dec 2013 10:55:31.328,895.729
20,5 Dec 2013 12:22:24.822,5 Dec 2013 12:31:54.681,569.859
21,5 Dec 2013 19:56:25.561,5 Dec 2013 20:11:24.212,898.651
22,5 Dec 2013 21:37:08.564,5 Dec 2013 21:51:11.961,843.396
23,5 Dec 2013 23:16:14.487,5 Dec 2013 23:30:21.731,847.243
24,6 Dec 2013 00:54:23.377,6 Dec 2013 01:08:31.783,848.405
25,6 Dec 2013 02:32:05.205,6 Dec 2013 02:45:55.990,830.785
26,6 Dec 2013 04:10:08.295,6 Dec 2013 04:22:54.613,766.318
27,6 Dec 2013 05:49:51.512,6 Dec 2013 05:59:25.311,573.799
28,6 Dec 2013 07:32:03.018,6 Dec 2013 07:44:48.586,765.569
29,6 Dec 2013 09:13:23.170,6 Dec 2013 09:28:12.571,889.401
30,6 Dec 2013 20:11:07.820,6 Dec 2013 20:16:58.751,350.931
31,6 Dec 2013 21:46:44.545,6 Dec 2013 21:55:37.559,533.014
32,6 Dec 2013 23:21:51.493,6 Dec 2013 23:33:23.301,691.808
33,7 Dec 2013 00:56:55.477,7 Dec 2013 01:10:42.105,826.629
34,7 Dec 2013 02:36:10.556,7 Dec 2013 02:51:32.634,922.078
35,7 Dec 2013 04:22:31.248,7 Dec 2013 04:36:10.453,819.205
36,7 Dec 2013 06:06:31.379,7 Dec 2013 06:22:01.432,930.054
37,7 Dec 2013 07:50:35.832,7 Dec 2013 08:01:25.796,649.964
38,7 Dec 2013 23:31:51.731,7 Dec 2013 23:45:42.103,830.373
39,8 Dec 2013 01:14:09.152,8 Dec 2013 01:29:23.381,914.229
40,8 Dec 2013 02:59:57.216,8 Dec 2013 03:14:26.163,868.947
41,8 Dec 2013 04:43:51.761,8 Dec 2013 04:59:25.306,933.544
42,8 Dec 2013 06:32:56.296,8 Dec 2013 06:34:18.681,82.385
43,8 Dec 2013 22:07:28.408,8 Dec 2013 22:22:51.637,923.229
44,8 Dec 2013 23:52:19.171,9 Dec 2013 00:05:19.144,779.973
45,9 Dec 2013 01:38:45.335,9 Dec 2013 01:51:37.498,772.163

"Access","Start Time (UTCG)","Stop Time (UTCG)","Duration (sec)"
1,3 Dec 2013 01:27:49.297,3 Dec 2013 01:39:47.179,717.881
2,3 Dec 2013 03:08:47.778,3 Dec 2013 03:24:20.460,932.682
3,3 Dec 2013 04:54:37.091,3 Dec 2013 05:08:55.394,858.303
4,3 Dec 2013 06:38:45.704,3 Dec 2013 06:54:23.269,937.565
5,3 Dec 2013 08:23:45.472,3 Dec 2013 08:33:22.210,576.739
6,4 Dec 2013 00:04:03.162,4 Dec 2013 00:18:20.569,857.407
7,4 Dec 2013 01:46:38.608,4 Dec 2013 02:01:30.578,891.971
8,4 Dec 2013 03:32:45.913,4 Dec 2013 03:46:40.053,834.140
9,4 Dec 2013 05:16:38.805,4 Dec 2013 05:32:16.579,937.774
10,4 Dec 2013 06:57:15.708,4 Dec 2013 07:09:10.564,714.856
11,4 Dec 2013 08:35:38.519,4 Dec 2013 08:42:36.930,418.411
12,4 Dec 2013 21:03:22.096,4 Dec 2013 21:09:49.038,386.942
13,4 Dec 2013 22:38:51.204,4 Dec 2013 22:54:11.683,920.479
14,5 Dec 2013 00:25:25.354,5 Dec 2013 00:35:25.131,599.777
15,5 Dec 2013 02:08:25.981,5 Dec 2013 02:18:43.477,617.496
16,5 Dec 2013 03:44:40.520,5 Dec 2013 03:58:03.389,802.869
17,5 Dec 2013 05:21:30.669,5 Dec 2013 05:35:49.832,859.164
18,5 Dec 2013 06:58:47.573,5 Dec 2013 07:13:23.861,876.288
19,5 Dec 2013 08:36:47.399,5 Dec 2013 08:51:31.745,884.346
20,5 Dec 2013 10:15:43.113,5 Dec 2013 10:30:35.971,892.859
21,5 Dec 2013 11:56:08.687,5 Dec 2013 12:09:11.319,782.632
22,5 Dec 2013 19:32:12.066,5 Dec 2013 19:46:04.467,832.401
23,5 Dec 2013 21:12:11.181,5 Dec 2013 21:26:15.992,844.812
24,5 Dec 2013 22:51:34.200,5 Dec 2013 23:05:39.916,845.716
25,6 Dec 2013 00:29:55.119,6 Dec 2013 00:44:04.425,849.305
26,6 Dec 2013 02:07:40.028,6 Dec 2013 02:21:37.982,837.954
27,6 Dec 2013 03:45:31.967,6 Dec 2013 03:58:41.762,789.795
28,6 Dec 2013 05:24:39.680,6 Dec 2013 05:35:22.657,642.978
29,6 Dec 2013 07:06:43.019,6 Dec 2013 07:17:33.628,650.609
30,6 Dec 2013 08:47:54.286,6 Dec 2013 09:03:15.429,921.143
31,6 Dec 2013 19:47:16.583,6 Dec 2013 19:51:59.092,282.509
32,6 Dec 2013 21:22:52.577,6 Dec 2013 21:31:05.082,492.505
33,6 Dec 2013 22:58:07.054,6 Dec 2013 23:08:59.658,652.604
34,7 Dec 2013 00:33:06.636,7 Dec 2013 00:46:24.900,798.264
35,7 Dec 2013 02:10:01.970,7 Dec 2013 02:25:40.342,938.372
36,7 Dec 2013 03:55:57.730,7 Dec 2013 04:09:42.935,825.205
37,7 Dec 2013 05:40:46.478,7 Dec 2013 05:55:52.246,905.768
38,7 Dec 2013 07:24:03.755,7 Dec 2013 07:37:40.194,816.438
39,7 Dec 2013 23:07:49.185,7 Dec 2013 23:19:07.339,678.154
40,8 Dec 2013 00:47:57.332,8 Dec 2013 01:03:31.538,934.205
41,8 Dec 2013 02:33:37.195,8 Dec 2013 02:47:54.818,857.622
42,8 Dec 2013 04:17:58.096,8 Dec 2013 04:33:35.811,937.715
43,8 Dec 2013 06:03:03.172,8 Dec 2013 06:13:33.565,630.392
44,8 Dec 2013 21:42:30.625,8 Dec 2013 21:57:10.314,879.688
45,8 Dec 2013 23:25:31.295,8 Dec 2013 23:39:33.179,841.884
46,9 Dec 2013 01:12:35.092,9 Dec 2013 01:24:36.976,721.884

