Raw and processed data/Altitude Variations/us_greatcircle_12sat_600km/Aircraft-B747LAX_Sydney-Transmitter-adsb_out6212-To-Satellite-600km_p1_1-Receiver-adsb_satrcvr2 Access.csv

"Access","Start Time (UTCG)","Stop Time (UTCG)","Duration (sec)"
1,3 Dec 2013 05:38:07.249,3 Dec 2013 05:53:05.618,898.370
2,3 Dec 2013 07:23:17.748,3 Dec 2013 07:34:51.156,693.409
3,3 Dec 2013 12:46:40.692,3 Dec 2013 12:59:02.992,742.301
4,3 Dec 2013 14:26:07.647,3 Dec 2013 14:40:06.993,839.346
5,3 Dec 2013 16:06:50.507,3 Dec 2013 16:19:04.079,733.572
6,3 Dec 2013 17:49:58.285,3 Dec 2013 17:56:47.733,409.448
7,4 Dec 2013 04:01:40.412,4 Dec 2013 04:09:26.634,466.222
8,4 Dec 2013 05:43:56.097,4 Dec 2013 05:58:55.388,899.290
9,4 Dec 2013 07:28:40.088,4 Dec 2013 07:40:43.530,723.441
10,4 Dec 2013 14:37:05.856,4 Dec 2013 14:52:03.339,897.483
11,5 Dec 2013 04:16:13.931,5 Dec 2013 04:25:57.321,583.389
12,5 Dec 2013 05:51:24.829,5 Dec 2013 06:05:24.275,839.445
13,5 Dec 2013 07:33:54.776,5 Dec 2013 07:47:18.155,803.379
14,5 Dec 2013 14:50:18.639,5 Dec 2013 15:03:25.718,787.079
15,5 Dec 2013 16:30:24.934,5 Dec 2013 16:40:13.932,588.998
16,6 Dec 2013 04:31:32.966,6 Dec 2013 04:44:46.246,793.280
17,6 Dec 2013 06:07:31.916,6 Dec 2013 06:21:52.699,860.783
18,6 Dec 2013 07:45:18.317,6 Dec 2013 07:56:26.846,668.529
19,6 Dec 2013 15:07:59.492,6 Dec 2013 15:11:26.423,206.930
20,6 Dec 2013 16:41:09.598,6 Dec 2013 16:55:18.779,849.180
21,7 Dec 2013 03:12:22.489,7 Dec 2013 03:24:00.742,698.253
22,7 Dec 2013 04:47:17.801,7 Dec 2013 05:01:46.000,868.199
23,7 Dec 2013 06:25:23.433,7 Dec 2013 06:36:18.510,655.077
24,7 Dec 2013 16:53:47.612,7 Dec 2013 17:08:27.881,880.269
25,8 Dec 2013 01:52:21.691,8 Dec 2013 02:03:57.251,695.559
26,8 Dec 2013 03:27:08.552,8 Dec 2013 03:41:34.836,866.284
27,8 Dec 2013 05:04:32.650,8 Dec 2013 05:17:19.473,766.823
28,8 Dec 2013 17:08:00.286,8 Dec 2013 17:19:57.128,716.843
29,8 Dec 2013 18:46:50.396,8 Dec 2013 18:58:24.539,694.143
30,9 Dec 2013 02:02:13.940,9 Dec 2013 02:16:31.750,857.810
31,9 Dec 2013 03:43:49.330,9 Dec 2013 03:57:37.523,828.192
32,9 Dec 2013 05:23:43.926,9 Dec 2013 05:32:26.957,523.031
33,9 Dec 2013 18:57:29.344,9 Dec 2013 19:12:20.191,890.846
34,10 Dec 2013 02:08:41.418,10 Dec 2013 02:22:01.946,800.528
35,10 Dec 2013 03:51:31.877,10 Dec 2013 04:06:02.689,870.813
36,10 Dec 2013 05:41:27.040,10 Dec 2013 05:48:39.192,432.151

"Access","Start Time (UTCG)","Stop Time (UTCG)","Duration (sec)"
1,3 Dec 2013 05:12:50.057,3 Dec 2013 05:26:22.316,812.259
2,3 Dec 2013 06:56:07.662,3 Dec 2013 07:10:11.520,843.858
3,3 Dec 2013 12:23:16.790,3 Dec 2013 12:31:17.332,480.542
4,3 Dec 2013 14:00:47.894,3 Dec 2013 14:15:25.420,877.526
5,3 Dec 2013 15:41:30.885,3 Dec 2013 15:54:22.181,771.297
6,3 Dec 2013 17:23:46.132,3 Dec 2013 17:32:39.617,533.485
7,4 Dec 2013 03:35:28.852,4 Dec 2013 03:41:55.355,386.503
8,4 Dec 2013 05:18:23.908,4 Dec 2013 05:32:11.944,828.036
9,4 Dec 2013 07:01:47.176,4 Dec 2013 07:16:08.505,861.330
10,4 Dec 2013 14:12:31.632,4 Dec 2013 14:26:56.723,865.092
11,4 Dec 2013 15:55:07.349,4 Dec 2013 16:01:16.769,369.420
12,5 Dec 2013 03:53:10.962,5 Dec 2013 04:00:07.689,416.727
13,5 Dec 2013 05:27:24.836,5 Dec 2013 05:40:51.334,806.499
14,5 Dec 2013 07:07:29.927,5 Dec 2013 07:22:28.094,898.167
15,5 Dec 2013 14:27:26.634,5 Dec 2013 14:36:33.412,546.778
16,5 Dec 2013 16:04:10.867,5 Dec 2013 16:17:32.248,801.381
17,6 Dec 2013 04:07:59.279,6 Dec 2013 04:19:57.316,718.037
18,6 Dec 2013 05:43:20.862,6 Dec 2013 05:57:51.468,870.606
19,6 Dec 2013 07:20:41.602,6 Dec 2013 07:33:02.615,741.014
20,6 Dec 2013 16:16:14.363,6 Dec 2013 16:31:04.057,889.694
21,7 Dec 2013 02:49:22.970,7 Dec 2013 02:58:54.037,571.067
22,7 Dec 2013 04:23:15.326,7 Dec 2013 04:37:37.155,861.828
23,7 Dec 2013 06:00:30.987,7 Dec 2013 06:13:03.639,752.652
24,7 Dec 2013 16:29:58.009,7 Dec 2013 16:43:09.652,791.643
25,7 Dec 2013 18:10:34.487,7 Dec 2013 18:19:27.148,532.660
26,8 Dec 2013 01:29:05.748,8 Dec 2013 01:39:14.063,608.315
27,8 Dec 2013 03:03:13.022,8 Dec 2013 03:17:19.925,846.903
28,8 Dec 2013 04:39:53.596,8 Dec 2013 04:53:37.588,823.992
29,8 Dec 2013 06:21:33.482,8 Dec 2013 06:25:33.493,240.011
30,8 Dec 2013 16:46:32.868,8 Dec 2013 16:52:35.763,362.896
31,8 Dec 2013 18:20:45.748,8 Dec 2013 18:34:52.282,846.534
32,9 Dec 2013 01:37:48.760,9 Dec 2013 01:49:47.188,718.428
33,9 Dec 2013 03:19:11.086,9 Dec 2013 03:33:35.012,863.926
34,9 Dec 2013 04:58:16.808,9 Dec 2013 05:09:05.505,648.696
35,9 Dec 2013 18:32:46.577,9 Dec 2013 18:47:31.521,884.945
36,10 Dec 2013 01:44:38.425,10 Dec 2013 01:54:35.862,597.437
37,10 Dec 2013 03:25:04.331,10 Dec 2013 03:40:26.359,922.028
38,10 Dec 2013 05:13:41.840,10 Dec 2013 05:22:38.930,537.090

"Access","Start Time (UTCG)","Stop Time (UTCG)","Duration (sec)"
1,3 Dec 2013 01:13:27.533,3 Dec 2013 01:22:04.824,517.291
2,3 Dec 2013 04:47:54.440,3 Dec 2013 04:58:54.948,660.508
3,3 Dec 2013 06:29:41.297,3 Dec 2013 06:44:57.332,916.035
4,3 Dec 2013 13:35:41.749,3 Dec 2013 13:50:46.418,904.669
5,3 Dec 2013 15:16:17.758,3 Dec 2013 15:29:38.068,800.310
6,3 Dec 2013 16:57:55.308,3 Dec 2013 17:08:15.391,620.083
7,4 Dec 2013 03:12:48.534,4 Dec 2013 03:14:56.272,127.739
8,4 Dec 2013 04:52:55.504,4 Dec 2013 05:04:58.588,723.084
9,4 Dec 2013 06:35:31.131,4 Dec 2013 06:50:54.196,923.066
10,4 Dec 2013 13:48:32.690,4 Dec 2013 14:00:54.868,742.178
11,4 Dec 2013 15:27:52.117,4 Dec 2013 15:39:45.584,713.467
12,5 Dec 2013 05:03:30.758,5 Dec 2013 05:16:08.549,757.792
13,5 Dec 2013 06:41:28.113,5 Dec 2013 06:57:02.130,934.017
14,5 Dec 2013 15:38:55.456,5 Dec 2013 15:53:39.532,884.076
15,6 Dec 2013 03:44:46.042,6 Dec 2013 03:54:45.798,599.756
16,6 Dec 2013 05:19:16.480,6 Dec 2013 05:33:40.775,864.295
17,6 Dec 2013 06:56:12.179,6 Dec 2013 07:09:28.369,796.190
18,6 Dec 2013 08:35:05.505,6 Dec 2013 08:42:34.280,448.775
19,6 Dec 2013 15:52:00.768,6 Dec 2013 16:06:03.772,843.004
20,6 Dec 2013 17:34:48.132,6 Dec 2013 17:39:44.856,296.724
21,7 Dec 2013 02:27:10.201,7 Dec 2013 02:33:03.398,353.197
22,7 Dec 2013 03:59:23.934,7 Dec 2013 04:13:17.631,833.697
23,7 Dec 2013 05:35:54.692,7 Dec 2013 05:49:30.747,816.055
24,7 Dec 2013 07:17:18.199,7 Dec 2013 07:20:30.265,192.066
25,7 Dec 2013 16:07:22.795,7 Dec 2013 16:16:42.088,559.294
26,7 Dec 2013 17:43:50.139,7 Dec 2013 17:56:52.666,782.528
27,8 Dec 2013 01:06:05.176,8 Dec 2013 01:14:17.935,492.760
28,8 Dec 2013 02:39:26.493,8 Dec 2013 02:52:58.913,812.419
29,8 Dec 2013 04:15:27.901,8 Dec 2013 04:29:44.735,856.835
30,8 Dec 2013 05:54:54.391,8 Dec 2013 06:03:45.879,531.488
31,8 Dec 2013 17:55:40.425,8 Dec 2013 18:10:32.746,892.322
32,9 Dec 2013 01:14:54.040,9 Dec 2013 01:21:37.674,403.633
33,9 Dec 2013 02:53:02.792,9 Dec 2013 03:08:38.599,935.807
34,9 Dec 2013 04:33:13.659,9 Dec 2013 04:45:25.569,731.910
35,9 Dec 2013 18:08:53.271,9 Dec 2013 18:22:10.740,797.469
36,9 Dec 2013 19:49:41.926,9 Dec 2013 20:00:09.102,627.176
37,10 Dec 2013 02:59:05.829,10 Dec 2013 03:14:39.118,933.289
38,10 Dec 2013 04:45:55.048,10 Dec 2013 04:57:02.356,667.307

"Access","Start Time (UTCG)","Stop Time (UTCG)","Duration (sec)"
1,3 Dec 2013 04:23:40.723,3 Dec 2013 04:30:14.692,393.968
2,3 Dec 2013 06:03:43.474,3 Dec 2013 06:19:15.584,932.110
3,3 Dec 2013 07:52:03.161,3 Dec 2013 07:58:14.287,371.126
4,3 Dec 2013 13:10:58.053,3 Dec 2013 13:25:21.504,863.451
5,3 Dec 2013 14:51:10.225,3 Dec 2013 15:04:52.732,822.507
6,3 Dec 2013 16:32:17.963,3 Dec 2013 16:43:42.449,684.486
7,3 Dec 2013 18:17:05.350,3 Dec 2013 18:20:06.770,181.420
8,4 Dec 2013 04:27:24.824,4 Dec 2013 04:37:18.826,594.002
9,4 Dec 2013 06:09:36.736,4 Dec 2013 06:25:09.261,932.525
10,4 Dec 2013 07:56:58.670,4 Dec 2013 08:03:57.982,419.313
11,4 Dec 2013 13:25:49.140,4 Dec 2013 13:33:13.276,444.136
12,4 Dec 2013 15:02:09.718,4 Dec 2013 15:16:22.497,852.779
13,5 Dec 2013 04:39:45.331,5 Dec 2013 04:51:12.562,687.231
14,5 Dec 2013 06:15:38.374,5 Dec 2013 06:31:06.682,928.309
15,5 Dec 2013 08:01:07.594,5 Dec 2013 08:11:12.256,604.662
16,5 Dec 2013 15:14:17.604,5 Dec 2013 15:28:57.885,880.282
17,6 Dec 2013 03:22:14.859,6 Dec 2013 03:28:50.339,395.480
18,6 Dec 2013 04:55:19.871,6 Dec 2013 05:09:19.629,839.758
19,6 Dec 2013 06:31:49.061,6 Dec 2013 06:45:44.966,835.905
20,6 Dec 2013 08:10:04.508,6 Dec 2013 08:19:39.068,574.560
21,6 Dec 2013 15:28:40.868,6 Dec 2013 15:40:06.159,685.291
22,6 Dec 2013 17:06:55.557,6 Dec 2013 17:18:38.147,702.590
23,7 Dec 2013 03:35:45.228,7 Dec 2013 03:48:46.393,781.165
24,7 Dec 2013 05:11:30.806,7 Dec 2013 05:25:44.167,853.361
25,7 Dec 2013 06:50:41.917,7 Dec 2013 06:59:04.857,502.940
26,7 Dec 2013 17:18:24.783,7 Dec 2013 17:33:02.584,877.801
27,8 Dec 2013 00:43:37.864,8 Dec 2013 00:48:56.168,318.305
28,8 Dec 2013 02:15:49.149,8 Dec 2013 02:28:31.609,762.460
29,8 Dec 2013 03:51:13.297,8 Dec 2013 04:05:43.355,870.058
30,8 Dec 2013 05:29:29.458,8 Dec 2013 05:40:45.772,676.314
31,8 Dec 2013 17:31:22.597,8 Dec 2013 17:45:36.921,854.325
32,8 Dec 2013 19:15:23.461,8 Dec 2013 19:19:42.618,259.157
33,9 Dec 2013 02:27:22.315,9 Dec 2013 02:42:43.627,921.312
34,9 Dec 2013 04:08:25.907,9 Dec 2013 04:21:35.043,789.136
35,9 Dec 2013 05:50:03.802,9 Dec 2013 05:55:01.878,298.076
36,9 Dec 2013 17:46:11.256,9 Dec 2013 17:55:56.618,585.362
37,9 Dec 2013 19:23:01.345,9 Dec 2013 19:36:38.118,816.774
38,10 Dec 2013 02:33:36.709,10 Dec 2013 02:48:34.577,897.868
39,10 Dec 2013 04:18:29.153,10 Dec 2013 04:31:32.970,783.817

"Access","Start Time (UTCG)","Stop Time (UTCG)","Duration (sec)"
1,3 Dec 2013 03:23:55.029,3 Dec 2013 03:36:26.408,751.379
2,3 Dec 2013 05:03:30.285,3 Dec 2013 05:14:39.130,668.845
3,3 Dec 2013 12:16:15.656,3 Dec 2013 12:31:15.913,900.257
4,3 Dec 2013 14:00:57.090,3 Dec 2013 14:14:30.209,813.119
5,3 Dec 2013 15:44:33.947,3 Dec 2013 15:48:26.096,232.149
6,4 Dec 2013 05:13:37.981,4 Dec 2013 05:28:29.675,891.693
7,4 Dec 2013 12:22:24.221,4 Dec 2013 12:37:00.137,875.916
8,4 Dec 2013 14:06:48.729,4 Dec 2013 14:20:02.709,793.980
9,5 Dec 2013 00:25:44.735,5 Dec 2013 00:36:01.449,616.714
10,5 Dec 2013 02:04:54.883,5 Dec 2013 02:18:41.506,826.623
11,5 Dec 2013 03:44:50.233,5 Dec 2013 03:59:46.548,896.315
12,5 Dec 2013 05:24:53.889,5 Dec 2013 05:39:55.829,901.941
13,5 Dec 2013 07:07:33.381,5 Dec 2013 07:18:42.088,668.706
14,5 Dec 2013 12:28:15.520,5 Dec 2013 12:42:43.810,868.290
15,5 Dec 2013 14:12:38.065,5 Dec 2013 14:25:29.178,771.113
16,5 Dec 2013 19:32:21.606,5 Dec 2013 19:46:15.074,833.467
17,5 Dec 2013 21:12:12.939,5 Dec 2013 21:26:41.037,868.098
18,5 Dec 2013 22:52:29.154,5 Dec 2013 23:07:33.281,904.126
19,6 Dec 2013 00:33:21.186,6 Dec 2013 00:48:12.869,891.684
20,6 Dec 2013 02:15:12.847,6 Dec 2013 02:28:18.418,785.571
21,6 Dec 2013 03:58:21.414,6 Dec 2013 04:07:49.690,568.276
22,6 Dec 2013 05:42:11.552,6 Dec 2013 05:47:10.579,299.027
23,6 Dec 2013 07:23:33.426,6 Dec 2013 07:28:18.954,285.529
24,6 Dec 2013 09:04:34.736,6 Dec 2013 09:09:04.143,269.407
25,6 Dec 2013 12:33:58.910,6 Dec 2013 12:48:31.037,872.127
26,6 Dec 2013 14:18:16.919,6 Dec 2013 14:31:05.777,768.858
27,6 Dec 2013 19:46:18.019,6 Dec 2013 19:54:00.336,462.317
28,6 Dec 2013 21:23:23.405,6 Dec 2013 21:37:54.330,870.926
29,6 Dec 2013 23:06:01.862,6 Dec 2013 23:14:18.622,496.760
30,7 Dec 2013 10:59:26.461,7 Dec 2013 11:06:33.025,426.564
31,7 Dec 2013 12:39:45.002,7 Dec 2013 12:54:20.099,875.097
32,7 Dec 2013 14:23:44.580,7 Dec 2013 14:37:09.950,805.370
33,7 Dec 2013 21:35:16.220,7 Dec 2013 21:49:46.208,869.988
34,7 Dec 2013 23:18:41.474,7 Dec 2013 23:22:56.392,254.919
35,8 Dec 2013 11:15:44.814,8 Dec 2013 11:25:47.225,602.412
36,8 Dec 2013 12:50:45.747,8 Dec 2013 13:04:59.363,853.616
37,8 Dec 2013 14:29:16.492,8 Dec 2013 14:43:46.591,870.098
38,8 Dec 2013 21:50:01.378,8 Dec 2013 21:59:55.022,593.644
39,8 Dec 2013 23:27:10.243,8 Dec 2013 23:40:06.113,775.871
40,9 Dec 2013 11:30:52.444,9 Dec 2013 11:44:26.834,814.390
41,9 Dec 2013 13:07:03.762,9 Dec 2013 13:21:08.476,844.714
42,9 Dec 2013 14:45:36.306,9 Dec 2013 14:54:46.281,549.975
43,9 Dec 2013 23:39:06.015,9 Dec 2013 23:53:54.551,888.536

"Access","Start Time (UTCG)","Stop Time (UTCG)","Duration (sec)"
1,3 Dec 2013 03:01:51.995,3 Dec 2013 03:09:39.543,467.548
2,3 Dec 2013 04:37:11.964,3 Dec 2013 04:51:07.895,835.931
3,3 Dec 2013 11:51:22.156,3 Dec 2013 12:04:48.995,806.839
4,3 Dec 2013 13:34:07.046,3 Dec 2013 13:48:48.958,881.912
5,3 Dec 2013 15:18:01.832,3 Dec 2013 15:25:50.246,468.414
6,4 Dec 2013 04:48:48.052,4 Dec 2013 05:03:39.056,891.004
7,4 Dec 2013 11:57:37.863,4 Dec 2013 12:10:11.868,754.004
8,4 Dec 2013 13:39:56.187,4 Dec 2013 13:54:39.353,883.166
9,4 Dec 2013 15:31:40.381,4 Dec 2013 15:34:53.856,193.475
10,5 Dec 2013 00:01:11.602,5 Dec 2013 00:09:56.393,524.791
11,5 Dec 2013 01:40:01.455,5 Dec 2013 01:53:12.805,791.351
12,5 Dec 2013 03:19:49.226,5 Dec 2013 03:34:36.473,887.247
13,5 Dec 2013 04:59:54.166,5 Dec 2013 05:14:57.750,903.583
14,5 Dec 2013 06:40:42.284,5 Dec 2013 06:54:27.862,825.577
15,5 Dec 2013 12:03:19.653,5 Dec 2013 12:15:45.146,745.493
16,5 Dec 2013 13:45:44.618,5 Dec 2013 14:00:24.206,879.587
17,5 Dec 2013 19:07:42.963,5 Dec 2013 19:20:35.912,772.948
18,5 Dec 2013 20:47:12.735,5 Dec 2013 21:01:30.514,857.779
19,5 Dec 2013 22:27:22.503,5 Dec 2013 22:42:20.053,897.551
20,6 Dec 2013 00:08:03.601,6 Dec 2013 00:23:05.734,902.133
21,6 Dec 2013 01:49:38.009,6 Dec 2013 02:03:20.534,822.526
22,6 Dec 2013 03:32:27.347,6 Dec 2013 03:42:59.440,632.093
23,6 Dec 2013 05:16:16.857,6 Dec 2013 05:22:17.618,360.760
24,6 Dec 2013 06:58:37.900,6 Dec 2013 07:02:45.964,248.064
25,6 Dec 2013 08:37:32.426,6 Dec 2013 08:44:54.943,442.517
26,6 Dec 2013 12:08:43.552,6 Dec 2013 12:21:32.594,769.043
27,6 Dec 2013 13:51:30.237,6 Dec 2013 14:06:12.849,882.612
28,6 Dec 2013 20:58:18.603,6 Dec 2013 21:13:21.229,902.626
29,6 Dec 2013 22:40:26.940,6 Dec 2013 22:50:01.855,574.914
30,7 Dec 2013 10:36:45.154,7 Dec 2013 10:39:56.467,191.313
31,7 Dec 2013 12:14:09.212,7 Dec 2013 12:27:25.824,796.612
32,7 Dec 2013 13:57:15.093,7 Dec 2013 14:12:14.994,899.902
33,7 Dec 2013 21:11:18.348,7 Dec 2013 21:23:53.181,754.833
34,7 Dec 2013 22:50:46.191,7 Dec 2013 23:02:08.424,682.234
35,8 Dec 2013 10:52:48.385,8 Dec 2013 10:59:58.943,430.557
36,8 Dec 2013 12:26:46.744,8 Dec 2013 12:40:31.113,824.369
37,8 Dec 2013 14:03:09.057,8 Dec 2013 14:18:34.645,925.588
38,8 Dec 2013 23:01:47.355,8 Dec 2013 23:16:23.298,875.944
39,9 Dec 2013 11:07:16.161,9 Dec 2013 11:19:45.437,749.276
40,9 Dec 2013 12:42:48.323,9 Dec 2013 12:57:14.019,865.696
41,9 Dec 2013 14:20:40.242,9 Dec 2013 14:31:44.511,664.270
42,9 Dec 2013 23:14:45.532,9 Dec 2013 23:29:03.371,857.839

"Access","Start Time (UTCG)","Stop Time (UTCG)","Duration (sec)"
1,3 Dec 2013 04:11:56.657,3 Dec 2013 04:26:49.555,892.897
2,3 Dec 2013 11:27:22.369,3 Dec 2013 11:37:33.139,610.770
3,3 Dec 2013 13:07:41.932,3 Dec 2013 13:23:07.027,925.095
4,3 Dec 2013 14:52:27.836,3 Dec 2013 15:02:23.788,595.953
5,4 Dec 2013 04:24:46.465,4 Dec 2013 04:38:19.624,813.159
6,4 Dec 2013 06:06:03.579,4 Dec 2013 06:16:33.129,629.550
7,4 Dec 2013 11:33:53.931,4 Dec 2013 11:42:12.860,498.930
8,4 Dec 2013 13:13:36.124,4 Dec 2013 13:29:04.146,928.022
9,4 Dec 2013 15:02:30.086,4 Dec 2013 15:10:18.611,468.525
10,4 Dec 2013 16:51:56.086,4 Dec 2013 16:56:31.126,275.040
11,4 Dec 2013 23:36:51.079,4 Dec 2013 23:43:33.526,402.446
12,5 Dec 2013 01:15:11.353,5 Dec 2013 01:27:37.464,746.111
13,5 Dec 2013 02:54:49.308,5 Dec 2013 03:09:22.629,873.321
14,5 Dec 2013 04:34:53.271,5 Dec 2013 04:49:56.932,903.661
15,5 Dec 2013 06:14:49.839,5 Dec 2013 06:29:47.086,897.248
16,5 Dec 2013 11:39:10.093,5 Dec 2013 11:47:39.734,509.641
17,5 Dec 2013 13:19:27.731,5 Dec 2013 13:34:55.635,927.904
18,5 Dec 2013 18:43:33.208,5 Dec 2013 18:53:10.136,576.928
19,5 Dec 2013 20:22:14.009,5 Dec 2013 20:36:22.328,848.319
20,5 Dec 2013 22:02:17.717,5 Dec 2013 22:17:06.498,888.781
21,5 Dec 2013 23:42:49.339,5 Dec 2013 23:57:56.557,907.218
22,6 Dec 2013 01:24:08.005,6 Dec 2013 01:38:20.326,852.321
23,6 Dec 2013 03:06:37.606,6 Dec 2013 03:18:07.679,690.073
24,6 Dec 2013 04:50:18.099,6 Dec 2013 04:57:27.789,429.690
25,6 Dec 2013 06:33:26.752,6 Dec 2013 06:37:21.647,234.895
26,6 Dec 2013 08:12:57.603,6 Dec 2013 08:19:27.068,389.465
27,6 Dec 2013 11:43:45.788,6 Dec 2013 11:53:49.421,603.634
28,6 Dec 2013 13:25:18.331,6 Dec 2013 13:40:47.742,929.412
29,6 Dec 2013 20:33:38.384,6 Dec 2013 20:48:01.604,863.220
30,6 Dec 2013 22:15:04.858,6 Dec 2013 22:25:37.510,632.651
31,6 Dec 2013 23:58:45.414,7 Dec 2013 00:01:34.742,169.328
32,7 Dec 2013 11:48:30.203,7 Dec 2013 12:00:07.951,697.747
33,7 Dec 2013 13:31:11.818,7 Dec 2013 13:46:45.717,933.899
34,7 Dec 2013 20:48:34.096,7 Dec 2013 20:56:25.536,471.441
35,7 Dec 2013 22:24:56.807,7 Dec 2013 22:38:56.488,839.681
36,8 Dec 2013 12:02:54.502,8 Dec 2013 12:15:52.359,777.857
37,8 Dec 2013 13:38:57.824,8 Dec 2013 13:53:32.301,874.478
38,8 Dec 2013 15:23:37.215,8 Dec 2013 15:31:30.381,473.166
39,8 Dec 2013 22:37:05.185,8 Dec 2013 22:51:50.306,885.121
40,9 Dec 2013 10:43:58.283,9 Dec 2013 10:54:44.616,646.332
41,9 Dec 2013 12:18:40.684,9 Dec 2013 12:33:09.325,868.641
42,9 Dec 2013 13:55:58.515,9 Dec 2013 14:08:25.138,746.623
43,9 Dec 2013 22:51:15.813,9 Dec 2013 23:03:20.153,724.340
44,10 Dec 2013 00:30:10.393,10 Dec 2013 00:41:07.410,657.017

"Access","Start Time (UTCG)","Stop Time (UTCG)","Duration (sec)"
1,3 Dec 2013 03:47:29.495,3 Dec 2013 04:01:57.295,867.800
2,3 Dec 2013 05:33:01.671,3 Dec 2013 05:35:16.818,135.146
3,3 Dec 2013 12:41:44.094,3 Dec 2013 12:57:18.324,934.230
4,3 Dec 2013 14:27:17.875,3 Dec 2013 14:38:39.720,681.846
5,4 Dec 2013 04:01:50.718,4 Dec 2013 04:12:14.018,623.300
6,4 Dec 2013 05:39:16.959,4 Dec 2013 05:52:52.566,815.607
7,4 Dec 2013 12:47:45.543,4 Dec 2013 13:03:13.280,927.737
8,4 Dec 2013 14:34:18.232,4 Dec 2013 14:45:16.093,657.861
9,4 Dec 2013 23:13:03.802,4 Dec 2013 23:16:31.879,208.077
10,5 Dec 2013 00:50:25.379,5 Dec 2013 01:01:54.240,688.861
11,5 Dec 2013 02:29:51.017,5 Dec 2013 02:44:04.523,853.506
12,5 Dec 2013 04:09:51.775,5 Dec 2013 04:24:53.269,901.494
13,5 Dec 2013 05:49:51.941,5 Dec 2013 06:04:51.232,899.291
14,5 Dec 2013 07:36:17.685,5 Dec 2013 07:41:43.065,325.380
15,5 Dec 2013 12:53:39.074,5 Dec 2013 13:09:03.718,924.644
16,5 Dec 2013 14:40:27.425,5 Dec 2013 14:50:00.191,572.766
17,5 Dec 2013 19:57:16.895,5 Dec 2013 20:11:17.035,840.140
18,5 Dec 2013 21:37:14.580,5 Dec 2013 21:51:53.263,878.683
19,5 Dec 2013 23:17:37.985,5 Dec 2013 23:32:45.610,907.625
20,6 Dec 2013 00:58:42.518,6 Dec 2013 01:13:17.767,875.249
21,6 Dec 2013 02:40:52.698,6 Dec 2013 02:53:14.076,741.378
22,6 Dec 2013 04:24:18.841,6 Dec 2013 04:32:38.889,500.048
23,6 Dec 2013 06:07:56.931,6 Dec 2013 06:12:10.382,253.451
24,6 Dec 2013 07:48:18.682,6 Dec 2013 07:53:54.199,335.517
25,6 Dec 2013 11:19:24.739,6 Dec 2013 11:24:56.014,331.275
26,6 Dec 2013 12:59:29.766,6 Dec 2013 13:14:54.347,924.581
27,6 Dec 2013 14:46:08.090,6 Dec 2013 14:55:05.360,537.270
28,6 Dec 2013 20:09:27.446,6 Dec 2013 20:21:47.387,739.941
29,6 Dec 2013 21:48:59.356,6 Dec 2013 22:01:35.602,756.247
30,6 Dec 2013 23:31:57.133,6 Dec 2013 23:38:20.393,383.259
31,7 Dec 2013 11:22:58.865,7 Dec 2013 11:32:37.568,578.703
32,7 Dec 2013 13:05:24.011,7 Dec 2013 13:20:47.023,923.012
33,7 Dec 2013 14:51:04.933,7 Dec 2013 15:01:12.240,607.307
34,7 Dec 2013 21:59:50.616,7 Dec 2013 22:14:45.232,894.616
35,8 Dec 2013 11:39:11.953,8 Dec 2013 11:50:59.781,707.828
36,8 Dec 2013 13:14:49.811,8 Dec 2013 13:29:19.248,869.437
37,8 Dec 2013 14:55:52.366,8 Dec 2013 15:08:17.247,744.881
38,8 Dec 2013 22:13:02.400,8 Dec 2013 22:26:28.618,806.218
39,8 Dec 2013 23:53:43.571,9 Dec 2013 00:02:27.728,524.157
40,9 Dec 2013 10:21:13.049,9 Dec 2013 10:29:10.596,477.546
41,9 Dec 2013 11:54:41.558,9 Dec 2013 12:08:53.985,852.427
42,9 Dec 2013 13:31:26.945,9 Dec 2013 13:44:52.478,805.533
43,9 Dec 2013 15:10:59.207,9 Dec 2013 15:17:17.900,378.693
44,9 Dec 2013 22:29:37.988,9 Dec 2013 22:35:44.287,366.299
45,10 Dec 2013 00:04:09.558,10 Dec 2013 00:18:00.882,831.324

"Access","Start Time (UTCG)","Stop Time (UTCG)","Duration (sec)"
1,3 Dec 2013 08:06:06.822,3 Dec 2013 08:16:48.726,641.904
2,3 Dec 2013 09:43:45.979,3 Dec 2013 09:56:06.862,740.882
3,3 Dec 2013 20:13:20.038,3 Dec 2013 20:24:02.340,642.302
4,3 Dec 2013 21:47:51.554,3 Dec 2013 22:02:19.664,868.111
5,3 Dec 2013 23:25:25.364,3 Dec 2013 23:37:20.678,715.314
6,4 Dec 2013 09:55:30.065,4 Dec 2013 10:10:14.334,884.269
7,4 Dec 2013 18:53:52.122,4 Dec 2013 19:03:47.409,595.288
8,4 Dec 2013 20:27:49.898,4 Dec 2013 20:42:04.799,854.901
9,4 Dec 2013 22:04:49.235,4 Dec 2013 22:18:01.092,791.857
10,5 Dec 2013 10:08:43.326,5 Dec 2013 10:22:41.750,838.425
11,5 Dec 2013 11:51:28.889,5 Dec 2013 11:57:34.609,365.720
12,5 Dec 2013 19:05:56.579,5 Dec 2013 19:21:00.172,903.593
13,5 Dec 2013 20:44:12.356,5 Dec 2013 20:58:16.260,843.904
14,5 Dec 2013 22:23:52.742,5 Dec 2013 22:32:54.285,541.543
15,6 Dec 2013 10:23:58.905,6 Dec 2013 10:32:53.335,534.430
16,6 Dec 2013 12:00:07.478,6 Dec 2013 12:13:53.076,825.598
17,6 Dec 2013 19:12:25.266,6 Dec 2013 19:26:44.476,859.210
18,6 Dec 2013 20:56:12.644,6 Dec 2013 21:10:14.813,842.170
19,6 Dec 2013 22:43:26.022,6 Dec 2013 22:49:06.861,340.840
20,7 Dec 2013 10:35:12.004,7 Dec 2013 10:43:40.060,508.056
21,7 Dec 2013 12:11:22.403,7 Dec 2013 12:26:18.147,895.744
22,7 Dec 2013 19:18:29.285,7 Dec 2013 19:32:21.291,832.006
23,7 Dec 2013 21:02:02.104,7 Dec 2013 21:15:53.466,831.362
24,8 Dec 2013 00:39:46.729,8 Dec 2013 00:47:00.457,433.728
25,8 Dec 2013 02:22:00.867,8 Dec 2013 02:25:20.971,200.103
26,8 Dec 2013 04:02:49.987,8 Dec 2013 04:07:17.539,267.552
27,8 Dec 2013 05:41:54.151,8 Dec 2013 05:51:28.496,574.345
28,8 Dec 2013 07:21:23.345,8 Dec 2013 07:34:36.366,793.021
29,8 Dec 2013 09:01:29.594,8 Dec 2013 09:16:23.601,894.007
30,8 Dec 2013 10:42:08.705,8 Dec 2013 10:57:11.992,903.286
31,8 Dec 2013 12:22:56.481,8 Dec 2013 12:37:25.160,868.679
32,8 Dec 2013 14:03:14.439,8 Dec 2013 14:17:06.117,831.678
33,8 Dec 2013 19:24:13.198,8 Dec 2013 19:38:03.027,829.829
34,8 Dec 2013 21:07:48.543,8 Dec 2013 21:21:29.741,821.197
35,9 Dec 2013 02:30:25.697,9 Dec 2013 02:43:08.040,762.343
36,9 Dec 2013 04:09:38.652,9 Dec 2013 04:24:41.100,902.447
37,9 Dec 2013 05:49:53.220,9 Dec 2013 06:04:49.028,895.808
38,9 Dec 2013 07:31:04.328,9 Dec 2013 07:44:45.107,820.779
39,9 Dec 2013 09:13:52.823,9 Dec 2013 09:23:53.719,600.895
40,9 Dec 2013 19:29:50.092,9 Dec 2013 19:43:50.786,840.694
41,9 Dec 2013 21:13:27.803,9 Dec 2013 21:27:17.401,829.598
42,10 Dec 2013 04:20:57.961,10 Dec 2013 04:35:58.522,900.561

"Access","Start Time (UTCG)","Stop Time (UTCG)","Duration (sec)"
1,3 Dec 2013 09:18:12.231,3 Dec 2013 09:32:35.839,863.608
2,3 Dec 2013 19:50:39.298,3 Dec 2013 19:58:32.830,473.532
3,3 Dec 2013 21:23:53.451,3 Dec 2013 21:38:05.557,852.106
4,3 Dec 2013 23:00:45.417,3 Dec 2013 23:13:55.029,789.611
5,4 Dec 2013 09:31:01.189,4 Dec 2013 09:45:32.386,871.197
6,4 Dec 2013 18:31:08.025,4 Dec 2013 18:38:35.743,447.717
7,4 Dec 2013 20:04:01.904,4 Dec 2013 20:17:44.523,822.620
8,4 Dec 2013 21:40:16.843,4 Dec 2013 21:54:16.859,840.015
9,4 Dec 2013 23:20:47.584,4 Dec 2013 23:26:57.839,370.255
10,5 Dec 2013 09:45:33.761,5 Dec 2013 09:56:50.731,676.970
11,5 Dec 2013 11:23:40.021,5 Dec 2013 11:35:43.838,723.817
12,5 Dec 2013 18:41:04.227,5 Dec 2013 18:54:40.608,816.380
13,5 Dec 2013 20:19:49.491,5 Dec 2013 20:34:14.214,864.723
14,5 Dec 2013 21:58:28.192,5 Dec 2013 22:09:37.610,669.418
15,6 Dec 2013 11:34:43.552,6 Dec 2013 11:49:35.608,892.056
16,6 Dec 2013 18:47:54.094,6 Dec 2013 18:59:53.381,719.287
17,6 Dec 2013 20:29:32.800,6 Dec 2013 20:44:37.721,904.921
18,6 Dec 2013 22:17:29.719,6 Dec 2013 22:25:50.370,500.651
19,7 Dec 2013 10:11:07.160,7 Dec 2013 10:17:50.985,403.824
20,7 Dec 2013 11:47:13.669,7 Dec 2013 12:00:59.665,825.996
21,7 Dec 2013 13:28:55.399,7 Dec 2013 13:39:24.000,628.601
22,7 Dec 2013 18:53:59.990,7 Dec 2013 19:05:06.703,666.713
23,7 Dec 2013 20:35:23.341,7 Dec 2013 20:50:29.583,906.241
24,7 Dec 2013 22:27:57.459,7 Dec 2013 22:28:51.736,54.278
25,8 Dec 2013 01:56:16.989,8 Dec 2013 02:00:39.263,262.274
26,8 Dec 2013 03:38:00.957,8 Dec 2013 03:41:18.542,197.585
27,8 Dec 2013 05:17:06.775,8 Dec 2013 05:25:29.174,502.399
28,8 Dec 2013 06:56:27.739,8 Dec 2013 07:08:57.383,749.645
29,8 Dec 2013 08:36:24.499,8 Dec 2013 08:51:03.371,878.872
30,8 Dec 2013 10:16:56.785,8 Dec 2013 10:32:03.962,907.177
31,8 Dec 2013 11:57:45.815,8 Dec 2013 12:12:24.334,878.519
32,8 Dec 2013 13:38:14.472,8 Dec 2013 13:52:17.943,843.471
33,8 Dec 2013 18:59:24.425,8 Dec 2013 19:10:43.311,678.886
34,8 Dec 2013 20:41:12.446,8 Dec 2013 20:56:17.994,905.548
35,9 Dec 2013 02:06:33.032,9 Dec 2013 02:15:36.037,543.005
36,9 Dec 2013 03:44:41.820,9 Dec 2013 03:59:41.433,899.613
37,9 Dec 2013 05:24:45.185,9 Dec 2013 05:39:46.778,901.594
38,9 Dec 2013 07:05:39.619,9 Dec 2013 07:19:49.059,849.440
39,9 Dec 2013 08:47:57.634,9 Dec 2013 08:59:13.638,676.003
40,9 Dec 2013 10:33:39.411,9 Dec 2013 10:36:23.077,163.666
41,9 Dec 2013 19:04:32.815,9 Dec 2013 19:16:38.800,725.985
42,9 Dec 2013 20:47:00.354,9 Dec 2013 21:02:10.970,910.616
43,10 Dec 2013 03:56:20.248,10 Dec 2013 04:10:44.926,864.677
44,10 Dec 2013 05:38:34.386,10 Dec 2013 05:45:55.664,441.278

"Access","Start Time (UTCG)","Stop Time (UTCG)","Duration (sec)"
1,3 Dec 2013 01:40:02.737,3 Dec 2013 01:43:26.706,203.969
2,3 Dec 2013 08:53:24.128,3 Dec 2013 09:08:12.560,888.432
3,3 Dec 2013 21:00:06.640,3 Dec 2013 21:13:39.783,813.143
4,3 Dec 2013 22:36:17.444,3 Dec 2013 22:50:14.994,837.550
5,4 Dec 2013 00:15:46.883,4 Dec 2013 00:23:01.206,434.323
6,4 Dec 2013 09:07:21.133,4 Dec 2013 09:20:03.555,762.422
7,4 Dec 2013 10:47:06.516,4 Dec 2013 10:57:03.072,596.556
8,4 Dec 2013 18:09:33.311,4 Dec 2013 18:12:18.065,164.754
9,4 Dec 2013 19:40:24.947,4 Dec 2013 19:53:16.056,771.109
10,4 Dec 2013 21:15:57.049,4 Dec 2013 21:30:21.603,864.554
11,4 Dec 2013 22:54:48.868,4 Dec 2013 23:04:37.778,588.911
12,5 Dec 2013 09:25:08.502,5 Dec 2013 09:28:27.183,198.682
13,5 Dec 2013 10:57:48.454,5 Dec 2013 11:12:06.507,858.053
14,5 Dec 2013 18:17:05.076,5 Dec 2013 18:27:38.669,633.593
15,5 Dec 2013 19:55:34.132,5 Dec 2013 20:10:07.743,873.612
16,5 Dec 2013 21:33:28.337,5 Dec 2013 21:46:00.935,752.598
17,6 Dec 2013 11:10:08.361,6 Dec 2013 11:24:45.769,877.408
18,6 Dec 2013 18:24:48.890,6 Dec 2013 18:31:34.625,405.735
19,6 Dec 2013 20:03:20.797,6 Dec 2013 20:18:54.640,933.843
20,6 Dec 2013 21:50:43.320,6 Dec 2013 22:01:36.123,652.804
21,7 Dec 2013 09:47:37.171,7 Dec 2013 09:51:21.516,224.346
22,7 Dec 2013 11:23:54.156,7 Dec 2013 11:34:59.920,665.764
23,7 Dec 2013 13:02:03.530,7 Dec 2013 13:15:36.637,813.108
24,7 Dec 2013 18:31:16.825,7 Dec 2013 18:35:49.773,272.947
25,7 Dec 2013 20:09:16.435,7 Dec 2013 20:24:49.634,933.199
26,7 Dec 2013 21:57:28.267,7 Dec 2013 22:05:49.477,501.211
27,8 Dec 2013 01:30:35.831,8 Dec 2013 01:36:03.394,327.563
28,8 Dec 2013 03:13:01.157,8 Dec 2013 03:15:33.664,152.507
29,8 Dec 2013 04:52:20.806,8 Dec 2013 04:59:26.351,425.545
30,8 Dec 2013 06:31:34.432,8 Dec 2013 06:43:13.031,698.599
31,8 Dec 2013 08:11:21.714,8 Dec 2013 08:25:39.022,857.309
32,8 Dec 2013 09:51:46.022,8 Dec 2013 10:06:53.474,907.451
33,8 Dec 2013 11:32:33.846,8 Dec 2013 11:47:21.946,888.100
34,8 Dec 2013 13:13:11.347,8 Dec 2013 13:27:22.086,850.739
35,8 Dec 2013 14:58:25.730,8 Dec 2013 15:05:07.141,401.412
36,8 Dec 2013 18:35:32.489,8 Dec 2013 18:41:59.640,387.150
37,8 Dec 2013 20:15:08.355,8 Dec 2013 20:30:41.036,932.681
38,8 Dec 2013 22:04:22.807,8 Dec 2013 22:09:27.631,304.823
39,9 Dec 2013 03:19:47.038,9 Dec 2013 03:34:43.735,896.697
40,9 Dec 2013 04:59:40.220,9 Dec 2013 05:14:44.326,904.105
41,9 Dec 2013 06:40:19.945,9 Dec 2013 06:54:50.695,870.750
42,9 Dec 2013 08:22:12.228,9 Dec 2013 08:34:28.091,735.863
43,9 Dec 2013 10:06:26.952,9 Dec 2013 10:12:44.883,377.931
44,9 Dec 2013 18:39:26.152,9 Dec 2013 18:48:46.377,560.225
45,9 Dec 2013 20:21:00.124,9 Dec 2013 20:36:33.810,933.686
46,9 Dec 2013 22:10:11.723,9 Dec 2013 22:14:02.316,230.593
47,10 Dec 2013 03:32:14.311,10 Dec 2013 03:44:36.420,742.109
48,10 Dec 2013 05:11:40.979,10 Dec 2013 05:23:58.066,737.087

"Access","Start Time (UTCG)","Stop Time (UTCG)","Duration (sec)"
1,3 Dec 2013 01:10:53.297,3 Dec 2013 01:21:52.329,659.032
2,3 Dec 2013 08:29:16.695,3 Dec 2013 08:43:02.512,825.816
3,3 Dec 2013 10:10:51.707,3 Dec 2013 10:17:57.845,426.137
4,3 Dec 2013 20:36:33.721,3 Dec 2013 20:49:00.300,746.579
5,3 Dec 2013 22:11:59.666,3 Dec 2013 22:26:22.861,863.196
6,3 Dec 2013 23:50:21.664,4 Dec 2013 00:00:27.092,605.428
7,4 Dec 2013 08:45:08.588,4 Dec 2013 08:53:10.091,481.503
8,4 Dec 2013 10:20:44.574,4 Dec 2013 10:34:11.997,807.422
9,4 Dec 2013 19:17:00.576,4 Dec 2013 19:28:38.065,697.489
10,4 Dec 2013 20:51:48.286,4 Dec 2013 21:06:17.252,868.966
11,4 Dec 2013 22:29:37.461,4 Dec 2013 22:41:30.661,713.200
12,5 Dec 2013 10:32:52.324,5 Dec 2013 10:47:43.135,890.811
13,5 Dec 2013 19:31:24.299,5 Dec 2013 19:45:57.712,873.413
14,5 Dec 2013 21:08:44.459,5 Dec 2013 21:22:12.539,808.080
15,5 Dec 2013 22:50:11.667,5 Dec 2013 22:55:21.720,310.053
16,6 Dec 2013 10:46:23.991,6 Dec 2013 10:59:20.824,776.833
17,6 Dec 2013 12:26:37.601,6 Dec 2013 12:37:23.109,645.508
18,6 Dec 2013 19:37:37.407,6 Dec 2013 19:52:59.657,922.250
19,6 Dec 2013 21:23:18.402,6 Dec 2013 21:35:51.725,753.322
20,7 Dec 2013 10:59:29.752,7 Dec 2013 11:09:10.848,581.096
21,7 Dec 2013 12:36:18.554,7 Dec 2013 12:51:10.189,891.635
22,7 Dec 2013 19:43:38.127,7 Dec 2013 19:58:49.600,911.473
23,7 Dec 2013 21:29:19.463,7 Dec 2013 21:41:02.013,702.550
24,8 Dec 2013 01:05:00.478,8 Dec 2013 01:11:30.827,390.348
25,8 Dec 2013 02:47:39.986,8 Dec 2013 02:50:15.115,155.129
26,8 Dec 2013 04:27:35.619,8 Dec 2013 04:33:21.636,346.017
27,8 Dec 2013 06:06:43.289,8 Dec 2013 06:17:23.316,640.028
28,8 Dec 2013 07:46:21.327,8 Dec 2013 08:00:10.147,828.820
29,8 Dec 2013 09:26:36.844,8 Dec 2013 09:41:40.158,903.314
30,8 Dec 2013 11:07:21.260,8 Dec 2013 11:22:17.900,896.640
31,8 Dec 2013 12:48:05.189,8 Dec 2013 13:02:24.435,859.246
32,8 Dec 2013 14:30:04.587,8 Dec 2013 14:41:31.751,687.164
33,8 Dec 2013 19:49:29.301,8 Dec 2013 20:04:37.974,908.673
34,8 Dec 2013 21:35:12.391,8 Dec 2013 21:46:09.186,656.795
35,9 Dec 2013 02:54:55.812,9 Dec 2013 03:09:26.874,871.063
36,9 Dec 2013 04:34:38.097,9 Dec 2013 04:49:42.244,904.147
37,9 Dec 2013 06:15:04.659,9 Dec 2013 06:29:50.513,885.854
38,9 Dec 2013 07:56:34.870,9 Dec 2013 08:09:38.321,783.451
39,9 Dec 2013 09:40:00.573,9 Dec 2013 09:48:26.026,505.453
40,9 Dec 2013 16:28:28.701,9 Dec 2013 16:32:18.247,229.545
41,9 Dec 2013 18:14:36.684,9 Dec 2013 18:20:04.366,327.682
42,9 Dec 2013 19:55:18.325,9 Dec 2013 20:10:27.752,909.427
43,9 Dec 2013 21:40:41.647,9 Dec 2013 21:51:41.459,659.812
44,10 Dec 2013 03:09:15.474,10 Dec 2013 03:16:52.284,456.809
45,10 Dec 2013 04:46:02.365,10 Dec 2013 05:00:25.133,862.768

