Raw and processed data/Inclination variations/us_greatcircle_12sat_80deg/Aircraft-B747LAX_Heathrow-Transmitter-adsb_out6-To-Satellite-700km_80deg_p1_1-Receiver-adsb_satrcvr2 Access.csv

"Access","Start Time (UTCG)","Stop Time (UTCG)","Duration (sec)"
1,3 Dec 2013 01:21:17.191,3 Dec 2013 01:28:20.931,423.739
2,3 Dec 2013 02:58:04.431,3 Dec 2013 03:10:08.453,724.021
3,3 Dec 2013 04:36:02.026,3 Dec 2013 04:48:55.716,773.691
4,3 Dec 2013 06:15:23.654,3 Dec 2013 06:26:39.777,676.123
5,3 Dec 2013 07:59:52.287,3 Dec 2013 08:01:49.829,117.543
6,3 Dec 2013 11:26:31.572,3 Dec 2013 11:30:17.544,225.972
7,3 Dec 2013 12:59:58.239,3 Dec 2013 13:15:45.319,947.080
8,3 Dec 2013 14:39:33.127,3 Dec 2013 14:48:23.196,530.069
9,3 Dec 2013 19:16:21.307,3 Dec 2013 19:30:35.682,854.375
10,3 Dec 2013 20:54:28.009,3 Dec 2013 21:10:33.701,965.693
11,3 Dec 2013 22:35:12.401,3 Dec 2013 22:51:12.149,959.748
12,4 Dec 2013 00:14:19.443,4 Dec 2013 00:30:10.650,951.207
13,4 Dec 2013 01:52:13.831,4 Dec 2013 02:07:52.831,939.000
14,4 Dec 2013 03:29:57.883,4 Dec 2013 03:44:49.476,891.593
15,4 Dec 2013 05:09:48.698,4 Dec 2013 05:20:13.696,624.998
16,4 Dec 2013 08:45:21.218,4 Dec 2013 08:49:05.372,224.154
17,4 Dec 2013 10:22:08.758,4 Dec 2013 10:38:04.867,956.108
18,4 Dec 2013 12:02:24.806,4 Dec 2013 12:14:28.023,723.217
19,4 Dec 2013 18:26:50.349,4 Dec 2013 18:33:36.270,405.921
20,4 Dec 2013 20:07:00.642,4 Dec 2013 20:11:52.370,291.727
21,5 Dec 2013 00:54:05.919,5 Dec 2013 01:02:51.855,525.935
22,5 Dec 2013 02:29:27.158,5 Dec 2013 02:45:50.045,982.887
23,5 Dec 2013 04:14:55.301,5 Dec 2013 04:29:05.376,850.076
24,5 Dec 2013 06:03:07.499,5 Dec 2013 06:15:19.641,732.142
25,5 Dec 2013 07:46:04.202,5 Dec 2013 08:02:20.072,975.870
26,5 Dec 2013 09:28:21.297,5 Dec 2013 09:41:11.768,770.471
27,6 Dec 2013 00:00:23.218,6 Dec 2013 00:13:02.833,759.615
28,6 Dec 2013 01:40:12.054,6 Dec 2013 01:56:41.825,989.772
29,6 Dec 2013 03:26:51.868,6 Dec 2013 03:40:55.960,844.092
30,6 Dec 2013 05:12:09.355,6 Dec 2013 05:28:06.680,957.324
31,6 Dec 2013 06:55:33.129,6 Dec 2013 07:10:18.748,885.619
32,6 Dec 2013 08:32:52.893,6 Dec 2013 08:46:54.727,841.834
33,6 Dec 2013 10:10:37.284,6 Dec 2013 10:25:09.628,872.344
34,6 Dec 2013 11:49:54.181,6 Dec 2013 12:04:58.094,903.912
35,6 Dec 2013 13:30:58.076,6 Dec 2013 13:45:36.074,877.998
36,6 Dec 2013 15:14:05.417,6 Dec 2013 15:25:20.768,675.351
37,6 Dec 2013 21:30:03.451,6 Dec 2013 21:40:16.924,613.473
38,6 Dec 2013 23:06:17.486,6 Dec 2013 23:22:39.834,982.348
39,7 Dec 2013 00:52:07.089,7 Dec 2013 01:04:22.007,734.918
40,7 Dec 2013 02:39:09.495,7 Dec 2013 02:49:43.442,633.948
41,7 Dec 2013 04:15:46.535,7 Dec 2013 04:29:30.347,823.812
42,7 Dec 2013 05:53:39.622,7 Dec 2013 06:07:52.846,853.224
43,7 Dec 2013 07:33:06.825,7 Dec 2013 07:46:29.626,802.800
44,7 Dec 2013 09:14:56.255,7 Dec 2013 09:26:14.345,678.090
45,7 Dec 2013 10:58:18.211,7 Dec 2013 11:08:31.574,613.363
46,7 Dec 2013 12:38:31.621,7 Dec 2013 12:53:19.043,887.422
47,7 Dec 2013 14:16:23.318,7 Dec 2013 14:29:09.715,766.397
48,7 Dec 2013 18:56:37.734,7 Dec 2013 19:06:04.726,566.992
49,7 Dec 2013 20:30:28.889,7 Dec 2013 20:46:29.939,961.050

"Access","Start Time (UTCG)","Stop Time (UTCG)","Duration (sec)"
1,3 Dec 2013 01:00:00.000,3 Dec 2013 01:01:17.867,77.867
2,3 Dec 2013 02:33:42.630,3 Dec 2013 02:45:07.061,684.432
3,3 Dec 2013 04:11:27.618,3 Dec 2013 04:24:22.027,774.408
4,3 Dec 2013 05:50:19.892,3 Dec 2013 06:02:18.051,718.158
5,3 Dec 2013 07:32:23.086,3 Dec 2013 07:39:02.360,399.274
6,3 Dec 2013 12:35:35.105,3 Dec 2013 12:51:03.912,928.807
7,3 Dec 2013 14:14:16.013,3 Dec 2013 14:26:15.361,719.348
8,3 Dec 2013 18:53:19.752,3 Dec 2013 19:05:36.348,736.597
9,3 Dec 2013 20:29:02.147,3 Dec 2013 20:45:10.794,968.647
10,3 Dec 2013 22:10:10.829,3 Dec 2013 22:26:11.726,960.897
11,3 Dec 2013 23:49:40.918,4 Dec 2013 00:05:34.784,953.867
12,4 Dec 2013 01:27:49.513,4 Dec 2013 01:43:32.179,942.666
13,4 Dec 2013 03:05:27.347,4 Dec 2013 03:20:39.712,912.365
14,4 Dec 2013 04:44:24.214,4 Dec 2013 04:56:42.322,738.109
15,4 Dec 2013 09:57:21.529,4 Dec 2013 10:12:25.165,903.636
16,4 Dec 2013 11:37:07.522,4 Dec 2013 11:51:20.168,852.645
17,4 Dec 2013 18:02:05.381,4 Dec 2013 18:08:22.387,377.006
18,4 Dec 2013 19:41:49.982,4 Dec 2013 19:47:42.649,352.668
19,5 Dec 2013 00:31:18.206,5 Dec 2013 00:37:58.195,399.989
20,5 Dec 2013 02:04:24.136,5 Dec 2013 02:19:42.176,918.040
21,5 Dec 2013 03:47:53.057,5 Dec 2013 04:03:15.884,922.827
22,5 Dec 2013 05:36:34.456,5 Dec 2013 05:48:12.235,697.779
23,5 Dec 2013 07:20:35.150,5 Dec 2013 07:36:11.331,936.181
24,5 Dec 2013 09:02:33.842,5 Dec 2013 09:17:28.567,894.725
25,5 Dec 2013 23:37:48.636,5 Dec 2013 23:45:56.051,487.415
26,6 Dec 2013 01:14:21.964,6 Dec 2013 01:30:57.620,995.656
27,6 Dec 2013 02:59:58.552,6 Dec 2013 03:14:31.260,872.708
28,6 Dec 2013 04:46:12.253,6 Dec 2013 05:01:25.017,912.763
29,6 Dec 2013 06:29:34.856,6 Dec 2013 06:45:48.431,973.575
30,6 Dec 2013 08:08:34.970,6 Dec 2013 08:22:37.579,842.609
31,6 Dec 2013 09:46:04.200,6 Dec 2013 10:00:26.100,861.900
32,6 Dec 2013 11:24:54.739,6 Dec 2013 11:39:54.014,899.275
33,6 Dec 2013 13:05:32.388,6 Dec 2013 13:20:25.943,893.555
34,6 Dec 2013 14:48:01.243,6 Dec 2013 15:00:40.317,759.074
35,6 Dec 2013 21:09:27.976,6 Dec 2013 21:12:34.359,186.383
36,6 Dec 2013 22:41:12.396,6 Dec 2013 22:57:18.736,966.340
37,7 Dec 2013 00:24:54.035,7 Dec 2013 00:38:46.359,832.324
38,7 Dec 2013 02:13:55.571,7 Dec 2013 02:23:49.174,593.602
39,7 Dec 2013 03:51:28.588,7 Dec 2013 04:04:47.654,799.066
40,7 Dec 2013 05:29:04.524,7 Dec 2013 05:43:18.390,853.866
41,7 Dec 2013 07:08:03.110,7 Dec 2013 07:21:46.074,822.964
42,7 Dec 2013 08:49:15.031,7 Dec 2013 09:01:08.379,713.347
43,7 Dec 2013 10:32:29.119,7 Dec 2013 10:42:36.517,607.398
44,7 Dec 2013 12:14:59.185,7 Dec 2013 12:27:35.646,756.460
45,7 Dec 2013 13:51:32.749,7 Dec 2013 14:06:06.998,874.250
46,7 Dec 2013 18:35:50.440,7 Dec 2013 18:39:31.262,220.822
47,7 Dec 2013 20:06:03.256,7 Dec 2013 20:21:38.348,935.092
48,7 Dec 2013 21:47:46.178,7 Dec 2013 21:57:56.203,610.025

"Access","Start Time (UTCG)","Stop Time (UTCG)","Duration (sec)"
1,3 Dec 2013 02:09:24.968,3 Dec 2013 02:19:52.640,627.672
2,3 Dec 2013 03:46:56.929,3 Dec 2013 03:59:43.890,766.961
3,3 Dec 2013 05:25:26.536,3 Dec 2013 05:37:53.325,746.789
4,3 Dec 2013 07:06:17.434,3 Dec 2013 07:15:07.558,530.124
5,3 Dec 2013 12:11:29.558,3 Dec 2013 12:25:40.516,850.958
6,3 Dec 2013 13:49:18.763,3 Dec 2013 14:03:21.623,842.860
7,3 Dec 2013 18:31:02.665,3 Dec 2013 18:40:19.720,557.056
8,3 Dec 2013 20:04:12.882,3 Dec 2013 20:20:05.091,952.209
9,3 Dec 2013 21:45:02.888,3 Dec 2013 22:01:04.871,961.983
10,3 Dec 2013 23:24:57.159,3 Dec 2013 23:40:53.424,956.265
11,4 Dec 2013 01:03:22.999,4 Dec 2013 01:19:08.649,945.650
12,4 Dec 2013 02:41:01.132,4 Dec 2013 02:56:26.662,925.530
13,4 Dec 2013 04:19:22.435,4 Dec 2013 04:32:53.590,811.155
14,4 Dec 2013 09:32:43.374,4 Dec 2013 09:46:00.453,797.079
15,4 Dec 2013 11:12:01.350,4 Dec 2013 11:27:31.403,930.053
16,4 Dec 2013 17:37:36.732,4 Dec 2013 17:42:46.599,309.867
17,4 Dec 2013 19:16:44.815,4 Dec 2013 19:23:15.780,390.965
18,5 Dec 2013 00:08:48.923,5 Dec 2013 00:12:47.391,238.469
19,5 Dec 2013 01:40:13.981,5 Dec 2013 01:53:06.519,772.538
20,5 Dec 2013 03:21:15.176,5 Dec 2013 03:37:30.537,975.360
21,5 Dec 2013 05:09:32.680,5 Dec 2013 05:21:26.247,713.567
22,5 Dec 2013 06:55:00.018,5 Dec 2013 07:09:33.622,873.604
23,5 Dec 2013 08:36:59.606,5 Dec 2013 08:53:01.275,961.669
24,6 Dec 2013 00:49:02.630,6 Dec 2013 01:05:11.345,968.715
25,6 Dec 2013 02:33:07.075,6 Dec 2013 02:48:23.647,916.572
26,6 Dec 2013 04:20:02.280,6 Dec 2013 04:34:31.615,869.336
27,6 Dec 2013 06:03:45.578,6 Dec 2013 06:20:23.278,997.699
28,6 Dec 2013 07:44:18.306,6 Dec 2013 07:58:26.514,848.209
29,6 Dec 2013 09:21:36.424,6 Dec 2013 09:35:48.955,852.531
30,6 Dec 2013 11:00:02.177,6 Dec 2013 11:14:54.126,891.949
31,6 Dec 2013 12:40:13.164,6 Dec 2013 12:55:15.228,902.064
32,6 Dec 2013 14:22:11.005,6 Dec 2013 14:35:46.203,815.199
33,6 Dec 2013 16:07:58.782,6 Dec 2013 16:12:54.155,295.372
34,6 Dec 2013 22:16:43.343,6 Dec 2013 22:31:52.863,909.519
35,6 Dec 2013 23:58:09.159,7 Dec 2013 00:13:20.568,911.409
36,7 Dec 2013 01:47:00.973,7 Dec 2013 01:56:42.387,581.414
37,7 Dec 2013 03:27:15.197,7 Dec 2013 03:39:58.040,762.842
38,7 Dec 2013 05:04:34.348,7 Dec 2013 05:18:44.018,849.670
39,7 Dec 2013 06:43:07.962,7 Dec 2013 06:57:05.900,837.938
40,7 Dec 2013 08:23:42.617,7 Dec 2013 08:36:09.823,747.206
41,7 Dec 2013 10:06:36.645,7 Dec 2013 10:16:56.234,619.589
42,7 Dec 2013 11:49:38.776,7 Dec 2013 12:01:00.337,681.561
43,7 Dec 2013 13:26:56.590,7 Dec 2013 13:42:27.329,930.739
44,7 Dec 2013 15:07:42.545,7 Dec 2013 15:12:23.225,280.680
45,7 Dec 2013 19:42:13.289,7 Dec 2013 19:56:39.649,866.360
46,7 Dec 2013 21:21:13.090,7 Dec 2013 21:35:50.151,877.061

"Access","Start Time (UTCG)","Stop Time (UTCG)","Duration (sec)"
1,3 Dec 2013 01:45:14.116,3 Dec 2013 01:54:20.377,546.262
2,3 Dec 2013 03:22:29.290,3 Dec 2013 03:34:59.959,750.669
3,3 Dec 2013 05:00:41.197,3 Dec 2013 05:13:25.941,764.744
4,3 Dec 2013 06:40:41.122,3 Dec 2013 06:50:57.274,616.153
5,3 Dec 2013 11:47:57.410,3 Dec 2013 11:59:17.393,679.983
6,3 Dec 2013 13:24:33.343,3 Dec 2013 13:39:50.814,917.471
7,3 Dec 2013 15:06:09.666,3 Dec 2013 15:08:45.483,155.817
8,3 Dec 2013 18:10:10.468,3 Dec 2013 18:14:05.439,234.971
9,3 Dec 2013 19:39:59.699,3 Dec 2013 19:55:24.751,925.052
10,3 Dec 2013 21:19:48.564,3 Dec 2013 21:35:51.986,963.422
11,3 Dec 2013 23:00:07.760,3 Dec 2013 23:16:06.005,958.245
12,4 Dec 2013 00:38:53.253,4 Dec 2013 00:54:41.700,948.447
13,4 Dec 2013 02:16:37.205,4 Dec 2013 02:32:10.962,933.757
14,4 Dec 2013 03:54:35.191,4 Dec 2013 04:08:54.775,859.584
15,4 Dec 2013 05:35:57.199,4 Dec 2013 05:43:07.234,430.035
16,4 Dec 2013 09:08:23.708,4 Dec 2013 09:18:35.779,612.071
17,4 Dec 2013 10:47:02.195,4 Dec 2013 11:03:06.108,963.914
18,4 Dec 2013 12:28:06.197,4 Dec 2013 12:36:41.215,515.018
19,4 Dec 2013 17:13:52.738,4 Dec 2013 17:16:22.453,149.715
20,4 Dec 2013 18:51:44.528,4 Dec 2013 18:58:33.580,409.052
21,4 Dec 2013 20:32:22.047,4 Dec 2013 20:35:38.788,196.740
22,5 Dec 2013 01:17:04.882,5 Dec 2013 01:27:37.123,632.242
23,5 Dec 2013 02:55:05.650,5 Dec 2013 03:11:43.741,998.091
24,5 Dec 2013 04:42:13.503,5 Dec 2013 04:55:06.002,772.499
25,5 Dec 2013 06:29:13.335,5 Dec 2013 06:42:32.567,799.232
26,5 Dec 2013 08:11:31.163,5 Dec 2013 08:27:57.350,986.187
27,5 Dec 2013 09:54:41.801,5 Dec 2013 10:03:49.804,548.003
28,6 Dec 2013 00:24:19.403,6 Dec 2013 00:39:16.784,897.381
29,6 Dec 2013 02:06:28.841,6 Dec 2013 02:22:28.878,960.037
30,6 Dec 2013 03:53:35.407,6 Dec 2013 04:07:38.146,842.738
31,6 Dec 2013 05:37:58.781,6 Dec 2013 05:54:27.947,989.166
32,6 Dec 2013 07:20:02.179,6 Dec 2013 07:34:20.655,858.476
33,6 Dec 2013 08:57:13.013,6 Dec 2013 09:11:18.466,845.454
34,6 Dec 2013 10:35:16.445,6 Dec 2013 10:49:59.135,882.690
35,6 Dec 2013 12:15:00.382,6 Dec 2013 12:30:05.514,905.132
36,6 Dec 2013 13:56:30.623,6 Dec 2013 14:10:43.661,853.038
37,6 Dec 2013 15:40:32.901,6 Dec 2013 15:49:37.283,544.382
38,6 Dec 2013 21:52:55.634,6 Dec 2013 22:06:16.679,801.044
39,6 Dec 2013 23:31:56.624,6 Dec 2013 23:47:59.506,962.883
40,7 Dec 2013 01:19:36.768,7 Dec 2013 01:30:16.283,639.515
41,7 Dec 2013 03:03:07.807,7 Dec 2013 03:14:58.262,710.456
42,7 Dec 2013 04:40:08.463,7 Dec 2013 04:54:08.511,840.048
43,7 Dec 2013 06:18:20.454,7 Dec 2013 06:32:28.401,847.947
44,7 Dec 2013 07:58:19.848,7 Dec 2013 08:11:17.260,777.412
45,7 Dec 2013 09:40:44.447,7 Dec 2013 09:51:29.558,645.111
46,7 Dec 2013 11:24:01.569,7 Dec 2013 11:34:40.556,638.987
47,7 Dec 2013 13:02:34.795,7 Dec 2013 13:18:12.370,937.574
48,7 Dec 2013 14:41:34.494,7 Dec 2013 14:51:27.619,593.124
49,7 Dec 2013 19:19:01.746,7 Dec 2013 19:31:31.277,749.531
50,7 Dec 2013 20:55:30.773,7 Dec 2013 21:11:14.562,943.789

"Access","Start Time (UTCG)","Stop Time (UTCG)","Duration (sec)"
1,3 Dec 2013 01:11:47.243,3 Dec 2013 01:18:37.253,410.010
2,3 Dec 2013 02:50:19.466,3 Dec 2013 03:01:13.301,653.835
3,3 Dec 2013 04:30:09.475,3 Dec 2013 04:40:41.796,632.321
4,3 Dec 2013 06:09:10.337,3 Dec 2013 06:17:55.508,525.171
5,3 Dec 2013 07:45:48.066,3 Dec 2013 07:54:32.260,524.194
6,3 Dec 2013 09:20:00.554,3 Dec 2013 09:32:03.157,722.603
7,3 Dec 2013 10:55:04.379,3 Dec 2013 11:11:27.505,983.125
8,3 Dec 2013 12:40:46.716,3 Dec 2013 12:54:31.370,824.654
9,3 Dec 2013 14:29:47.373,3 Dec 2013 14:40:28.622,641.249
10,3 Dec 2013 16:12:31.919,3 Dec 2013 16:28:25.621,953.702
11,3 Dec 2013 17:54:15.203,3 Dec 2013 18:08:12.641,837.438
12,4 Dec 2013 08:26:45.826,4 Dec 2013 08:38:25.209,699.383
13,4 Dec 2013 10:05:59.219,4 Dec 2013 10:22:34.286,995.067
14,4 Dec 2013 11:52:30.748,4 Dec 2013 12:06:41.032,850.284
15,4 Dec 2013 13:38:00.855,4 Dec 2013 13:53:47.771,946.916
16,4 Dec 2013 15:21:13.366,4 Dec 2013 15:36:40.497,927.132
17,4 Dec 2013 17:01:04.419,4 Dec 2013 17:12:55.479,711.060
18,4 Dec 2013 18:38:15.868,4 Dec 2013 18:50:45.911,750.043
19,4 Dec 2013 20:16:54.852,4 Dec 2013 20:30:16.236,801.384
20,4 Dec 2013 21:57:37.060,4 Dec 2013 22:10:24.368,767.307
21,4 Dec 2013 23:41:12.023,4 Dec 2013 23:48:54.130,462.107
22,5 Dec 2013 05:57:56.138,5 Dec 2013 06:05:30.349,454.211
23,5 Dec 2013 07:32:40.232,5 Dec 2013 07:49:02.521,982.289
24,5 Dec 2013 09:17:32.763,5 Dec 2013 09:31:05.733,812.971
25,5 Dec 2013 11:05:25.391,5 Dec 2013 11:17:36.141,730.750
26,5 Dec 2013 12:43:46.613,5 Dec 2013 12:58:05.037,858.425
27,5 Dec 2013 14:21:21.407,5 Dec 2013 14:36:19.680,898.273
28,5 Dec 2013 16:00:13.831,5 Dec 2013 16:14:58.074,884.243
29,5 Dec 2013 17:41:01.592,5 Dec 2013 17:54:55.047,833.455
30,5 Dec 2013 19:23:22.364,5 Dec 2013 19:36:59.855,817.491
31,5 Dec 2013 21:05:49.173,5 Dec 2013 21:20:52.681,903.509
32,5 Dec 2013 22:43:57.785,5 Dec 2013 22:56:54.997,777.211
33,6 Dec 2013 03:24:58.544,6 Dec 2013 03:32:13.502,434.958
34,6 Dec 2013 04:57:35.072,6 Dec 2013 05:13:32.757,957.685
35,6 Dec 2013 06:41:08.935,6 Dec 2013 06:52:13.725,664.790
36,6 Dec 2013 08:22:13.528,6 Dec 2013 08:34:26.271,732.743
37,6 Dec 2013 10:00:36.037,6 Dec 2013 10:14:12.404,816.367
38,6 Dec 2013 11:39:00.832,6 Dec 2013 11:52:14.398,793.566
39,6 Dec 2013 13:19:03.997,6 Dec 2013 13:28:58.698,594.701
40,6 Dec 2013 18:28:12.673,6 Dec 2013 18:38:40.844,628.171
41,6 Dec 2013 20:05:10.014,6 Dec 2013 20:20:49.066,939.052
42,6 Dec 2013 21:45:48.790,6 Dec 2013 21:51:58.750,369.960
43,7 Dec 2013 02:21:03.579,7 Dec 2013 02:36:13.983,910.403
44,7 Dec 2013 04:01:34.255,7 Dec 2013 04:17:24.299,950.045
45,7 Dec 2013 05:41:31.831,7 Dec 2013 05:56:56.554,924.723
46,7 Dec 2013 07:19:55.878,7 Dec 2013 07:34:56.504,900.626
47,7 Dec 2013 08:56:53.520,7 Dec 2013 09:12:09.275,915.755
48,7 Dec 2013 10:33:30.420,7 Dec 2013 10:49:02.689,932.269
49,7 Dec 2013 12:11:49.051,7 Dec 2013 12:25:39.795,830.743
50,7 Dec 2013 15:48:14.607,7 Dec 2013 15:59:51.120,696.513
51,7 Dec 2013 17:28:19.465,7 Dec 2013 17:44:30.627,971.162
52,7 Dec 2013 19:10:14.362,7 Dec 2013 19:18:32.467,498.105

"Access","Start Time (UTCG)","Stop Time (UTCG)","Duration (sec)"
1,3 Dec 2013 02:25:25.530,3 Dec 2013 02:35:56.462,630.932
2,3 Dec 2013 04:05:13.265,3 Dec 2013 04:16:03.766,650.501
3,3 Dec 2013 05:44:34.545,3 Dec 2013 05:53:46.317,551.771
4,3 Dec 2013 07:21:56.375,3 Dec 2013 07:30:18.438,502.062
5,3 Dec 2013 08:56:32.465,3 Dec 2013 09:07:37.402,664.937
6,3 Dec 2013 10:30:42.719,3 Dec 2013 10:45:17.524,874.805
7,3 Dec 2013 12:13:37.589,3 Dec 2013 12:28:48.026,910.438
8,3 Dec 2013 14:03:06.994,3 Dec 2013 14:13:15.924,608.930
9,3 Dec 2013 15:47:07.737,3 Dec 2013 16:02:03.686,895.949
10,3 Dec 2013 17:28:41.059,3 Dec 2013 17:44:11.441,930.383
11,4 Dec 2013 08:05:03.922,4 Dec 2013 08:10:24.578,320.656
12,4 Dec 2013 09:40:14.511,4 Dec 2013 09:56:47.767,993.256
13,4 Dec 2013 11:25:36.284,4 Dec 2013 11:40:20.353,884.070
14,4 Dec 2013 13:12:01.927,4 Dec 2013 13:27:03.754,901.826
15,4 Dec 2013 14:55:21.444,4 Dec 2013 15:11:43.700,982.256
16,4 Dec 2013 16:36:50.646,4 Dec 2013 16:48:48.027,717.381
17,4 Dec 2013 18:13:52.606,4 Dec 2013 18:26:06.967,734.361
18,4 Dec 2013 19:52:03.987,4 Dec 2013 20:05:17.261,793.274
19,4 Dec 2013 21:32:14.412,4 Dec 2013 21:45:23.543,789.130
20,4 Dec 2013 23:14:49.058,4 Dec 2013 23:24:44.289,595.231
21,5 Dec 2013 07:07:47.424,5 Dec 2013 07:23:34.372,946.948
22,5 Dec 2013 08:50:36.431,5 Dec 2013 09:05:25.441,889.010
23,5 Dec 2013 10:38:56.686,5 Dec 2013 10:50:18.180,681.494
24,5 Dec 2013 12:19:32.238,5 Dec 2013 12:33:25.025,832.787
25,5 Dec 2013 13:56:51.927,5 Dec 2013 14:11:46.543,894.616
26,5 Dec 2013 15:35:21.054,5 Dec 2013 15:50:12.949,891.895
27,5 Dec 2013 17:15:38.269,5 Dec 2013 17:29:45.752,847.482
28,5 Dec 2013 18:57:43.485,5 Dec 2013 19:11:14.708,811.223
29,5 Dec 2013 20:40:14.275,5 Dec 2013 20:54:57.670,883.394
30,5 Dec 2013 22:19:08.546,5 Dec 2013 22:33:50.187,881.640
31,6 Dec 2013 04:33:21.112,6 Dec 2013 04:48:33.256,912.144
32,6 Dec 2013 06:14:02.510,6 Dec 2013 06:27:51.753,829.243
33,6 Dec 2013 07:57:33.422,6 Dec 2013 08:09:04.507,691.085
34,6 Dec 2013 09:36:02.183,6 Dec 2013 09:49:28.360,806.177
35,6 Dec 2013 11:14:20.847,6 Dec 2013 11:27:50.555,809.708
36,6 Dec 2013 12:53:43.456,6 Dec 2013 13:04:58.705,675.249
37,6 Dec 2013 19:40:31.377,6 Dec 2013 19:56:23.823,952.446
38,6 Dec 2013 21:20:04.146,6 Dec 2013 21:30:27.192,623.046
39,7 Dec 2013 01:57:45.718,7 Dec 2013 02:11:11.411,805.693
40,7 Dec 2013 03:36:22.980,7 Dec 2013 03:52:15.281,952.301
41,7 Dec 2013 05:16:40.604,7 Dec 2013 05:32:13.188,932.584
42,7 Dec 2013 06:55:29.053,7 Dec 2013 07:10:33.025,903.972
43,7 Dec 2013 08:32:44.746,7 Dec 2013 08:47:52.995,908.248
44,7 Dec 2013 10:09:17.331,7 Dec 2013 10:24:52.054,934.723
45,7 Dec 2013 11:46:55.106,7 Dec 2013 12:01:06.345,851.240
46,7 Dec 2013 13:38:17.110,7 Dec 2013 13:39:46.229,89.119
47,7 Dec 2013 15:23:25.386,7 Dec 2013 15:31:46.375,500.989
48,7 Dec 2013 17:03:13.827,7 Dec 2013 17:19:19.181,965.353
49,7 Dec 2013 18:44:15.088,7 Dec 2013 18:56:19.653,724.565

"Access","Start Time (UTCG)","Stop Time (UTCG)","Duration (sec)"
1,3 Dec 2013 02:00:38.001,3 Dec 2013 02:10:27.879,589.878
2,3 Dec 2013 03:40:15.234,3 Dec 2013 03:51:16.510,661.277
3,3 Dec 2013 05:19:51.436,3 Dec 2013 05:29:32.093,580.657
4,3 Dec 2013 06:57:52.720,3 Dec 2013 07:06:08.909,496.189
5,3 Dec 2013 08:33:03.130,3 Dec 2013 08:43:12.773,609.643
6,3 Dec 2013 10:07:03.571,3 Dec 2013 10:20:53.230,829.659
7,3 Dec 2013 11:46:55.905,3 Dec 2013 12:03:06.434,970.528
8,3 Dec 2013 13:35:50.793,3 Dec 2013 13:46:34.451,643.658
9,3 Dec 2013 15:21:36.985,3 Dec 2013 15:35:11.227,814.241
10,3 Dec 2013 17:03:15.425,3 Dec 2013 17:19:30.774,975.349
11,3 Dec 2013 18:47:00.145,3 Dec 2013 18:53:01.955,361.810
12,4 Dec 2013 09:15:01.579,4 Dec 2013 09:30:57.008,955.429
13,4 Dec 2013 10:58:46.249,4 Dec 2013 11:14:15.527,929.279
14,4 Dec 2013 12:45:48.624,4 Dec 2013 13:00:10.236,861.612
15,4 Dec 2013 14:29:35.691,4 Dec 2013 14:46:12.941,997.250
16,4 Dec 2013 16:12:36.037,4 Dec 2013 16:24:48.249,732.212
17,4 Dec 2013 17:49:33.934,4 Dec 2013 18:01:35.166,721.232
18,4 Dec 2013 19:27:20.794,4 Dec 2013 19:40:21.931,781.137
19,4 Dec 2013 21:07:00.006,4 Dec 2013 21:20:20.731,800.725
20,4 Dec 2013 22:48:51.426,4 Dec 2013 23:00:09.257,677.831
21,5 Dec 2013 06:43:32.728,5 Dec 2013 06:57:58.932,866.203
22,5 Dec 2013 08:24:06.573,5 Dec 2013 08:39:54.497,947.923
23,5 Dec 2013 10:12:00.541,5 Dec 2013 10:23:24.675,684.133
24,5 Dec 2013 11:55:22.506,5 Dec 2013 12:08:38.187,795.681
25,5 Dec 2013 13:32:26.526,5 Dec 2013 13:47:13.998,887.472
26,5 Dec 2013 15:10:35.216,5 Dec 2013 15:25:32.008,896.792
27,5 Dec 2013 16:50:22.290,5 Dec 2013 17:04:43.716,861.426
28,5 Dec 2013 18:32:05.845,5 Dec 2013 18:45:38.886,813.041
29,5 Dec 2013 20:14:38.333,5 Dec 2013 20:28:53.500,855.167
30,5 Dec 2013 21:54:35.307,5 Dec 2013 22:10:07.998,932.691
31,5 Dec 2013 23:35:21.050,5 Dec 2013 23:40:07.678,286.628
32,6 Dec 2013 04:09:44.260,6 Dec 2013 04:23:25.970,821.710
33,6 Dec 2013 05:47:52.068,6 Dec 2013 06:03:13.329,921.261
34,6 Dec 2013 07:32:50.731,6 Dec 2013 07:43:30.100,639.368
35,6 Dec 2013 09:11:27.500,6 Dec 2013 09:24:36.857,789.357
36,6 Dec 2013 10:49:44.321,6 Dec 2013 11:03:22.627,818.306
37,6 Dec 2013 12:28:39.246,6 Dec 2013 12:40:49.453,730.207
38,6 Dec 2013 14:11:42.265,6 Dec 2013 14:15:30.988,228.724
39,6 Dec 2013 19:16:03.196,6 Dec 2013 19:31:21.327,918.131
40,6 Dec 2013 20:54:53.721,6 Dec 2013 21:07:53.891,780.170
41,7 Dec 2013 01:35:06.979,7 Dec 2013 01:46:08.989,662.011
42,7 Dec 2013 03:11:08.422,7 Dec 2013 03:27:00.362,951.940
43,7 Dec 2013 04:51:43.654,7 Dec 2013 05:07:23.414,939.760
44,7 Dec 2013 06:30:56.161,7 Dec 2013 06:46:05.784,909.623
45,7 Dec 2013 08:08:32.967,7 Dec 2013 08:23:35.751,902.784
46,7 Dec 2013 09:45:08.080,7 Dec 2013 10:00:39.127,931.047
47,7 Dec 2013 11:22:16.659,7 Dec 2013 11:37:11.925,895.266
48,7 Dec 2013 13:08:00.709,7 Dec 2013 13:15:53.537,472.828
49,7 Dec 2013 14:59:11.802,7 Dec 2013 15:02:20.549,188.747
50,7 Dec 2013 16:38:11.177,7 Dec 2013 16:53:31.151,919.974
51,7 Dec 2013 18:18:45.930,7 Dec 2013 18:33:04.740,858.810

"Access","Start Time (UTCG)","Stop Time (UTCG)","Duration (sec)"
1,3 Dec 2013 01:36:01.821,3 Dec 2013 01:44:44.328,522.507
2,3 Dec 2013 03:15:16.755,3 Dec 2013 03:26:19.777,663.021
3,3 Dec 2013 04:55:02.614,3 Dec 2013 05:05:10.992,608.378
4,3 Dec 2013 06:33:36.990,3 Dec 2013 06:42:02.111,505.121
5,3 Dec 2013 08:09:29.400,3 Dec 2013 08:18:50.638,561.238
6,3 Dec 2013 09:43:30.145,3 Dec 2013 09:56:28.805,778.660
7,3 Dec 2013 11:20:44.257,3 Dec 2013 11:37:21.351,997.094
8,3 Dec 2013 13:08:16.267,3 Dec 2013 13:20:23.422,727.154
9,3 Dec 2013 14:55:53.493,3 Dec 2013 15:07:54.653,721.160
10,3 Dec 2013 16:37:53.460,3 Dec 2013 16:54:14.944,981.484
11,3 Dec 2013 18:20:08.171,3 Dec 2013 18:31:23.452,675.281
12,4 Dec 2013 08:50:26.976,4 Dec 2013 09:04:54.540,867.563
13,4 Dec 2013 10:32:11.412,4 Dec 2013 10:48:21.892,970.480
14,4 Dec 2013 12:19:17.649,4 Dec 2013 12:33:19.179,841.530
15,4 Dec 2013 14:03:50.442,4 Dec 2013 14:20:12.875,982.433
16,4 Dec 2013 15:47:20.396,4 Dec 2013 16:00:54.925,814.529
17,4 Dec 2013 17:25:18.382,4 Dec 2013 17:37:11.190,712.808
18,4 Dec 2013 19:02:44.958,4 Dec 2013 19:15:31.185,766.227
19,4 Dec 2013 20:41:53.514,4 Dec 2013 20:55:17.802,804.288
20,4 Dec 2013 22:23:08.776,4 Dec 2013 22:35:20.761,731.985
21,5 Dec 2013 00:08:54.072,5 Dec 2013 00:11:43.802,169.729
22,5 Dec 2013 06:20:05.501,5 Dec 2013 06:32:07.205,721.704
23,5 Dec 2013 07:58:07.241,5 Dec 2013 08:14:28.065,980.824
24,5 Dec 2013 09:44:46.280,5 Dec 2013 09:57:02.450,736.170
25,5 Dec 2013 11:31:19.158,5 Dec 2013 11:43:41.159,742.001
26,5 Dec 2013 13:08:04.800,5 Dec 2013 13:22:40.701,875.901
27,5 Dec 2013 14:45:55.591,5 Dec 2013 15:00:54.523,898.932
28,5 Dec 2013 16:25:14.133,5 Dec 2013 16:39:48.091,873.958
29,5 Dec 2013 18:06:31.276,5 Dec 2013 18:20:12.494,821.218
30,5 Dec 2013 19:49:00.955,5 Dec 2013 20:02:53.392,832.437
31,5 Dec 2013 21:30:18.373,5 Dec 2013 21:45:50.077,931.704
32,5 Dec 2013 23:09:09.328,5 Dec 2013 23:19:14.025,604.697
33,6 Dec 2013 03:46:50.215,6 Dec 2013 03:58:05.650,675.435
34,6 Dec 2013 05:22:24.787,6 Dec 2013 05:38:26.188,961.401
35,6 Dec 2013 07:08:04.987,6 Dec 2013 07:17:42.168,577.181
36,6 Dec 2013 08:46:51.431,6 Dec 2013 08:59:36.613,765.182
37,6 Dec 2013 10:25:09.774,6 Dec 2013 10:38:50.162,820.387
38,6 Dec 2013 12:03:46.152,6 Dec 2013 12:16:34.202,768.050
39,6 Dec 2013 13:44:51.062,6 Dec 2013 13:52:41.271,470.209
40,6 Dec 2013 18:51:51.218,6 Dec 2013 19:05:34.011,822.792
41,6 Dec 2013 20:29:57.231,6 Dec 2013 20:44:39.420,882.190
42,7 Dec 2013 01:13:21.986,7 Dec 2013 01:20:38.858,436.872
43,7 Dec 2013 02:45:51.688,7 Dec 2013 03:01:39.864,948.176
44,7 Dec 2013 04:26:41.368,7 Dec 2013 04:42:27.094,945.726
45,7 Dec 2013 06:06:17.074,7 Dec 2013 06:21:33.888,916.813
46,7 Dec 2013 07:44:16.981,7 Dec 2013 07:59:17.137,900.156
47,7 Dec 2013 09:21:00.744,7 Dec 2013 09:36:24.710,923.966
48,7 Dec 2013 10:57:49.416,7 Dec 2013 11:13:09.872,920.456
49,7 Dec 2013 12:39:26.344,7 Dec 2013 12:50:53.713,687.369
50,7 Dec 2013 16:13:11.173,7 Dec 2013 16:27:03.476,832.302
51,7 Dec 2013 17:53:29.312,7 Dec 2013 18:09:06.384,937.072

"Access","Start Time (UTCG)","Stop Time (UTCG)","Duration (sec)"
1,3 Dec 2013 01:30:06.502,3 Dec 2013 01:37:52.341,465.839
2,3 Dec 2013 03:06:33.385,3 Dec 2013 03:15:25.379,531.994
3,3 Dec 2013 04:44:18.199,3 Dec 2013 04:54:52.663,634.463
4,3 Dec 2013 06:24:34.038,3 Dec 2013 06:34:36.419,602.380
5,3 Dec 2013 14:27:19.479,3 Dec 2013 14:28:59.976,100.497
6,3 Dec 2013 15:59:01.709,3 Dec 2013 16:15:15.157,973.448
7,3 Dec 2013 17:43:06.617,3 Dec 2013 17:57:34.649,868.032
8,3 Dec 2013 19:30:44.916,3 Dec 2013 19:43:39.209,774.293
9,3 Dec 2013 21:11:41.747,3 Dec 2013 21:26:33.786,892.038
10,3 Dec 2013 22:49:02.081,3 Dec 2013 23:04:32.038,929.958
11,4 Dec 2013 00:27:26.143,4 Dec 2013 00:43:00.821,934.679
12,4 Dec 2013 02:07:29.494,4 Dec 2013 02:22:51.270,921.777
13,4 Dec 2013 03:49:07.912,4 Dec 2013 04:04:31.680,923.768
14,4 Dec 2013 05:31:25.987,4 Dec 2013 05:47:38.940,972.953
15,4 Dec 2013 07:11:36.530,4 Dec 2013 07:24:39.454,782.924
16,4 Dec 2013 11:54:21.711,4 Dec 2013 11:57:11.726,170.016
17,4 Dec 2013 13:24:40.454,4 Dec 2013 13:40:24.739,944.285
18,4 Dec 2013 15:07:00.872,4 Dec 2013 15:19:58.506,777.634
19,4 Dec 2013 16:51:28.882,4 Dec 2013 17:01:28.841,599.958
20,4 Dec 2013 18:29:19.215,4 Dec 2013 18:42:05.718,766.503
21,4 Dec 2013 20:07:34.807,4 Dec 2013 20:20:30.449,775.642
22,4 Dec 2013 21:47:21.899,4 Dec 2013 21:57:44.881,622.981
23,5 Dec 2013 02:56:52.505,5 Dec 2013 03:04:51.175,478.670
24,5 Dec 2013 04:32:30.687,5 Dec 2013 04:48:16.393,945.705
25,5 Dec 2013 06:12:31.408,5 Dec 2013 06:20:18.151,466.743
26,5 Dec 2013 10:48:42.386,5 Dec 2013 11:03:21.410,879.024
27,5 Dec 2013 12:27:47.481,5 Dec 2013 12:44:04.810,977.329
28,5 Dec 2013 14:08:08.521,5 Dec 2013 14:24:09.513,960.992
29,5 Dec 2013 15:46:55.827,5 Dec 2013 16:02:37.997,942.170
30,5 Dec 2013 17:24:24.971,5 Dec 2013 17:40:03.804,938.833
31,5 Dec 2013 19:01:38.377,5 Dec 2013 19:16:56.548,918.171
32,5 Dec 2013 20:40:44.179,5 Dec 2013 20:52:29.958,705.779
33,6 Dec 2013 00:16:04.856,6 Dec 2013 00:25:05.069,540.214
34,6 Dec 2013 01:55:08.233,6 Dec 2013 02:11:17.385,969.152
35,6 Dec 2013 03:36:06.492,6 Dec 2013 03:46:38.276,631.784
36,6 Dec 2013 18:03:47.658,6 Dec 2013 18:20:11.669,984.011
37,6 Dec 2013 19:49:07.006,6 Dec 2013 20:03:34.851,867.845
38,6 Dec 2013 21:36:43.221,6 Dec 2013 21:49:58.772,795.551
39,6 Dec 2013 23:19:46.567,6 Dec 2013 23:36:14.536,987.968
40,7 Dec 2013 01:02:43.818,7 Dec 2013 01:14:07.225,683.408
41,7 Dec 2013 15:33:57.792,7 Dec 2013 15:47:32.276,814.484
42,7 Dec 2013 17:14:23.786,7 Dec 2013 17:30:44.367,980.582
43,7 Dec 2013 19:01:16.329,7 Dec 2013 19:15:06.594,830.264
44,7 Dec 2013 20:46:21.864,7 Dec 2013 21:02:25.440,963.576

"Access","Start Time (UTCG)","Stop Time (UTCG)","Duration (sec)"
1,3 Dec 2013 01:05:53.633,3 Dec 2013 01:13:59.236,485.604
2,3 Dec 2013 02:42:24.974,3 Dec 2013 02:50:46.849,501.875
3,3 Dec 2013 04:19:38.957,3 Dec 2013 04:29:55.735,616.778
4,3 Dec 2013 05:59:14.304,3 Dec 2013 06:09:44.837,630.533
5,3 Dec 2013 07:42:19.232,3 Dec 2013 07:47:47.476,328.244
6,3 Dec 2013 15:34:21.223,3 Dec 2013 15:49:39.325,918.102
7,3 Dec 2013 17:16:23.096,3 Dec 2013 17:31:51.911,928.814
8,3 Dec 2013 19:04:10.703,3 Dec 2013 19:16:33.596,742.893
9,3 Dec 2013 20:47:29.769,3 Dec 2013 21:01:58.713,868.944
10,3 Dec 2013 22:24:37.238,3 Dec 2013 22:40:02.440,925.201
11,4 Dec 2013 00:02:42.061,4 Dec 2013 00:18:17.449,935.388
12,4 Dec 2013 01:42:18.339,4 Dec 2013 01:57:44.110,925.771
13,4 Dec 2013 03:23:37.288,4 Dec 2013 03:38:55.924,918.636
14,4 Dec 2013 05:05:49.963,4 Dec 2013 05:21:49.021,959.058
15,4 Dec 2013 06:46:47.799,4 Dec 2013 07:01:33.782,885.984
16,4 Dec 2013 13:00:39.436,4 Dec 2013 13:15:16.815,877.379
17,4 Dec 2013 14:40:23.586,4 Dec 2013 14:55:14.478,890.892
18,4 Dec 2013 16:27:08.072,4 Dec 2013 16:35:41.129,513.057
19,4 Dec 2013 18:04:49.777,4 Dec 2013 18:17:13.374,743.597
20,4 Dec 2013 19:42:56.595,4 Dec 2013 19:56:01.607,785.012
21,4 Dec 2013 21:22:08.490,4 Dec 2013 21:33:33.884,685.393
22,5 Dec 2013 04:07:59.640,5 Dec 2013 04:23:42.662,943.022
23,5 Dec 2013 05:47:04.890,5 Dec 2013 05:58:23.635,678.745
24,5 Dec 2013 10:25:31.639,5 Dec 2013 10:38:28.011,776.372
25,5 Dec 2013 12:02:28.959,5 Dec 2013 12:18:48.940,979.981
26,5 Dec 2013 13:43:11.935,5 Dec 2013 13:59:17.787,965.852
27,5 Dec 2013 15:22:22.561,5 Dec 2013 15:38:08.559,945.998
28,5 Dec 2013 17:00:07.585,5 Dec 2013 17:15:45.850,938.266
29,5 Dec 2013 18:37:15.945,5 Dec 2013 18:52:46.926,930.981
30,5 Dec 2013 20:15:35.095,5 Dec 2013 20:28:53.167,798.073
31,5 Dec 2013 23:53:19.304,5 Dec 2013 23:54:40.453,81.150
32,6 Dec 2013 01:30:11.019,6 Dec 2013 01:45:52.382,941.363
33,6 Dec 2013 03:10:33.562,6 Dec 2013 03:23:52.218,798.656
34,6 Dec 2013 17:38:44.262,6 Dec 2013 17:54:06.773,922.512
35,6 Dec 2013 19:22:09.823,6 Dec 2013 19:37:40.570,930.747
36,6 Dec 2013 21:10:16.242,6 Dec 2013 21:22:55.984,759.742
37,6 Dec 2013 22:54:13.570,6 Dec 2013 23:10:16.990,963.420
38,7 Dec 2013 00:36:38.337,7 Dec 2013 00:50:46.214,847.877
39,7 Dec 2013 15:10:50.030,7 Dec 2013 15:20:58.238,608.208
40,7 Dec 2013 16:48:27.156,7 Dec 2013 17:05:02.471,995.315
41,7 Dec 2013 18:34:23.368,7 Dec 2013 18:48:37.345,853.977
42,7 Dec 2013 20:20:26.651,7 Dec 2013 20:35:44.926,918.275

"Access","Start Time (UTCG)","Stop Time (UTCG)","Duration (sec)"
1,3 Dec 2013 02:18:19.700,3 Dec 2013 02:26:17.157,477.457
2,3 Dec 2013 03:55:08.920,3 Dec 2013 04:05:01.354,592.434
3,3 Dec 2013 05:34:05.571,3 Dec 2013 05:44:48.837,643.266
4,3 Dec 2013 07:15:56.940,3 Dec 2013 07:23:49.023,472.083
5,3 Dec 2013 15:10:22.506,3 Dec 2013 15:23:52.192,809.687
6,3 Dec 2013 16:50:05.443,3 Dec 2013 17:06:17.344,971.901
7,3 Dec 2013 18:37:14.969,3 Dec 2013 18:49:49.652,754.683
8,3 Dec 2013 20:22:54.705,3 Dec 2013 20:37:17.172,862.467
9,3 Dec 2013 22:00:15.697,3 Dec 2013 22:15:33.839,918.142
10,3 Dec 2013 23:38:03.823,3 Dec 2013 23:53:38.661,934.838
11,4 Dec 2013 01:17:14.006,4 Dec 2013 01:32:43.632,929.626
12,4 Dec 2013 02:58:09.916,4 Dec 2013 03:13:27.065,917.149
13,4 Dec 2013 04:40:14.872,4 Dec 2013 04:55:59.829,944.957
14,4 Dec 2013 06:22:16.907,4 Dec 2013 06:37:50.077,933.170
15,4 Dec 2013 08:03:12.680,4 Dec 2013 08:07:41.683,269.003
16,4 Dec 2013 12:37:18.551,4 Dec 2013 12:49:58.871,760.320
17,4 Dec 2013 14:14:31.336,4 Dec 2013 14:30:23.015,951.679
18,4 Dec 2013 16:02:57.628,4 Dec 2013 16:09:26.363,388.735
19,4 Dec 2013 17:40:21.298,4 Dec 2013 17:52:11.390,710.092
20,4 Dec 2013 19:18:21.966,4 Dec 2013 19:31:28.497,786.531
21,4 Dec 2013 20:57:08.469,4 Dec 2013 21:09:16.871,728.402
22,4 Dec 2013 22:39:01.118,4 Dec 2013 22:45:25.127,384.009
23,5 Dec 2013 03:43:42.126,5 Dec 2013 03:58:29.671,887.545
24,5 Dec 2013 05:22:02.215,5 Dec 2013 05:35:38.504,816.289
25,5 Dec 2013 10:03:01.749,5 Dec 2013 10:13:20.018,618.269
26,5 Dec 2013 11:37:06.385,5 Dec 2013 11:53:28.140,981.754
27,5 Dec 2013 13:18:09.421,5 Dec 2013 13:34:19.645,970.224
28,5 Dec 2013 14:57:43.744,5 Dec 2013 15:13:34.445,950.702
29,5 Dec 2013 16:35:47.610,5 Dec 2013 16:51:25.927,938.318
30,5 Dec 2013 18:12:57.507,5 Dec 2013 18:28:34.518,937.011
31,5 Dec 2013 19:50:44.722,5 Dec 2013 20:05:02.103,857.381
32,5 Dec 2013 21:35:22.714,5 Dec 2013 21:39:44.856,262.142
33,6 Dec 2013 01:05:18.698,6 Dec 2013 01:19:47.779,869.082
34,6 Dec 2013 02:45:17.444,6 Dec 2013 03:00:18.530,901.087
35,6 Dec 2013 17:14:26.351,6 Dec 2013 17:27:37.436,791.085
36,6 Dec 2013 18:55:34.451,6 Dec 2013 19:11:52.354,977.903
37,6 Dec 2013 20:43:24.810,6 Dec 2013 20:56:08.019,763.209
38,6 Dec 2013 22:28:35.540,6 Dec 2013 22:43:51.113,915.572
39,7 Dec 2013 00:10:53.942,7 Dec 2013 00:26:33.252,939.311
40,7 Dec 2013 16:23:00.476,7 Dec 2013 16:39:20.497,980.021
41,7 Dec 2013 18:07:29.349,7 Dec 2013 18:22:26.727,897.377
42,7 Dec 2013 19:54:19.957,7 Dec 2013 20:08:50.503,870.545
43,7 Dec 2013 21:37:59.261,7 Dec 2013 21:54:35.850,996.589

"Access","Start Time (UTCG)","Stop Time (UTCG)","Duration (sec)"
1,3 Dec 2013 01:54:14.532,3 Dec 2013 02:01:58.434,463.903
2,3 Dec 2013 03:30:47.440,3 Dec 2013 03:40:10.764,563.324
3,3 Dec 2013 05:09:06.989,3 Dec 2013 05:19:50.846,643.857
4,3 Dec 2013 06:50:06.695,3 Dec 2013 06:59:19.945,553.250
5,3 Dec 2013 14:47:22.213,3 Dec 2013 14:57:38.028,615.815
6,3 Dec 2013 16:24:17.502,3 Dec 2013 16:40:46.391,988.889
7,3 Dec 2013 18:10:08.294,3 Dec 2013 18:23:31.539,803.244
8,3 Dec 2013 19:56:57.469,3 Dec 2013 20:10:52.649,835.180
9,3 Dec 2013 21:35:57.196,3 Dec 2013 21:51:04.839,907.643
10,3 Dec 2013 23:13:30.733,3 Dec 2013 23:29:03.792,933.059
11,4 Dec 2013 00:52:16.655,4 Dec 2013 01:07:49.370,932.715
12,4 Dec 2013 02:32:46.962,4 Dec 2013 02:48:05.507,918.545
13,4 Dec 2013 04:14:40.716,4 Dec 2013 04:30:13.443,932.727
14,4 Dec 2013 05:57:03.374,4 Dec 2013 06:13:27.459,984.085
15,4 Dec 2013 07:36:50.034,4 Dec 2013 07:46:57.633,607.599
16,4 Dec 2013 12:14:49.253,4 Dec 2013 12:24:20.227,570.974
17,4 Dec 2013 13:49:17.840,4 Dec 2013 14:05:26.370,968.530
18,4 Dec 2013 15:34:36.459,4 Dec 2013 15:44:27.317,590.858
19,4 Dec 2013 17:15:54.030,4 Dec 2013 17:26:57.519,663.489
20,4 Dec 2013 18:53:49.778,4 Dec 2013 19:06:50.263,780.485
21,4 Dec 2013 20:32:18.111,4 Dec 2013 20:44:55.525,757.414
22,4 Dec 2013 22:12:54.830,4 Dec 2013 22:21:45.834,531.003
23,5 Dec 2013 03:19:47.890,5 Dec 2013 03:32:25.724,757.833
24,5 Dec 2013 04:57:11.720,5 Dec 2013 05:12:14.941,903.222
25,5 Dec 2013 09:41:33.568,5 Dec 2013 09:47:36.943,363.374
26,5 Dec 2013 11:12:28.764,5 Dec 2013 11:28:04.689,935.925
27,5 Dec 2013 12:53:01.153,5 Dec 2013 13:09:15.205,974.051
28,5 Dec 2013 14:32:59.111,5 Dec 2013 14:48:54.949,955.838
29,5 Dec 2013 16:11:23.972,5 Dec 2013 16:27:03.528,939.555
30,5 Dec 2013 17:48:41.099,5 Dec 2013 18:04:20.032,938.933
31,5 Dec 2013 19:26:07.056,5 Dec 2013 19:41:02.228,895.172
32,5 Dec 2013 21:06:24.700,5 Dec 2013 21:15:49.105,564.405
33,6 Dec 2013 00:40:33.698,6 Dec 2013 00:52:56.779,743.081
34,6 Dec 2013 02:20:10.021,6 Dec 2013 02:36:05.982,955.962
35,6 Dec 2013 04:02:31.018,6 Dec 2013 04:08:00.862,329.844
36,6 Dec 2013 16:51:29.649,6 Dec 2013 17:00:07.144,517.495
37,6 Dec 2013 18:29:25.935,6 Dec 2013 18:46:04.545,998.610
38,6 Dec 2013 20:16:16.741,6 Dec 2013 20:29:41.785,805.045
39,6 Dec 2013 22:02:47.528,6 Dec 2013 22:17:01.905,854.377
40,6 Dec 2013 23:45:18.636,7 Dec 2013 00:01:40.921,982.285
41,7 Dec 2013 01:29:58.373,7 Dec 2013 01:35:46.409,348.036
42,7 Dec 2013 15:58:08.061,7 Dec 2013 16:13:33.171,925.110
43,7 Dec 2013 17:40:46.430,7 Dec 2013 17:56:30.812,944.382
44,7 Dec 2013 19:27:56.968,7 Dec 2013 19:41:53.622,836.653
45,7 Dec 2013 21:12:11.014,7 Dec 2013 21:28:44.094,993.080

