Raw and processed data/Inclination variations/us_greatcircle_12sat_80deg/Aircraft-B747LAX_Narita-Transmitter-adsb_out6211-To-Satellite-700km_80deg_p1_1-Receiver-adsb_satrcvr2 Access.csv

"Access","Start Time (UTCG)","Stop Time (UTCG)","Duration (sec)"
1,3 Dec 2013 06:01:59.674,3 Dec 2013 06:17:32.827,933.153
2,3 Dec 2013 07:45:20.057,3 Dec 2013 07:56:24.731,664.674
3,3 Dec 2013 13:01:42.555,3 Dec 2013 13:09:13.803,451.248
4,3 Dec 2013 14:38:33.110,3 Dec 2013 14:50:20.327,707.217
5,3 Dec 2013 16:17:16.726,3 Dec 2013 16:30:26.990,790.265
6,3 Dec 2013 17:57:11.240,3 Dec 2013 18:11:08.144,836.904
7,3 Dec 2013 19:37:55.583,3 Dec 2013 19:52:53.260,897.676
8,3 Dec 2013 21:17:40.306,3 Dec 2013 21:32:26.063,885.756
9,4 Dec 2013 03:27:50.661,4 Dec 2013 03:40:50.715,780.053
10,4 Dec 2013 05:05:39.519,4 Dec 2013 05:19:45.718,846.199
11,4 Dec 2013 18:40:37.648,4 Dec 2013 18:56:42.197,964.549
12,5 Dec 2013 02:30:22.144,5 Dec 2013 02:44:00.245,818.101
13,5 Dec 2013 04:10:02.728,5 Dec 2013 04:25:15.439,912.710
14,5 Dec 2013 05:49:33.914,5 Dec 2013 06:05:13.183,939.270
15,5 Dec 2013 07:28:22.239,5 Dec 2013 07:44:09.874,947.634
16,5 Dec 2013 09:06:36.066,5 Dec 2013 09:22:17.194,941.128
17,5 Dec 2013 10:45:02.725,5 Dec 2013 10:59:32.136,869.411
18,5 Dec 2013 16:05:14.116,5 Dec 2013 16:21:06.866,952.750
19,5 Dec 2013 17:47:53.108,5 Dec 2013 17:58:44.381,651.273
20,6 Dec 2013 08:10:27.697,6 Dec 2013 08:26:24.923,957.226
21,6 Dec 2013 09:55:26.298,6 Dec 2013 10:07:30.251,723.953
22,6 Dec 2013 13:31:44.972,6 Dec 2013 13:45:10.872,805.901
23,6 Dec 2013 15:13:34.943,6 Dec 2013 15:28:55.485,920.542
24,7 Dec 2013 05:38:30.282,7 Dec 2013 05:52:03.684,813.402
25,7 Dec 2013 07:18:17.225,7 Dec 2013 07:32:58.366,881.141
26,7 Dec 2013 12:38:08.972,7 Dec 2013 12:50:01.284,712.312
27,7 Dec 2013 14:15:03.530,7 Dec 2013 14:29:42.264,878.734
28,7 Dec 2013 15:53:13.882,7 Dec 2013 16:08:47.076,933.194
29,7 Dec 2013 17:32:22.862,7 Dec 2013 17:48:20.582,957.720
30,7 Dec 2013 19:12:30.773,7 Dec 2013 19:28:42.251,971.478
31,7 Dec 2013 20:53:36.627,7 Dec 2013 21:09:32.129,955.502
32,8 Dec 2013 03:06:32.757,8 Dec 2013 03:15:36.020,543.263
33,8 Dec 2013 04:41:00.737,8 Dec 2013 04:56:44.710,943.973
34,8 Dec 2013 18:16:46.289,8 Dec 2013 18:32:11.885,925.596
35,8 Dec 2013 19:57:20.325,8 Dec 2013 20:08:09.789,649.464
36,9 Dec 2013 02:03:55.659,9 Dec 2013 02:17:41.024,825.365

"Access","Start Time (UTCG)","Stop Time (UTCG)","Duration (sec)"
1,3 Dec 2013 05:38:13.461,3 Dec 2013 05:52:04.210,830.749
2,3 Dec 2013 07:18:02.892,3 Dec 2013 07:32:15.707,852.814
3,3 Dec 2013 12:38:22.136,3 Dec 2013 12:43:05.033,282.897
4,3 Dec 2013 14:14:06.055,3 Dec 2013 14:25:15.744,669.689
5,3 Dec 2013 15:52:28.475,3 Dec 2013 16:05:24.287,775.812
6,3 Dec 2013 17:32:06.990,3 Dec 2013 17:45:52.160,825.170
7,3 Dec 2013 19:12:41.140,3 Dec 2013 19:27:21.377,880.237
8,3 Dec 2013 20:52:46.971,3 Dec 2013 21:08:32.078,945.108
9,4 Dec 2013 03:05:46.160,4 Dec 2013 03:14:52.451,546.291
10,4 Dec 2013 04:39:59.742,4 Dec 2013 04:55:36.252,936.509
11,4 Dec 2013 18:15:49.458,4 Dec 2013 18:31:28.505,939.046
12,4 Dec 2013 19:57:01.858,4 Dec 2013 20:07:27.730,625.872
13,5 Dec 2013 02:05:34.859,5 Dec 2013 02:18:24.419,769.560
14,5 Dec 2013 03:45:06.101,5 Dec 2013 04:00:04.901,898.800
15,5 Dec 2013 05:24:44.592,5 Dec 2013 05:40:19.968,935.375
16,5 Dec 2013 07:03:44.389,5 Dec 2013 07:19:30.720,946.331
17,5 Dec 2013 08:42:03.927,5 Dec 2013 08:57:49.652,945.726
18,5 Dec 2013 10:20:20.671,5 Dec 2013 10:35:19.938,899.267
19,5 Dec 2013 12:07:26.371,5 Dec 2013 12:13:00.831,334.460
20,5 Dec 2013 15:40:14.380,5 Dec 2013 15:54:41.961,867.581
21,5 Dec 2013 17:21:33.584,5 Dec 2013 17:35:44.789,851.205
22,6 Dec 2013 07:46:08.779,6 Dec 2013 08:00:30.138,861.359
23,6 Dec 2013 09:27:58.933,6 Dec 2013 09:42:31.507,872.574
24,6 Dec 2013 13:06:53.402,6 Dec 2013 13:17:07.098,613.696
25,6 Dec 2013 14:47:44.672,6 Dec 2013 15:04:05.866,981.194
26,6 Dec 2013 16:33:36.819,6 Dec 2013 16:38:04.613,267.795
27,7 Dec 2013 05:15:57.494,7 Dec 2013 05:25:43.320,585.826
28,7 Dec 2013 06:52:10.141,7 Dec 2013 07:08:07.252,957.111
29,7 Dec 2013 12:14:18.307,7 Dec 2013 12:24:43.010,624.703
30,7 Dec 2013 13:50:40.924,7 Dec 2013 14:04:54.389,853.465
31,7 Dec 2013 15:28:35.764,7 Dec 2013 15:43:59.800,924.035
32,7 Dec 2013 17:07:30.072,7 Dec 2013 17:23:22.788,952.717
33,7 Dec 2013 18:47:23.375,7 Dec 2013 19:03:32.718,969.343
34,7 Dec 2013 20:28:14.438,7 Dec 2013 20:44:19.607,965.168
35,7 Dec 2013 22:10:42.342,7 Dec 2013 22:17:42.940,420.597
36,8 Dec 2013 04:16:07.112,8 Dec 2013 04:32:02.325,955.214
37,8 Dec 2013 17:52:32.384,8 Dec 2013 18:06:06.066,813.681
38,8 Dec 2013 19:31:34.738,8 Dec 2013 19:45:30.447,835.709
39,9 Dec 2013 01:40:32.532,9 Dec 2013 01:54:10.827,818.295

"Access","Start Time (UTCG)","Stop Time (UTCG)","Duration (sec)"
1,3 Dec 2013 05:15:32.432,3 Dec 2013 05:26:01.369,628.937
2,3 Dec 2013 06:51:53.571,3 Dec 2013 07:07:37.652,944.081
3,3 Dec 2013 13:49:46.433,3 Dec 2013 14:00:06.063,619.629
4,3 Dec 2013 15:27:44.901,3 Dec 2013 15:40:23.049,758.147
5,3 Dec 2013 17:07:06.260,3 Dec 2013 17:20:40.269,814.010
6,3 Dec 2013 18:47:28.710,3 Dec 2013 19:01:52.916,864.206
7,3 Dec 2013 20:28:14.949,3 Dec 2013 20:43:53.224,938.274
8,3 Dec 2013 22:09:07.601,3 Dec 2013 22:17:13.172,485.570
9,4 Dec 2013 04:15:10.363,4 Dec 2013 04:31:01.827,951.464
10,4 Dec 2013 17:51:20.667,4 Dec 2013 18:05:23.823,843.156
11,4 Dec 2013 19:31:05.094,4 Dec 2013 19:44:51.326,826.232
12,5 Dec 2013 01:40:55.621,5 Dec 2013 01:52:38.046,702.425
13,5 Dec 2013 03:20:09.598,5 Dec 2013 03:34:49.300,879.702
14,5 Dec 2013 04:59:52.643,5 Dec 2013 05:15:22.730,930.086
15,5 Dec 2013 06:39:03.832,5 Dec 2013 06:54:48.360,944.528
16,5 Dec 2013 08:17:31.422,5 Dec 2013 08:33:19.239,947.817
17,5 Dec 2013 09:55:43.221,5 Dec 2013 10:11:02.813,919.592
18,5 Dec 2013 11:37:54.908,5 Dec 2013 11:49:09.337,674.429
19,5 Dec 2013 15:15:30.784,5 Dec 2013 15:27:19.639,708.854
20,5 Dec 2013 16:55:50.339,5 Dec 2013 17:11:38.877,948.538
21,6 Dec 2013 07:22:57.604,6 Dec 2013 07:33:54.902,657.298
22,6 Dec 2013 09:01:24.152,6 Dec 2013 09:17:20.809,956.657
23,6 Dec 2013 12:42:51.762,6 Dec 2013 12:47:23.912,272.150
24,6 Dec 2013 14:22:12.300,6 Dec 2013 14:38:32.103,979.803
25,6 Dec 2013 16:07:39.539,6 Dec 2013 16:15:24.770,465.231
26,7 Dec 2013 06:26:50.410,7 Dec 2013 06:43:02.254,971.844
27,7 Dec 2013 08:14:09.780,7 Dec 2013 08:21:08.225,418.445
28,7 Dec 2013 11:50:49.126,7 Dec 2013 11:59:01.695,492.570
29,7 Dec 2013 13:26:23.329,7 Dec 2013 13:40:03.124,819.795
30,7 Dec 2013 15:04:01.257,7 Dec 2013 15:19:13.829,912.571
31,7 Dec 2013 16:42:41.002,7 Dec 2013 16:58:28.125,947.123
32,7 Dec 2013 18:22:19.556,7 Dec 2013 18:38:25.696,966.140
33,7 Dec 2013 20:02:56.221,7 Dec 2013 20:19:06.478,970.257
34,7 Dec 2013 21:44:19.039,7 Dec 2013 21:56:21.552,722.513
35,8 Dec 2013 03:51:58.463,8 Dec 2013 04:07:01.968,903.505
36,8 Dec 2013 05:33:36.566,8 Dec 2013 05:44:48.419,671.854
37,8 Dec 2013 17:29:08.772,8 Dec 2013 17:38:35.309,566.538
38,8 Dec 2013 19:06:19.871,8 Dec 2013 19:21:50.715,930.844
39,9 Dec 2013 01:18:12.070,9 Dec 2013 01:28:31.031,618.961

"Access","Start Time (UTCG)","Stop Time (UTCG)","Duration (sec)"
1,3 Dec 2013 06:26:34.137,3 Dec 2013 06:42:42.691,968.553
2,3 Dec 2013 08:15:27.589,3 Dec 2013 08:18:31.723,184.134
3,3 Dec 2013 13:25:36.738,3 Dec 2013 13:34:47.664,550.926
4,3 Dec 2013 15:03:06.302,3 Dec 2013 15:15:22.180,735.878
5,3 Dec 2013 16:42:09.406,3 Dec 2013 16:55:32.073,802.667
6,3 Dec 2013 18:22:18.618,3 Dec 2013 18:36:28.407,849.789
7,3 Dec 2013 20:03:11.831,3 Dec 2013 20:18:27.774,915.943
8,3 Dec 2013 21:42:58.932,3 Dec 2013 21:55:29.117,750.185
9,4 Dec 2013 03:51:05.888,4 Dec 2013 04:06:07.623,901.735
10,4 Dec 2013 05:32:34.287,4 Dec 2013 05:43:08.155,633.868
11,4 Dec 2013 17:27:27.599,4 Dec 2013 17:38:06.453,638.854
12,4 Dec 2013 19:05:41.847,4 Dec 2013 19:21:10.753,928.907
13,5 Dec 2013 01:17:38.223,5 Dec 2013 01:26:36.316,538.093
14,5 Dec 2013 02:55:14.421,5 Dec 2013 03:09:28.052,853.631
15,5 Dec 2013 04:34:58.494,5 Dec 2013 04:50:21.294,922.800
16,5 Dec 2013 06:14:20.358,5 Dec 2013 06:30:02.586,942.227
17,5 Dec 2013 07:52:57.750,5 Dec 2013 08:08:46.001,948.251
18,5 Dec 2013 09:31:08.792,5 Dec 2013 09:46:41.701,932.909
19,5 Dec 2013 11:10:07.067,5 Dec 2013 11:24:20.939,853.872
20,5 Dec 2013 14:51:26.856,5 Dec 2013 14:58:28.179,421.323
21,5 Dec 2013 16:30:25.773,5 Dec 2013 16:46:44.864,979.091
22,6 Dec 2013 08:35:34.398,6 Dec 2013 08:51:59.437,985.039
23,6 Dec 2013 10:24:04.181,6 Dec 2013 10:32:06.126,481.945
24,6 Dec 2013 13:56:52.742,6 Dec 2013 14:12:15.359,922.617
25,6 Dec 2013 15:39:56.269,6 Dec 2013 15:52:49.725,773.455
26,7 Dec 2013 06:02:15.367,7 Dec 2013 06:17:43.042,927.676
27,7 Dec 2013 07:45:23.515,7 Dec 2013 07:57:29.396,725.881
28,7 Dec 2013 11:28:29.371,7 Dec 2013 11:32:10.176,220.806
29,7 Dec 2013 13:02:11.973,7 Dec 2013 13:15:06.398,774.425
30,7 Dec 2013 14:39:30.448,7 Dec 2013 14:54:28.323,897.874
31,7 Dec 2013 16:17:55.619,7 Dec 2013 16:33:36.346,940.727
32,7 Dec 2013 17:57:19.371,7 Dec 2013 18:13:21.568,962.197
33,7 Dec 2013 19:37:41.708,7 Dec 2013 19:53:53.737,972.029
34,7 Dec 2013 21:18:58.149,7 Dec 2013 21:33:29.555,871.405
35,8 Dec 2013 03:28:39.584,8 Dec 2013 03:41:39.793,780.209
36,8 Dec 2013 05:06:43.858,8 Dec 2013 05:21:05.598,861.740
37,8 Dec 2013 18:41:24.174,8 Dec 2013 18:57:24.039,959.865
38,8 Dec 2013 20:24:57.148,8 Dec 2013 20:28:24.954,207.806

"Access","Start Time (UTCG)","Stop Time (UTCG)","Duration (sec)"
1,3 Dec 2013 03:07:41.158,3 Dec 2013 03:23:34.697,953.539
2,3 Dec 2013 04:49:27.533,3 Dec 2013 04:57:33.459,485.926
3,3 Dec 2013 10:55:07.977,3 Dec 2013 11:10:48.946,940.969
4,3 Dec 2013 12:35:54.037,3 Dec 2013 12:52:05.189,971.152
5,3 Dec 2013 14:16:19.807,3 Dec 2013 14:32:21.760,961.953
6,3 Dec 2013 15:55:58.346,3 Dec 2013 16:11:39.391,941.045
7,3 Dec 2013 17:35:02.165,3 Dec 2013 17:49:58.956,896.791
8,3 Dec 2013 19:14:25.752,3 Dec 2013 19:27:10.557,764.805
9,4 Dec 2013 00:31:47.518,4 Dec 2013 00:46:53.642,906.124
10,4 Dec 2013 02:13:14.623,4 Dec 2013 02:26:16.685,782.062
11,4 Dec 2013 16:36:35.092,4 Dec 2013 16:51:59.459,924.368
12,4 Dec 2013 18:20:18.827,4 Dec 2013 18:33:40.171,801.345
13,4 Dec 2013 21:57:45.189,4 Dec 2013 22:10:05.215,740.026
14,4 Dec 2013 23:39:03.919,4 Dec 2013 23:54:57.277,953.358
15,5 Dec 2013 14:06:01.982,5 Dec 2013 14:17:40.846,698.865
16,5 Dec 2013 15:44:05.495,5 Dec 2013 15:59:44.105,938.610
17,5 Dec 2013 21:05:43.031,5 Dec 2013 21:19:39.111,836.080
18,5 Dec 2013 22:42:45.151,5 Dec 2013 22:58:19.507,934.356
19,6 Dec 2013 00:20:44.966,6 Dec 2013 00:36:34.264,949.298
20,6 Dec 2013 01:59:33.540,6 Dec 2013 02:15:18.169,944.630
21,6 Dec 2013 03:39:21.063,6 Dec 2013 03:54:46.450,925.387
22,6 Dec 2013 05:20:21.160,6 Dec 2013 05:34:33.902,852.742
23,6 Dec 2013 11:36:07.768,6 Dec 2013 11:40:44.883,277.116
24,6 Dec 2013 13:07:57.005,6 Dec 2013 13:23:58.584,961.579
25,7 Dec 2013 02:44:22.622,7 Dec 2013 02:58:51.734,869.111
26,7 Dec 2013 04:23:45.684,7 Dec 2013 04:36:26.996,761.312
27,7 Dec 2013 10:31:49.334,7 Dec 2013 10:46:38.839,889.505
28,7 Dec 2013 12:11:23.149,7 Dec 2013 12:26:39.675,916.527
29,7 Dec 2013 13:53:14.379,7 Dec 2013 14:07:29.028,854.650
30,7 Dec 2013 15:34:03.064,7 Dec 2013 15:47:31.640,808.576
31,7 Dec 2013 17:14:09.240,7 Dec 2013 17:26:26.945,737.705
32,7 Dec 2013 18:54:48.422,7 Dec 2013 19:03:45.716,537.294
33,8 Dec 2013 00:07:50.972,8 Dec 2013 00:19:59.261,728.289
34,8 Dec 2013 01:47:25.114,8 Dec 2013 02:02:46.290,921.177
35,8 Dec 2013 11:22:18.112,8 Dec 2013 11:28:45.588,387.475
36,8 Dec 2013 12:59:12.562,8 Dec 2013 13:08:46.310,573.748
37,8 Dec 2013 14:35:41.410,8 Dec 2013 14:47:34.332,712.922
38,8 Dec 2013 16:11:39.765,8 Dec 2013 16:25:51.246,851.481
39,8 Dec 2013 17:52:48.992,8 Dec 2013 18:07:53.362,904.370
40,8 Dec 2013 21:32:50.477,8 Dec 2013 21:41:22.575,512.098
41,8 Dec 2013 23:12:56.059,8 Dec 2013 23:29:19.678,983.619

"Access","Start Time (UTCG)","Stop Time (UTCG)","Duration (sec)"
1,3 Dec 2013 02:43:10.294,3 Dec 2013 02:57:57.104,886.810
2,3 Dec 2013 04:23:07.805,3 Dec 2013 04:35:41.911,754.106
3,3 Dec 2013 10:30:42.904,3 Dec 2013 10:45:18.633,875.730
4,3 Dec 2013 12:10:42.497,3 Dec 2013 12:26:51.988,969.490
5,3 Dec 2013 13:51:17.433,3 Dec 2013 14:07:23.085,965.652
6,3 Dec 2013 15:31:08.108,3 Dec 2013 15:46:55.505,947.397
7,3 Dec 2013 17:10:17.332,3 Dec 2013 17:25:29.515,912.183
8,3 Dec 2013 18:49:27.744,3 Dec 2013 19:03:01.370,813.627
9,3 Dec 2013 20:32:05.137,3 Dec 2013 20:38:32.570,387.433
10,4 Dec 2013 00:07:03.963,4 Dec 2013 00:19:59.159,775.197
11,4 Dec 2013 01:47:25.210,4 Dec 2013 02:02:39.282,914.072
12,4 Dec 2013 16:12:39.902,4 Dec 2013 16:25:44.751,784.850
13,4 Dec 2013 17:53:14.335,4 Dec 2013 18:08:33.371,919.036
14,4 Dec 2013 21:33:03.731,4 Dec 2013 21:41:33.925,510.195
15,4 Dec 2013 23:13:25.182,4 Dec 2013 23:29:51.475,986.292
16,5 Dec 2013 13:45:02.550,5 Dec 2013 13:49:56.802,294.252
17,5 Dec 2013 15:18:22.869,5 Dec 2013 15:34:38.882,976.014
18,5 Dec 2013 17:07:56.951,5 Dec 2013 17:12:20.743,263.792
19,5 Dec 2013 20:41:26.560,5 Dec 2013 20:54:43.099,796.539
20,5 Dec 2013 22:18:22.934,5 Dec 2013 22:33:44.932,921.998
21,5 Dec 2013 23:56:10.658,6 Dec 2013 00:11:59.284,948.626
22,6 Dec 2013 01:34:46.344,6 Dec 2013 01:50:32.963,946.620
23,6 Dec 2013 03:14:18.012,6 Dec 2013 03:29:50.862,932.850
24,6 Dec 2013 04:54:58.083,6 Dec 2013 05:09:38.349,880.266
25,6 Dec 2013 06:37:25.939,6 Dec 2013 06:46:40.155,554.216
26,6 Dec 2013 12:43:24.101,6 Dec 2013 12:59:01.456,937.355
27,6 Dec 2013 14:27:07.533,6 Dec 2013 14:36:22.217,554.684
28,7 Dec 2013 02:20:41.505,7 Dec 2013 02:32:08.460,686.955
29,7 Dec 2013 03:58:22.772,7 Dec 2013 04:13:15.899,893.127
30,7 Dec 2013 10:08:45.209,7 Dec 2013 10:21:23.368,758.159
31,7 Dec 2013 11:45:48.472,7 Dec 2013 12:01:22.315,933.843
32,7 Dec 2013 13:27:52.050,7 Dec 2013 13:42:20.171,868.121
33,7 Dec 2013 15:08:56.506,7 Dec 2013 15:22:36.621,820.116
34,7 Dec 2013 16:49:08.791,7 Dec 2013 17:01:50.357,761.566
35,7 Dec 2013 18:29:27.364,7 Dec 2013 18:39:39.664,612.300
36,7 Dec 2013 23:44:22.023,7 Dec 2013 23:51:13.359,411.336
37,8 Dec 2013 01:22:07.873,8 Dec 2013 01:38:16.881,969.008
38,8 Dec 2013 10:58:17.453,8 Dec 2013 11:03:16.554,299.101
39,8 Dec 2013 12:34:58.769,8 Dec 2013 12:43:56.168,537.400
40,8 Dec 2013 14:11:38.384,8 Dec 2013 14:22:55.862,677.478
41,8 Dec 2013 15:47:40.522,8 Dec 2013 16:01:19.590,819.068
42,8 Dec 2013 17:26:22.271,8 Dec 2013 17:42:35.712,973.441
43,8 Dec 2013 19:19:54.414,8 Dec 2013 19:20:10.063,15.649
44,8 Dec 2013 22:47:35.197,8 Dec 2013 23:03:37.269,962.072
45,9 Dec 2013 00:31:04.572,9 Dec 2013 00:41:26.875,622.303

"Access","Start Time (UTCG)","Stop Time (UTCG)","Duration (sec)"
1,3 Dec 2013 02:19:09.431,3 Dec 2013 02:31:17.025,727.594
2,3 Dec 2013 03:57:37.791,3 Dec 2013 04:12:29.187,891.395
3,3 Dec 2013 10:07:52.320,3 Dec 2013 10:19:53.841,721.521
4,3 Dec 2013 11:45:30.305,3 Dec 2013 12:01:35.071,964.767
5,3 Dec 2013 13:26:12.088,3 Dec 2013 13:42:20.739,968.651
6,3 Dec 2013 15:06:15.100,3 Dec 2013 15:22:07.959,952.858
7,3 Dec 2013 16:45:32.309,3 Dec 2013 17:00:56.386,924.076
8,3 Dec 2013 18:24:35.871,3 Dec 2013 18:38:45.531,849.661
9,3 Dec 2013 20:04:55.469,3 Dec 2013 20:14:56.831,601.361
10,3 Dec 2013 23:42:52.336,3 Dec 2013 23:51:46.717,534.382
11,4 Dec 2013 01:21:58.662,4 Dec 2013 01:38:09.213,970.551
12,4 Dec 2013 15:50:22.379,4 Dec 2013 15:58:18.631,476.252
13,4 Dec 2013 17:26:57.808,4 Dec 2013 17:43:15.524,977.716
14,4 Dec 2013 19:18:04.571,4 Dec 2013 19:22:34.716,270.145
15,4 Dec 2013 22:48:00.575,4 Dec 2013 23:04:02.708,962.132
16,5 Dec 2013 00:31:52.333,5 Dec 2013 00:42:19.120,626.788
17,5 Dec 2013 14:53:24.683,5 Dec 2013 15:09:20.847,956.164
18,5 Dec 2013 16:38:13.435,5 Dec 2013 16:49:06.200,652.765
19,5 Dec 2013 20:16:48.804,5 Dec 2013 20:27:21.182,632.378
20,5 Dec 2013 21:54:04.546,5 Dec 2013 22:09:07.750,903.204
21,5 Dec 2013 23:31:39.227,5 Dec 2013 23:47:25.695,946.469
22,6 Dec 2013 01:10:02.643,6 Dec 2013 01:25:50.712,948.070
23,6 Dec 2013 02:49:19.196,6 Dec 2013 03:04:57.340,938.144
24,6 Dec 2013 04:29:40.753,6 Dec 2013 04:44:41.107,900.353
25,6 Dec 2013 06:11:29.212,6 Dec 2013 06:24:12.791,763.579
26,6 Dec 2013 12:19:37.802,6 Dec 2013 12:33:45.940,848.138
27,6 Dec 2013 13:59:28.423,6 Dec 2013 14:12:55.187,806.764
28,7 Dec 2013 01:59:48.841,7 Dec 2013 02:02:00.901,132.060
29,7 Dec 2013 03:33:22.946,7 Dec 2013 03:49:14.100,951.155
30,7 Dec 2013 09:46:58.072,7 Dec 2013 09:55:18.902,500.830
31,7 Dec 2013 11:20:23.146,7 Dec 2013 11:36:03.103,939.957
32,7 Dec 2013 13:02:25.727,7 Dec 2013 13:17:08.787,883.059
33,7 Dec 2013 14:43:46.464,7 Dec 2013 14:57:37.628,831.165
34,7 Dec 2013 16:24:08.343,7 Dec 2013 16:37:08.743,780.400
35,7 Dec 2013 18:04:16.297,7 Dec 2013 18:15:22.778,666.481
36,7 Dec 2013 19:46:54.085,7 Dec 2013 19:50:36.407,222.322
37,8 Dec 2013 00:57:05.293,8 Dec 2013 01:13:02.615,957.322
38,8 Dec 2013 02:39:23.228,8 Dec 2013 02:48:50.347,567.119
39,8 Dec 2013 10:34:55.292,8 Dec 2013 10:37:03.405,128.113
40,8 Dec 2013 12:10:43.689,8 Dec 2013 12:19:00.733,497.044
41,8 Dec 2013 13:47:32.679,8 Dec 2013 13:58:15.366,642.687
42,8 Dec 2013 15:23:41.673,8 Dec 2013 15:36:46.146,784.473
43,8 Dec 2013 17:00:39.059,8 Dec 2013 17:17:04.974,985.914
44,8 Dec 2013 18:48:26.501,8 Dec 2013 18:57:42.286,555.785
45,8 Dec 2013 22:22:25.104,8 Dec 2013 22:37:10.049,884.945
46,9 Dec 2013 00:04:25.620,9 Dec 2013 00:18:28.743,843.123

"Access","Start Time (UTCG)","Stop Time (UTCG)","Duration (sec)"
1,3 Dec 2013 01:56:38.903,3 Dec 2013 02:02:27.076,348.174
2,3 Dec 2013 03:32:30.831,3 Dec 2013 03:48:24.546,953.716
3,3 Dec 2013 09:46:34.652,3 Dec 2013 09:53:28.013,413.362
4,3 Dec 2013 11:20:18.428,3 Dec 2013 11:36:14.196,955.769
5,3 Dec 2013 13:01:04.121,3 Dec 2013 13:17:14.767,970.646
6,3 Dec 2013 14:41:19.039,3 Dec 2013 14:57:16.716,957.678
7,3 Dec 2013 16:20:46.224,3 Dec 2013 16:36:19.671,933.447
8,3 Dec 2013 17:59:47.903,3 Dec 2013 18:14:24.454,876.551
9,3 Dec 2013 19:39:33.149,3 Dec 2013 19:51:10.639,697.491
10,4 Dec 2013 00:56:46.762,4 Dec 2013 01:12:54.239,967.478
11,4 Dec 2013 02:39:56.758,4 Dec 2013 02:48:29.810,513.052
12,4 Dec 2013 17:01:24.441,4 Dec 2013 17:17:45.756,981.315
13,4 Dec 2013 18:48:22.593,4 Dec 2013 18:58:31.578,608.985
14,4 Dec 2013 22:22:47.040,4 Dec 2013 22:37:29.576,882.536
15,5 Dec 2013 00:05:04.989,5 Dec 2013 00:19:14.379,849.390
16,5 Dec 2013 14:29:13.182,5 Dec 2013 14:43:45.907,872.725
17,5 Dec 2013 16:10:37.399,5 Dec 2013 16:24:35.901,838.503
18,5 Dec 2013 19:54:00.722,5 Dec 2013 19:56:43.698,162.977
19,5 Dec 2013 21:29:50.810,5 Dec 2013 21:44:26.449,875.639
20,5 Dec 2013 23:07:10.681,5 Dec 2013 23:22:52.742,942.061
21,6 Dec 2013 00:45:22.251,6 Dec 2013 01:01:11.251,949.000
22,6 Dec 2013 02:24:24.429,6 Dec 2013 02:40:06.339,941.910
23,6 Dec 2013 04:04:28.552,6 Dec 2013 04:19:43.466,914.915
24,6 Dec 2013 05:45:50.997,6 Dec 2013 05:59:26.121,815.125
25,6 Dec 2013 11:56:50.313,6 Dec 2013 12:08:01.411,671.098
26,6 Dec 2013 13:33:15.573,6 Dec 2013 13:48:38.515,922.941
27,7 Dec 2013 03:08:41.787,7 Dec 2013 03:24:27.312,945.525
28,7 Dec 2013 04:49:54.745,7 Dec 2013 04:58:21.542,506.798
29,7 Dec 2013 10:55:43.839,7 Dec 2013 11:11:28.405,944.565
30,7 Dec 2013 12:36:55.864,7 Dec 2013 12:51:55.204,899.340
31,7 Dec 2013 14:18:32.506,7 Dec 2013 14:32:34.976,842.471
32,7 Dec 2013 15:59:06.753,7 Dec 2013 16:12:22.428,795.674
33,7 Dec 2013 17:39:11.118,7 Dec 2013 17:50:58.035,706.917
34,7 Dec 2013 19:20:27.654,7 Dec 2013 19:27:33.907,426.253
35,8 Dec 2013 00:32:17.346,8 Dec 2013 00:47:00.853,883.507
36,8 Dec 2013 02:13:02.960,8 Dec 2013 02:26:25.288,802.328
37,8 Dec 2013 11:46:29.092,8 Dec 2013 11:53:58.196,449.104
38,8 Dec 2013 13:23:24.039,8 Dec 2013 13:33:32.403,608.364
39,8 Dec 2013 14:59:42.260,8 Dec 2013 15:12:11.055,748.794
40,8 Dec 2013 16:35:40.399,8 Dec 2013 16:51:16.890,936.491
41,8 Dec 2013 18:20:05.449,8 Dec 2013 18:32:58.026,772.577
42,8 Dec 2013 21:57:26.875,8 Dec 2013 22:09:50.866,743.991
43,8 Dec 2013 23:38:30.322,8 Dec 2013 23:54:18.721,948.399

"Access","Start Time (UTCG)","Stop Time (UTCG)","Duration (sec)"
1,3 Dec 2013 01:02:42.617,3 Dec 2013 01:17:21.659,879.042
2,3 Dec 2013 02:45:20.918,3 Dec 2013 02:59:36.556,855.638
3,3 Dec 2013 06:24:01.535,3 Dec 2013 06:34:46.579,645.044
4,3 Dec 2013 08:04:44.517,3 Dec 2013 08:20:59.074,974.556
5,3 Dec 2013 22:33:59.586,3 Dec 2013 22:42:37.054,517.468
6,4 Dec 2013 00:10:00.381,4 Dec 2013 00:26:10.695,970.314
7,4 Dec 2013 05:32:03.741,4 Dec 2013 05:47:30.335,926.594
8,4 Dec 2013 07:10:43.579,4 Dec 2013 07:26:19.688,936.109
9,4 Dec 2013 08:48:40.942,4 Dec 2013 09:03:37.026,896.083
10,4 Dec 2013 10:27:16.242,4 Dec 2013 10:41:23.756,847.514
11,4 Dec 2013 12:06:48.244,4 Dec 2013 12:19:53.236,784.992
12,4 Dec 2013 13:47:53.468,4 Dec 2013 13:58:25.035,631.568
13,4 Dec 2013 21:34:56.491,4 Dec 2013 21:50:54.710,958.219
14,4 Dec 2013 23:20:57.214,4 Dec 2013 23:27:44.414,407.200
15,5 Dec 2013 06:11:43.570,5 Dec 2013 06:19:40.726,477.156
16,5 Dec 2013 07:51:03.142,5 Dec 2013 08:00:15.358,552.217
17,5 Dec 2013 09:31:43.215,5 Dec 2013 09:41:31.915,588.700
18,5 Dec 2013 11:12:22.133,5 Dec 2013 11:25:24.678,782.545
19,5 Dec 2013 12:50:34.466,5 Dec 2013 13:04:30.381,835.916
20,5 Dec 2013 18:59:46.802,5 Dec 2013 19:13:52.287,845.485
21,5 Dec 2013 20:39:02.737,5 Dec 2013 20:51:52.322,769.585
22,5 Dec 2013 22:22:34.026,5 Dec 2013 22:32:56.436,622.410
23,6 Dec 2013 00:04:03.708,6 Dec 2013 00:13:41.349,577.641
24,6 Dec 2013 01:44:37.934,6 Dec 2013 01:53:15.165,517.230
25,6 Dec 2013 03:26:31.585,6 Dec 2013 03:30:15.121,223.536
26,6 Dec 2013 08:35:50.795,6 Dec 2013 08:44:45.924,535.129
27,6 Dec 2013 10:13:52.177,6 Dec 2013 10:29:46.245,954.068
28,6 Dec 2013 18:06:56.279,6 Dec 2013 18:16:15.718,559.439
29,6 Dec 2013 19:45:11.147,6 Dec 2013 19:57:46.897,755.750
30,6 Dec 2013 21:23:41.682,6 Dec 2013 21:37:30.975,829.293
31,6 Dec 2013 23:01:32.217,6 Dec 2013 23:16:13.625,881.408
32,7 Dec 2013 00:38:47.915,7 Dec 2013 00:54:17.111,929.196
33,7 Dec 2013 02:18:02.575,7 Dec 2013 02:33:35.520,932.945
34,7 Dec 2013 06:00:23.041,7 Dec 2013 06:04:44.546,261.505
35,7 Dec 2013 07:38:57.830,7 Dec 2013 07:55:14.770,976.940
36,7 Dec 2013 09:23:21.418,7 Dec 2013 09:30:37.833,436.415
37,7 Dec 2013 23:44:20.969,8 Dec 2013 00:00:37.475,976.507
38,8 Dec 2013 01:30:50.803,8 Dec 2013 01:40:59.659,608.856
39,8 Dec 2013 05:05:55.827,8 Dec 2013 05:20:08.894,853.067
40,8 Dec 2013 06:48:16.838,8 Dec 2013 07:02:47.720,870.882
41,8 Dec 2013 08:27:11.697,8 Dec 2013 08:38:08.695,656.998
42,8 Dec 2013 10:06:11.388,8 Dec 2013 10:13:37.509,446.121
43,8 Dec 2013 11:47:09.636,8 Dec 2013 11:48:37.994,88.358
44,8 Dec 2013 21:11:11.017,8 Dec 2013 21:25:59.608,888.591
45,8 Dec 2013 22:52:40.494,8 Dec 2013 23:05:47.995,787.501

"Access","Start Time (UTCG)","Stop Time (UTCG)","Duration (sec)"
1,3 Dec 2013 02:18:34.336,3 Dec 2013 02:34:24.324,949.988
2,3 Dec 2013 05:59:48.343,3 Dec 2013 06:05:27.035,338.692
3,3 Dec 2013 07:39:16.080,3 Dec 2013 07:55:36.439,980.359
4,3 Dec 2013 09:24:20.973,3 Dec 2013 09:31:07.566,406.593
5,3 Dec 2013 23:44:39.008,4 Dec 2013 00:00:53.529,974.521
6,4 Dec 2013 01:31:12.768,4 Dec 2013 01:40:36.417,563.649
7,4 Dec 2013 05:06:59.571,4 Dec 2013 05:20:23.669,804.098
8,4 Dec 2013 06:46:20.108,4 Dec 2013 07:01:59.467,939.360
9,4 Dec 2013 08:24:08.354,4 Dec 2013 08:39:16.431,908.077
10,4 Dec 2013 10:02:33.107,4 Dec 2013 10:16:52.788,859.680
11,4 Dec 2013 11:41:48.371,4 Dec 2013 11:55:12.948,804.577
12,4 Dec 2013 13:22:24.748,4 Dec 2013 13:33:52.133,687.385
13,4 Dec 2013 15:06:31.043,4 Dec 2013 15:10:12.582,221.539
14,4 Dec 2013 21:10:45.416,4 Dec 2013 21:25:42.907,897.491
15,4 Dec 2013 22:52:20.640,4 Dec 2013 23:04:41.621,740.982
16,5 Dec 2013 05:47:13.343,5 Dec 2013 05:54:25.258,431.915
17,5 Dec 2013 07:26:03.701,5 Dec 2013 07:35:06.415,542.714
18,5 Dec 2013 09:06:28.704,5 Dec 2013 09:16:04.357,575.654
19,5 Dec 2013 10:47:31.588,5 Dec 2013 10:58:35.475,663.887
20,5 Dec 2013 12:25:27.675,5 Dec 2013 12:40:55.687,928.012
21,5 Dec 2013 18:37:07.103,5 Dec 2013 18:48:19.987,672.884
22,5 Dec 2013 20:12:54.781,5 Dec 2013 20:27:53.164,898.384
23,5 Dec 2013 21:56:55.965,5 Dec 2013 22:07:40.550,644.585
24,5 Dec 2013 23:38:49.438,5 Dec 2013 23:48:34.757,585.319
25,6 Dec 2013 01:19:29.825,6 Dec 2013 01:28:31.014,541.188
26,6 Dec 2013 03:00:35.117,6 Dec 2013 03:06:30.945,355.827
27,6 Dec 2013 09:48:49.260,6 Dec 2013 10:04:54.672,965.412
28,6 Dec 2013 11:31:47.406,6 Dec 2013 11:38:33.394,405.988
29,6 Dec 2013 17:42:46.834,6 Dec 2013 17:50:18.534,451.700
30,6 Dec 2013 19:20:31.762,6 Dec 2013 19:32:37.156,725.394
31,6 Dec 2013 20:59:06.896,6 Dec 2013 21:12:41.900,815.004
32,6 Dec 2013 22:37:08.881,6 Dec 2013 22:51:37.225,868.345
33,7 Dec 2013 00:14:30.251,7 Dec 2013 00:29:49.422,919.171
34,7 Dec 2013 01:51:48.972,7 Dec 2013 02:08:13.378,984.406
35,7 Dec 2013 03:43:02.659,7 Dec 2013 03:47:13.345,250.686
36,7 Dec 2013 07:13:46.610,7 Dec 2013 07:29:12.929,926.319
37,7 Dec 2013 08:56:04.526,7 Dec 2013 09:08:42.657,758.130
38,7 Dec 2013 23:19:40.824,7 Dec 2013 23:34:58.336,917.512
39,8 Dec 2013 01:02:51.537,8 Dec 2013 01:16:15.296,803.758
40,8 Dec 2013 04:40:59.810,8 Dec 2013 04:52:24.785,684.976
41,8 Dec 2013 06:22:13.249,8 Dec 2013 06:38:20.680,967.431
42,8 Dec 2013 08:02:32.478,8 Dec 2013 08:14:19.685,707.207
43,8 Dec 2013 09:41:22.184,8 Dec 2013 09:49:42.565,500.381
44,8 Dec 2013 11:21:18.933,8 Dec 2013 11:25:19.153,240.221
45,8 Dec 2013 20:47:54.517,8 Dec 2013 21:00:13.665,739.148
46,8 Dec 2013 22:26:02.573,8 Dec 2013 22:41:16.538,913.965

"Access","Start Time (UTCG)","Stop Time (UTCG)","Duration (sec)"
1,3 Dec 2013 01:52:33.146,3 Dec 2013 02:09:00.167,987.021
2,3 Dec 2013 03:41:58.900,3 Dec 2013 03:49:04.226,425.326
3,3 Dec 2013 07:13:59.376,3 Dec 2013 07:29:30.590,931.214
4,3 Dec 2013 08:56:44.186,3 Dec 2013 09:09:17.567,753.381
5,3 Dec 2013 23:20:02.235,3 Dec 2013 23:35:21.871,919.635
6,4 Dec 2013 01:03:04.624,4 Dec 2013 01:16:08.338,783.715
7,4 Dec 2013 04:42:21.010,4 Dec 2013 04:52:10.578,589.569
8,4 Dec 2013 06:21:59.636,4 Dec 2013 06:37:36.839,937.203
9,4 Dec 2013 07:59:37.906,4 Dec 2013 08:14:57.224,919.318
10,4 Dec 2013 09:37:53.074,4 Dec 2013 09:52:24.797,871.723
11,4 Dec 2013 11:16:53.417,4 Dec 2013 11:30:34.195,820.778
12,4 Dec 2013 12:57:05.438,4 Dec 2013 13:09:14.320,728.882
13,4 Dec 2013 14:39:37.264,4 Dec 2013 14:46:55.273,438.009
14,4 Dec 2013 20:47:26.454,4 Dec 2013 21:00:08.486,762.032
15,4 Dec 2013 22:25:36.507,4 Dec 2013 22:40:28.781,892.274
16,5 Dec 2013 05:22:55.949,5 Dec 2013 05:28:59.703,363.754
17,5 Dec 2013 07:01:10.091,5 Dec 2013 07:09:58.841,528.750
18,5 Dec 2013 08:41:16.516,5 Dec 2013 08:50:43.076,566.559
19,5 Dec 2013 10:22:15.370,5 Dec 2013 10:32:47.686,632.316
20,5 Dec 2013 12:00:41.619,5 Dec 2013 12:16:34.629,953.010
21,5 Dec 2013 13:43:30.174,5 Dec 2013 13:47:30.090,239.916
22,5 Dec 2013 18:16:23.192,5 Dec 2013 18:21:22.481,299.289
23,5 Dec 2013 19:47:46.021,5 Dec 2013 20:03:35.312,949.290
24,5 Dec 2013 21:31:11.516,5 Dec 2013 21:42:24.364,672.848
25,5 Dec 2013 23:13:30.323,5 Dec 2013 23:23:24.449,594.125
26,6 Dec 2013 00:54:22.518,6 Dec 2013 01:03:40.171,557.653
27,6 Dec 2013 02:35:06.206,6 Dec 2013 02:42:18.269,432.062
28,6 Dec 2013 09:24:01.540,6 Dec 2013 09:39:17.116,915.576
29,6 Dec 2013 11:04:56.433,6 Dec 2013 11:17:02.085,725.651
30,6 Dec 2013 17:19:17.019,6 Dec 2013 17:23:39.036,262.017
31,6 Dec 2013 18:55:54.351,6 Dec 2013 19:07:20.101,685.750
32,6 Dec 2013 20:34:29.751,6 Dec 2013 20:47:48.561,798.810
33,6 Dec 2013 22:12:42.781,6 Dec 2013 22:26:58.215,855.434
34,6 Dec 2013 23:50:12.276,7 Dec 2013 00:05:19.602,907.327
35,7 Dec 2013 01:27:26.157,7 Dec 2013 01:43:05.227,939.071
36,7 Dec 2013 03:13:06.284,7 Dec 2013 03:23:30.820,624.536
37,7 Dec 2013 06:48:46.924,7 Dec 2013 07:02:22.184,815.260
38,7 Dec 2013 08:29:59.095,7 Dec 2013 08:45:05.567,906.472
39,7 Dec 2013 22:55:54.870,7 Dec 2013 23:08:53.244,778.374
40,8 Dec 2013 00:35:54.093,8 Dec 2013 00:51:13.915,919.822
41,8 Dec 2013 04:16:39.463,8 Dec 2013 04:23:17.701,398.238
42,8 Dec 2013 05:56:32.717,8 Dec 2013 06:13:00.389,987.673
43,8 Dec 2013 07:37:55.232,8 Dec 2013 07:50:30.495,755.263
44,8 Dec 2013 09:16:36.266,8 Dec 2013 09:25:49.534,553.268
45,8 Dec 2013 10:56:05.904,8 Dec 2013 11:01:29.298,323.394
46,8 Dec 2013 20:26:12.942,8 Dec 2013 20:33:25.365,432.423
47,8 Dec 2013 22:00:19.527,8 Dec 2013 22:16:25.926,966.399

"Access","Start Time (UTCG)","Stop Time (UTCG)","Duration (sec)"
1,3 Dec 2013 01:27:14.584,3 Dec 2013 01:43:21.685,967.101
2,3 Dec 2013 03:13:01.649,3 Dec 2013 03:24:34.933,693.284
3,3 Dec 2013 06:48:53.316,3 Dec 2013 07:02:37.440,824.124
4,3 Dec 2013 08:30:29.587,3 Dec 2013 08:45:36.748,907.161
5,3 Dec 2013 22:56:18.177,3 Dec 2013 23:09:26.806,788.630
6,4 Dec 2013 00:36:06.621,4 Dec 2013 00:51:16.140,909.519
7,4 Dec 2013 05:57:24.642,4 Dec 2013 06:13:10.602,945.961
8,4 Dec 2013 07:35:09.602,4 Dec 2013 07:50:38.607,929.004
9,4 Dec 2013 09:13:15.779,4 Dec 2013 09:27:59.644,883.865
10,4 Dec 2013 10:52:02.864,4 Dec 2013 11:05:57.640,834.776
11,4 Dec 2013 12:31:53.662,4 Dec 2013 12:44:34.107,760.446
12,4 Dec 2013 14:13:35.045,4 Dec 2013 14:22:48.903,553.858
13,4 Dec 2013 20:25:28.894,4 Dec 2013 20:33:44.533,495.639
14,4 Dec 2013 21:59:52.799,4 Dec 2013 22:15:50.199,957.400
15,5 Dec 2013 04:59:02.139,5 Dec 2013 05:03:11.977,249.837
16,5 Dec 2013 06:36:23.047,5 Dec 2013 06:44:50.965,507.918
17,5 Dec 2013 08:16:07.684,5 Dec 2013 08:25:27.136,559.452
18,5 Dec 2013 09:56:59.053,5 Dec 2013 10:07:06.328,607.275
19,5 Dec 2013 11:36:16.560,5 Dec 2013 11:51:27.827,911.267
20,5 Dec 2013 13:16:12.087,5 Dec 2013 13:27:06.236,654.149
21,5 Dec 2013 19:23:23.481,5 Dec 2013 19:38:54.527,931.046
22,5 Dec 2013 21:05:21.523,5 Dec 2013 21:17:08.259,706.735
23,5 Dec 2013 22:48:05.402,5 Dec 2013 22:58:11.355,605.953
24,6 Dec 2013 00:29:14.300,6 Dec 2013 00:38:43.394,569.094
25,6 Dec 2013 02:09:49.016,6 Dec 2013 02:17:51.563,482.547
26,6 Dec 2013 08:59:34.150,6 Dec 2013 09:12:44.488,790.338
27,6 Dec 2013 10:39:11.574,6 Dec 2013 10:53:51.949,880.375
28,6 Dec 2013 18:31:21.258,6 Dec 2013 18:41:53.993,632.735
29,6 Dec 2013 20:09:50.872,6 Dec 2013 20:22:50.434,779.562
30,6 Dec 2013 21:48:13.710,6 Dec 2013 22:02:16.268,842.558
31,6 Dec 2013 23:25:53.165,6 Dec 2013 23:40:47.695,894.529
32,7 Dec 2013 01:03:06.211,7 Dec 2013 01:18:42.486,936.275
33,7 Dec 2013 02:45:03.903,7 Dec 2013 02:58:43.207,819.304
34,7 Dec 2013 06:24:04.834,7 Dec 2013 06:34:29.484,624.650
35,7 Dec 2013 08:04:20.646,7 Dec 2013 08:20:32.707,972.061
36,7 Dec 2013 22:33:43.184,7 Dec 2013 22:41:43.378,480.194
37,8 Dec 2013 00:09:45.625,8 Dec 2013 00:26:01.359,975.734
38,8 Dec 2013 02:00:42.420,8 Dec 2013 02:04:43.425,241.005
39,8 Dec 2013 05:31:07.687,8 Dec 2013 05:46:57.493,949.806
40,8 Dec 2013 07:13:20.069,8 Dec 2013 07:26:40.159,800.090
41,8 Dec 2013 08:51:52.903,8 Dec 2013 09:01:58.403,605.500
42,8 Dec 2013 10:31:05.169,8 Dec 2013 10:37:33.726,388.557
43,8 Dec 2013 21:35:22.437,8 Dec 2013 21:51:20.765,958.329
44,8 Dec 2013 23:20:42.592,8 Dec 2013 23:29:38.446,535.853

