Raw and processed data/Altitude Variations/us_greatcircle_12sat_400km/Aircraft-B747LAX_Heathrow-Transmitter-adsb_out6-To-Satellite-400km_p1_1-Receiver-adsb_satrcvr2 Access.csv

"Access","Start Time (UTCG)","Stop Time (UTCG)","Duration (sec)"
1,3 Dec 2013 01:17:16.949,3 Dec 2013 01:28:53.725,696.776
2,3 Dec 2013 02:50:08.460,3 Dec 2013 03:02:05.255,716.795
3,3 Dec 2013 04:22:27.478,3 Dec 2013 04:34:17.535,710.057
4,3 Dec 2013 05:54:40.781,3 Dec 2013 06:06:37.876,717.095
5,3 Dec 2013 07:27:55.466,3 Dec 2013 07:39:32.728,697.263
6,3 Dec 2013 09:03:26.581,3 Dec 2013 09:13:01.137,574.556
7,3 Dec 2013 10:42:00.863,3 Dec 2013 10:47:26.941,326.078
8,3 Dec 2013 12:14:58.558,3 Dec 2013 12:27:01.495,722.937
9,3 Dec 2013 19:42:33.348,3 Dec 2013 19:46:38.351,245.003
10,3 Dec 2013 21:13:06.884,3 Dec 2013 21:23:59.594,652.710
11,3 Dec 2013 22:47:28.421,3 Dec 2013 22:57:21.803,593.382
12,4 Dec 2013 00:20:27.483,4 Dec 2013 00:29:30.657,543.174
13,4 Dec 2013 01:51:50.374,4 Dec 2013 02:01:34.766,584.393
14,4 Dec 2013 03:22:38.318,4 Dec 2013 03:34:02.024,683.706
15,4 Dec 2013 04:54:45.763,4 Dec 2013 05:06:20.063,694.300
16,4 Dec 2013 06:31:24.254,4 Dec 2013 06:39:28.553,484.299
17,4 Dec 2013 08:10:26.128,4 Dec 2013 08:21:09.798,643.670
18,4 Dec 2013 09:47:10.305,4 Dec 2013 09:59:15.630,725.325
19,5 Dec 2013 02:26:43.358,5 Dec 2013 02:36:52.137,608.779
20,5 Dec 2013 04:04:03.569,5 Dec 2013 04:16:49.349,765.780
21,5 Dec 2013 05:43:25.491,5 Dec 2013 05:56:08.930,763.438
22,5 Dec 2013 07:22:06.140,5 Dec 2013 07:33:33.614,687.474
23,6 Dec 2013 01:41:32.485,6 Dec 2013 01:53:07.303,694.818
24,6 Dec 2013 03:19:33.859,6 Dec 2013 03:32:16.601,762.743
25,6 Dec 2013 04:58:41.749,6 Dec 2013 05:10:20.323,698.574
26,6 Dec 2013 23:18:28.638,6 Dec 2013 23:29:44.830,676.192
27,7 Dec 2013 00:55:43.759,7 Dec 2013 01:08:28.413,764.654
28,7 Dec 2013 02:34:33.123,7 Dec 2013 02:46:26.601,713.479
29,7 Dec 2013 04:06:51.200,7 Dec 2013 04:18:10.790,679.589
30,7 Dec 2013 05:38:55.458,7 Dec 2013 05:49:57.127,661.668
31,7 Dec 2013 07:11:15.329,7 Dec 2013 07:22:48.109,692.780
32,7 Dec 2013 08:44:48.034,7 Dec 2013 08:56:54.663,726.628
33,7 Dec 2013 10:19:55.982,7 Dec 2013 10:32:14.789,738.806
34,7 Dec 2013 11:56:15.727,7 Dec 2013 12:08:37.546,741.819
35,7 Dec 2013 20:52:53.375,7 Dec 2013 21:04:51.366,717.991

"Access","Start Time (UTCG)","Stop Time (UTCG)","Duration (sec)"
1,3 Dec 2013 01:00:00.000,3 Dec 2013 01:05:17.149,317.149
2,3 Dec 2013 02:26:58.794,3 Dec 2013 02:38:56.105,717.311
3,3 Dec 2013 03:59:25.082,3 Dec 2013 04:11:15.753,710.670
4,3 Dec 2013 05:31:34.795,3 Dec 2013 05:43:29.867,715.072
5,3 Dec 2013 07:04:26.692,3 Dec 2013 07:16:15.661,708.969
6,3 Dec 2013 08:39:17.627,3 Dec 2013 08:49:36.145,618.518
7,3 Dec 2013 10:17:04.964,3 Dec 2013 10:23:27.449,382.485
8,3 Dec 2013 11:51:14.558,3 Dec 2013 12:03:21.542,726.984
9,3 Dec 2013 13:29:24.233,3 Dec 2013 13:32:34.513,190.280
10,3 Dec 2013 20:49:21.546,3 Dec 2013 21:00:23.344,661.799
11,3 Dec 2013 22:23:59.724,3 Dec 2013 22:34:10.156,610.432
12,3 Dec 2013 23:57:21.926,4 Dec 2013 00:06:31.697,549.771
13,4 Dec 2013 01:29:06.960,4 Dec 2013 01:38:31.224,564.263
14,4 Dec 2013 02:59:53.420,4 Dec 2013 03:10:54.272,660.852
15,4 Dec 2013 04:31:30.021,4 Dec 2013 04:43:19.424,709.402
16,4 Dec 2013 06:06:10.296,4 Dec 2013 06:14:36.252,505.955
17,4 Dec 2013 07:46:06.961,4 Dec 2013 07:55:43.965,577.004
18,4 Dec 2013 09:22:56.654,4 Dec 2013 09:35:24.231,747.577
19,4 Dec 2013 11:02:12.706,4 Dec 2013 11:06:04.718,232.012
20,5 Dec 2013 02:03:39.241,5 Dec 2013 02:10:57.860,438.619
21,5 Dec 2013 03:39:19.637,5 Dec 2013 03:52:00.300,760.663
22,5 Dec 2013 05:18:38.370,5 Dec 2013 05:31:19.897,761.527
23,5 Dec 2013 06:57:24.822,5 Dec 2013 07:09:39.833,735.011
24,6 Dec 2013 01:17:40.874,6 Dec 2013 01:28:06.875,626.001
25,6 Dec 2013 02:54:51.299,6 Dec 2013 03:07:31.609,760.310
26,6 Dec 2013 04:33:51.357,6 Dec 2013 04:46:05.830,734.473
27,6 Dec 2013 06:15:25.601,6 Dec 2013 06:19:31.507,245.906
28,6 Dec 2013 22:55:10.502,6 Dec 2013 23:04:48.956,578.454
29,7 Dec 2013 00:31:02.382,7 Dec 2013 00:43:46.106,763.724
30,7 Dec 2013 02:10:12.175,7 Dec 2013 02:22:57.402,765.227
31,7 Dec 2013 03:43:47.870,7 Dec 2013 03:55:18.242,690.372
32,7 Dec 2013 05:15:55.031,7 Dec 2013 05:26:55.830,660.799
33,7 Dec 2013 06:48:05.579,7 Dec 2013 06:59:28.203,682.625
34,7 Dec 2013 08:21:15.844,7 Dec 2013 08:33:16.071,720.227
35,7 Dec 2013 09:56:00.888,7 Dec 2013 10:08:18.031,737.143
36,7 Dec 2013 11:32:05.811,7 Dec 2013 11:44:27.785,741.974
37,7 Dec 2013 13:09:17.474,7 Dec 2013 13:15:58.030,400.556
38,7 Dec 2013 20:29:40.469,7 Dec 2013 20:40:24.979,644.510

"Access","Start Time (UTCG)","Stop Time (UTCG)","Duration (sec)"
1,3 Dec 2013 02:03:46.938,3 Dec 2013 02:15:41.987,715.050
2,3 Dec 2013 03:36:21.400,3 Dec 2013 03:48:13.842,712.442
3,3 Dec 2013 05:08:31.356,3 Dec 2013 05:20:24.025,712.669
4,3 Dec 2013 06:41:05.465,3 Dec 2013 06:53:00.787,715.322
5,3 Dec 2013 08:15:19.972,3 Dec 2013 08:26:13.047,653.076
6,3 Dec 2013 09:52:20.222,3 Dec 2013 09:59:56.747,456.526
7,3 Dec 2013 11:27:46.142,3 Dec 2013 11:39:02.751,676.609
8,3 Dec 2013 13:03:27.352,3 Dec 2013 13:12:14.487,527.134
9,3 Dec 2013 20:25:42.958,3 Dec 2013 20:36:40.773,657.815
10,3 Dec 2013 22:00:26.322,3 Dec 2013 22:10:52.856,626.533
11,3 Dec 2013 23:34:09.979,3 Dec 2013 23:43:31.447,561.468
12,4 Dec 2013 01:06:19.451,4 Dec 2013 01:15:29.581,550.130
13,4 Dec 2013 02:37:11.723,4 Dec 2013 02:47:46.750,635.027
14,4 Dec 2013 04:08:24.842,4 Dec 2013 04:20:15.441,710.599
15,4 Dec 2013 05:42:00.412,4 Dec 2013 05:52:02.824,602.412
16,4 Dec 2013 07:21:34.614,4 Dec 2013 07:30:09.924,515.310
17,4 Dec 2013 08:58:47.124,4 Dec 2013 09:11:04.151,737.027
18,4 Dec 2013 10:36:17.257,4 Dec 2013 10:45:07.194,529.937
19,5 Dec 2013 03:14:47.476,5 Dec 2013 03:27:08.361,740.885
20,5 Dec 2013 04:53:47.179,5 Dec 2013 05:06:28.880,761.702
21,5 Dec 2013 06:32:46.852,5 Dec 2013 06:45:23.953,757.101
22,5 Dec 2013 08:12:20.872,5 Dec 2013 08:19:29.082,428.210
23,6 Dec 2013 00:54:24.603,6 Dec 2013 01:02:44.635,500.032
24,6 Dec 2013 02:30:13.949,6 Dec 2013 02:42:45.705,751.756
25,6 Dec 2013 04:09:04.448,6 Dec 2013 04:21:37.133,752.685
26,6 Dec 2013 05:48:59.882,6 Dec 2013 05:57:32.966,513.083
27,6 Dec 2013 22:32:48.992,6 Dec 2013 22:39:16.858,387.865
28,7 Dec 2013 00:06:32.400,7 Dec 2013 00:19:06.870,754.469
29,7 Dec 2013 01:45:22.044,7 Dec 2013 01:58:05.411,763.367
30,7 Dec 2013 03:20:43.522,7 Dec 2013 03:32:24.483,700.962
31,7 Dec 2013 04:52:54.551,7 Dec 2013 05:03:58.307,663.756
32,7 Dec 2013 06:24:59.697,7 Dec 2013 06:36:13.087,673.390
33,7 Dec 2013 07:57:49.871,7 Dec 2013 08:09:42.099,712.228
34,7 Dec 2013 09:32:10.868,7 Dec 2013 09:44:25.675,734.806
35,7 Dec 2013 11:07:58.977,7 Dec 2013 11:20:20.216,741.239
36,7 Dec 2013 12:44:24.355,7 Dec 2013 12:54:33.703,609.349
37,7 Dec 2013 20:07:15.162,7 Dec 2013 20:15:34.761,499.599
38,7 Dec 2013 21:40:56.442,7 Dec 2013 21:53:18.795,742.353

"Access","Start Time (UTCG)","Stop Time (UTCG)","Duration (sec)"
1,3 Dec 2013 01:40:32.953,3 Dec 2013 01:52:21.610,708.657
2,3 Dec 2013 03:13:15.951,3 Dec 2013 03:25:10.741,714.791
3,3 Dec 2013 04:45:29.273,3 Dec 2013 04:57:20.068,710.795
4,3 Dec 2013 06:17:50.577,3 Dec 2013 06:29:48.175,717.598
5,3 Dec 2013 07:51:32.887,3 Dec 2013 08:02:51.884,678.997
6,3 Dec 2013 09:27:47.368,3 Dec 2013 09:36:27.995,520.627
7,3 Dec 2013 11:04:39.124,3 Dec 2013 11:13:56.847,557.723
8,3 Dec 2013 12:38:59.489,3 Dec 2013 12:50:02.450,662.961
9,3 Dec 2013 20:03:20.708,3 Dec 2013 20:12:19.973,539.265
10,3 Dec 2013 21:36:48.593,3 Dec 2013 21:47:29.417,640.824
11,3 Dec 2013 23:10:51.996,3 Dec 2013 23:20:28.563,576.566
12,4 Dec 2013 00:43:26.558,4 Dec 2013 00:52:29.607,543.050
13,4 Dec 2013 02:14:31.342,4 Dec 2013 02:24:40.070,608.728
14,4 Dec 2013 03:45:28.209,4 Dec 2013 03:57:09.339,701.131
15,4 Dec 2013 05:18:14.612,4 Dec 2013 05:29:15.554,660.942
16,4 Dec 2013 06:56:41.756,4 Dec 2013 07:04:40.779,479.023
17,4 Dec 2013 08:34:38.092,4 Dec 2013 08:46:18.289,700.196
18,4 Dec 2013 10:11:33.404,4 Dec 2013 10:22:33.681,660.278
19,5 Dec 2013 02:50:32.665,5 Dec 2013 03:02:08.562,695.897
20,5 Dec 2013 04:28:54.296,5 Dec 2013 04:41:38.475,764.178
21,5 Dec 2013 06:08:07.947,5 Dec 2013 06:20:51.910,763.963
22,5 Dec 2013 07:46:58.429,5 Dec 2013 07:56:56.682,598.252
23,6 Dec 2013 00:32:41.009,6 Dec 2013 00:36:03.724,202.715
24,6 Dec 2013 02:05:45.932,6 Dec 2013 02:17:58.433,732.500
25,6 Dec 2013 03:44:18.718,6 Dec 2013 03:56:59.376,760.659
26,6 Dec 2013 05:23:40.740,6 Dec 2013 05:34:13.579,632.840
27,6 Dec 2013 23:42:19.095,6 Dec 2013 23:54:27.972,728.877
28,7 Dec 2013 01:20:31.680,7 Dec 2013 01:33:15.004,763.323
29,7 Dec 2013 02:57:38.453,7 Dec 2013 03:09:27.842,709.389
30,7 Dec 2013 04:29:53.389,7 Dec 2013 04:41:03.679,670.290
31,7 Dec 2013 06:01:56.679,7 Dec 2013 06:13:02.769,666.089
32,7 Dec 2013 07:34:29.862,7 Dec 2013 07:46:12.767,702.906
33,7 Dec 2013 09:08:26.450,7 Dec 2013 09:20:37.868,731.418
34,7 Dec 2013 10:43:55.535,7 Dec 2013 10:56:15.669,740.134
35,7 Dec 2013 12:20:20.149,7 Dec 2013 12:32:01.270,701.121
36,7 Dec 2013 19:47:06.855,7 Dec 2013 19:48:52.097,105.241
37,7 Dec 2013 21:16:40.503,7 Dec 2013 21:29:07.335,746.833

"Access","Start Time (UTCG)","Stop Time (UTCG)","Duration (sec)"
1,3 Dec 2013 10:21:43.323,3 Dec 2013 10:25:03.825,200.502
2,3 Dec 2013 11:53:51.979,3 Dec 2013 12:06:18.277,746.298
3,3 Dec 2013 13:33:02.926,3 Dec 2013 13:45:38.501,755.575
4,3 Dec 2013 15:12:05.440,3 Dec 2013 15:24:46.247,760.806
5,3 Dec 2013 16:51:10.124,3 Dec 2013 16:59:31.607,501.483
6,4 Dec 2013 09:33:42.568,4 Dec 2013 09:41:41.406,478.838
7,4 Dec 2013 11:09:22.876,4 Dec 2013 11:21:53.512,750.635
8,4 Dec 2013 12:48:12.287,4 Dec 2013 13:00:47.014,754.727
9,4 Dec 2013 14:27:56.605,4 Dec 2013 14:36:54.142,537.537
10,5 Dec 2013 07:13:08.421,5 Dec 2013 07:17:43.255,274.833
11,5 Dec 2013 08:45:54.852,5 Dec 2013 08:58:21.528,746.675
12,5 Dec 2013 10:24:32.439,5 Dec 2013 10:37:18.812,766.373
13,5 Dec 2013 12:01:23.380,5 Dec 2013 12:12:58.214,694.834
14,5 Dec 2013 13:33:37.843,5 Dec 2013 13:44:17.773,639.930
15,5 Dec 2013 15:05:39.679,5 Dec 2013 15:16:18.893,639.214
16,5 Dec 2013 16:38:15.297,5 Dec 2013 16:49:40.554,685.257
17,5 Dec 2013 18:12:16.816,5 Dec 2013 18:24:18.223,721.407
18,5 Dec 2013 19:47:49.457,5 Dec 2013 20:00:01.070,731.614
19,5 Dec 2013 21:24:27.595,5 Dec 2013 21:34:58.314,630.719
20,6 Dec 2013 04:47:42.242,6 Dec 2013 04:54:39.595,417.353
21,6 Dec 2013 06:20:31.526,6 Dec 2013 06:33:01.556,750.030
22,6 Dec 2013 07:56:03.197,6 Dec 2013 08:08:02.010,718.813
23,6 Dec 2013 09:28:58.730,6 Dec 2013 09:40:51.911,713.182
24,6 Dec 2013 11:01:12.531,6 Dec 2013 11:13:01.466,708.935
25,6 Dec 2013 12:33:27.275,6 Dec 2013 12:45:22.875,715.601
26,6 Dec 2013 14:07:05.481,6 Dec 2013 14:18:04.883,659.402
27,6 Dec 2013 15:44:00.082,6 Dec 2013 15:50:30.319,390.238
28,6 Dec 2013 17:20:39.966,6 Dec 2013 17:29:21.564,521.599
29,6 Dec 2013 18:55:05.499,6 Dec 2013 19:06:44.646,699.148
30,7 Dec 2013 02:20:47.473,7 Dec 2013 02:28:10.972,443.499
31,7 Dec 2013 03:54:52.321,7 Dec 2013 04:02:44.300,471.979
32,7 Dec 2013 05:29:07.945,7 Dec 2013 05:35:17.380,369.435
33,7 Dec 2013 07:01:41.332,7 Dec 2013 07:07:00.263,318.931
34,7 Dec 2013 08:31:49.472,7 Dec 2013 08:39:38.654,469.182
35,7 Dec 2013 10:01:41.407,7 Dec 2013 10:12:36.327,654.920
36,7 Dec 2013 11:33:22.659,7 Dec 2013 11:45:01.737,699.078
37,7 Dec 2013 13:11:43.200,7 Dec 2013 13:21:54.716,611.516
38,7 Dec 2013 14:50:44.859,7 Dec 2013 15:02:37.465,712.606
39,7 Dec 2013 16:28:06.764,7 Dec 2013 16:39:29.526,682.762

"Access","Start Time (UTCG)","Stop Time (UTCG)","Duration (sec)"
1,3 Dec 2013 11:29:33.952,3 Dec 2013 11:41:19.318,705.366
2,3 Dec 2013 13:08:07.429,3 Dec 2013 13:20:47.392,759.963
3,3 Dec 2013 14:47:27.369,3 Dec 2013 15:00:09.588,762.219
4,3 Dec 2013 16:26:03.931,3 Dec 2013 16:36:40.858,636.928
5,4 Dec 2013 09:12:38.781,4 Dec 2013 09:14:18.775,99.994
6,4 Dec 2013 10:44:55.635,4 Dec 2013 10:57:05.414,729.779
7,4 Dec 2013 12:23:26.884,4 Dec 2013 12:36:08.474,761.590
8,4 Dec 2013 14:02:43.371,4 Dec 2013 14:13:29.394,646.023
9,5 Dec 2013 08:21:46.954,5 Dec 2013 08:33:40.049,713.095
10,5 Dec 2013 09:59:43.733,5 Dec 2013 10:12:30.002,766.268
11,5 Dec 2013 11:38:17.755,5 Dec 2013 11:50:04.065,706.310
12,5 Dec 2013 13:10:36.002,5 Dec 2013 13:21:27.098,651.096
13,5 Dec 2013 14:42:38.624,5 Dec 2013 14:53:11.401,632.777
14,5 Dec 2013 16:14:59.711,5 Dec 2013 16:26:12.633,672.922
15,5 Dec 2013 17:48:37.266,5 Dec 2013 18:00:32.168,714.902
16,5 Dec 2013 19:23:48.977,5 Dec 2013 19:36:00.306,731.329
17,5 Dec 2013 21:00:15.723,5 Dec 2013 21:12:14.279,718.556
18,6 Dec 2013 05:56:24.316,6 Dec 2013 06:08:45.388,741.072
19,6 Dec 2013 07:32:41.418,6 Dec 2013 07:44:35.163,713.745
20,6 Dec 2013 09:05:49.433,6 Dec 2013 09:17:45.957,716.523
21,6 Dec 2013 10:38:11.491,6 Dec 2013 10:49:59.307,707.816
22,6 Dec 2013 12:10:19.420,6 Dec 2013 12:22:15.231,715.811
23,6 Dec 2013 13:43:27.810,6 Dec 2013 13:54:53.380,685.570
24,6 Dec 2013 15:19:17.744,6 Dec 2013 15:27:32.066,494.321
25,6 Dec 2013 16:58:23.074,6 Dec 2013 17:02:30.125,247.051
26,6 Dec 2013 18:31:08.035,6 Dec 2013 18:43:22.113,734.078
27,7 Dec 2013 03:31:10.577,7 Dec 2013 03:39:18.101,487.524
28,7 Dec 2013 05:05:40.263,7 Dec 2013 05:12:18.405,398.142
29,7 Dec 2013 06:38:47.865,7 Dec 2013 06:44:01.404,313.539
30,7 Dec 2013 08:09:25.275,7 Dec 2013 08:16:24.580,419.305
31,7 Dec 2013 09:39:07.144,7 Dec 2013 09:49:23.188,616.044
32,7 Dec 2013 11:10:11.553,7 Dec 2013 11:22:01.339,709.786
33,7 Dec 2013 12:46:24.079,7 Dec 2013 12:56:57.661,633.582
34,7 Dec 2013 14:26:18.383,7 Dec 2013 14:37:32.354,673.970
35,7 Dec 2013 16:03:41.420,7 Dec 2013 16:15:56.809,735.389

"Access","Start Time (UTCG)","Stop Time (UTCG)","Duration (sec)"
1,3 Dec 2013 11:05:40.465,3 Dec 2013 11:16:04.350,623.885
2,3 Dec 2013 12:43:13.860,3 Dec 2013 12:55:58.251,764.391
3,3 Dec 2013 14:22:44.624,3 Dec 2013 14:35:22.898,758.274
4,3 Dec 2013 16:01:18.707,3 Dec 2013 16:13:08.249,709.541
5,4 Dec 2013 10:20:43.499,4 Dec 2013 10:32:12.760,689.261
6,4 Dec 2013 11:58:42.169,4 Dec 2013 12:11:25.223,763.054
7,4 Dec 2013 13:37:47.284,4 Dec 2013 13:49:33.272,705.987
8,5 Dec 2013 07:58:03.663,5 Dec 2013 08:08:52.124,648.461
9,5 Dec 2013 09:34:58.383,5 Dec 2013 09:47:44.285,765.903
10,5 Dec 2013 11:14:10.560,5 Dec 2013 11:26:56.319,765.759
11,5 Dec 2013 12:47:32.878,5 Dec 2013 12:58:38.016,665.138
12,5 Dec 2013 14:19:38.566,5 Dec 2013 14:30:09.030,630.464
13,5 Dec 2013 15:51:49.170,5 Dec 2013 16:02:49.606,660.436
14,5 Dec 2013 17:25:03.816,5 Dec 2013 17:36:50.455,706.639
15,5 Dec 2013 18:59:53.081,5 Dec 2013 19:12:02.592,729.512
16,5 Dec 2013 20:36:02.923,5 Dec 2013 20:48:08.956,726.033
17,6 Dec 2013 05:32:46.496,6 Dec 2013 05:44:23.618,697.123
18,6 Dec 2013 07:09:16.320,6 Dec 2013 07:21:00.789,704.469
19,6 Dec 2013 08:42:37.142,6 Dec 2013 08:54:36.401,719.259
20,6 Dec 2013 10:15:09.312,6 Dec 2013 10:26:57.554,708.242
21,6 Dec 2013 11:47:15.263,6 Dec 2013 11:59:09.151,713.888
22,6 Dec 2013 13:19:59.953,6 Dec 2013 13:31:42.240,702.287
23,6 Dec 2013 14:54:57.833,6 Dec 2013 15:04:25.786,567.953
24,6 Dec 2013 18:07:23.744,6 Dec 2013 18:19:22.995,719.251
25,6 Dec 2013 19:44:18.217,6 Dec 2013 19:51:03.381,405.164
26,7 Dec 2013 03:07:27.022,7 Dec 2013 03:15:43.983,496.961
27,7 Dec 2013 04:42:07.839,7 Dec 2013 04:49:13.913,426.074
28,7 Dec 2013 06:15:43.518,7 Dec 2013 06:21:06.315,322.797
29,7 Dec 2013 07:46:57.779,7 Dec 2013 07:53:12.609,374.830
30,7 Dec 2013 09:16:38.257,7 Dec 2013 09:26:08.769,570.513
31,7 Dec 2013 10:47:12.124,7 Dec 2013 10:58:56.190,704.067
32,7 Dec 2013 12:20:59.969,7 Dec 2013 12:32:10.752,670.783
33,7 Dec 2013 14:01:41.347,7 Dec 2013 14:12:17.959,636.612
34,7 Dec 2013 15:39:22.473,7 Dec 2013 15:51:54.184,751.712
35,7 Dec 2013 17:18:11.299,7 Dec 2013 17:24:10.445,359.146

"Access","Start Time (UTCG)","Stop Time (UTCG)","Duration (sec)"
1,3 Dec 2013 10:42:35.790,3 Dec 2013 10:50:14.372,458.582
2,3 Dec 2013 12:18:27.056,3 Dec 2013 12:31:09.597,762.541
3,3 Dec 2013 13:57:56.222,3 Dec 2013 14:10:31.161,754.940
4,3 Dec 2013 15:36:41.276,3 Dec 2013 15:49:07.646,746.371
5,3 Dec 2013 17:17:44.475,3 Dec 2013 17:20:32.451,167.975
6,4 Dec 2013 09:56:54.113,4 Dec 2013 10:07:09.522,615.408
7,4 Dec 2013 11:33:59.803,4 Dec 2013 11:46:39.875,760.072
8,4 Dec 2013 13:12:58.438,4 Dec 2013 13:25:16.935,738.497
9,4 Dec 2013 14:54:00.393,4 Dec 2013 14:59:13.372,312.979
10,5 Dec 2013 07:34:56.942,5 Dec 2013 07:43:46.779,529.837
11,5 Dec 2013 09:10:20.474,5 Dec 2013 09:23:01.927,761.453
12,5 Dec 2013 10:49:21.732,5 Dec 2013 11:02:08.735,767.003
13,5 Dec 2013 12:24:28.567,5 Dec 2013 12:35:48.949,680.382
14,5 Dec 2013 13:56:38.550,5 Dec 2013 14:07:11.397,632.847
15,5 Dec 2013 15:28:42.828,5 Dec 2013 15:39:31.647,648.819
16,5 Dec 2013 17:01:36.539,5 Dec 2013 17:13:13.207,696.668
17,5 Dec 2013 18:36:02.213,5 Dec 2013 18:48:08.451,726.238
18,5 Dec 2013 20:11:54.169,5 Dec 2013 20:24:04.229,730.060
19,5 Dec 2013 21:49:08.941,5 Dec 2013 21:56:36.702,447.761
20,6 Dec 2013 05:09:45.478,6 Dec 2013 05:19:48.586,603.107
21,6 Dec 2013 06:45:03.964,6 Dec 2013 06:57:16.681,732.717
22,6 Dec 2013 08:19:21.752,6 Dec 2013 08:31:22.108,720.356
23,6 Dec 2013 09:52:05.239,6 Dec 2013 10:03:55.417,710.178
24,6 Dec 2013 11:24:13.402,6 Dec 2013 11:36:04.622,711.220
25,6 Dec 2013 12:56:40.288,6 Dec 2013 13:08:31.961,711.673
26,6 Dec 2013 14:30:54.762,6 Dec 2013 14:41:16.052,621.290
27,6 Dec 2013 16:09:22.775,6 Dec 2013 16:13:03.484,220.709
28,6 Dec 2013 17:43:52.364,6 Dec 2013 17:54:45.775,653.411
29,6 Dec 2013 19:19:21.757,6 Dec 2013 19:29:25.663,603.906
30,7 Dec 2013 02:43:42.378,7 Dec 2013 02:52:01.789,499.410
31,7 Dec 2013 04:18:31.615,7 Dec 2013 04:26:02.769,451.154
32,7 Dec 2013 05:52:29.595,7 Dec 2013 05:58:12.565,342.969
33,7 Dec 2013 07:24:24.045,7 Dec 2013 07:30:04.101,340.055
34,7 Dec 2013 08:54:13.028,7 Dec 2013 09:02:53.689,520.662
35,7 Dec 2013 10:24:22.582,7 Dec 2013 10:35:47.556,684.974
36,7 Dec 2013 11:56:47.906,7 Dec 2013 12:07:55.415,667.509
37,7 Dec 2013 13:36:50.048,7 Dec 2013 13:47:02.801,612.753
38,7 Dec 2013 15:15:04.928,7 Dec 2013 15:27:26.396,741.468
39,7 Dec 2013 16:52:47.478,7 Dec 2013 17:02:23.460,575.981

"Access","Start Time (UTCG)","Stop Time (UTCG)","Duration (sec)"
1,3 Dec 2013 16:37:38.714,3 Dec 2013 16:47:55.839,617.125
2,3 Dec 2013 18:14:13.093,3 Dec 2013 18:26:58.140,765.048
3,3 Dec 2013 19:53:19.948,3 Dec 2013 20:06:04.703,764.755
4,3 Dec 2013 21:28:16.270,3 Dec 2013 21:39:02.211,645.941
5,3 Dec 2013 23:00:26.170,3 Dec 2013 23:10:14.065,587.896
6,4 Dec 2013 00:32:28.953,4 Dec 2013 00:42:41.475,612.523
7,4 Dec 2013 02:05:25.711,4 Dec 2013 02:16:35.483,669.771
8,4 Dec 2013 03:39:57.081,4 Dec 2013 03:51:38.862,701.782
9,4 Dec 2013 05:15:58.334,4 Dec 2013 05:27:28.285,689.951
10,4 Dec 2013 14:12:41.128,4 Dec 2013 14:23:50.426,669.299
11,4 Dec 2013 15:49:17.130,4 Dec 2013 16:01:16.359,719.229
12,4 Dec 2013 17:23:10.646,4 Dec 2013 17:35:09.163,718.517
13,4 Dec 2013 18:55:44.818,4 Dec 2013 19:07:35.741,710.923
14,4 Dec 2013 20:27:53.320,4 Dec 2013 20:39:46.928,713.607
15,4 Dec 2013 22:00:33.044,4 Dec 2013 22:12:22.518,709.474
16,4 Dec 2013 23:35:08.321,4 Dec 2013 23:45:22.633,614.312
17,5 Dec 2013 01:13:22.452,5 Dec 2013 01:18:09.023,286.571
18,5 Dec 2013 02:47:32.473,5 Dec 2013 02:59:13.506,701.032
19,5 Dec 2013 04:23:48.180,5 Dec 2013 04:31:42.276,474.096
20,5 Dec 2013 11:46:19.833,5 Dec 2013 11:56:20.096,600.263
21,5 Dec 2013 13:21:05.265,5 Dec 2013 13:30:13.021,547.756
22,5 Dec 2013 14:54:42.103,5 Dec 2013 15:02:31.980,469.877
23,5 Dec 2013 16:26:29.993,5 Dec 2013 16:34:28.829,478.836
24,5 Dec 2013 17:56:52.641,5 Dec 2013 18:06:59.586,606.945
25,5 Dec 2013 19:27:47.947,5 Dec 2013 19:39:36.001,708.054
26,5 Dec 2013 21:01:16.658,5 Dec 2013 21:11:19.969,603.312
27,5 Dec 2013 22:41:33.101,5 Dec 2013 22:51:17.830,584.729
28,6 Dec 2013 00:19:02.287,6 Dec 2013 00:31:29.846,747.559
29,6 Dec 2013 01:57:06.615,6 Dec 2013 02:04:44.530,457.915
30,6 Dec 2013 18:35:43.149,6 Dec 2013 18:47:58.614,735.465
31,6 Dec 2013 20:14:33.216,6 Dec 2013 20:27:18.674,765.458
32,6 Dec 2013 21:53:31.131,6 Dec 2013 22:06:01.594,750.462
33,6 Dec 2013 23:33:44.961,6 Dec 2013 23:39:17.529,332.568
34,7 Dec 2013 16:15:04.101,7 Dec 2013 16:23:48.184,524.083
35,7 Dec 2013 17:51:04.327,7 Dec 2013 18:03:37.915,753.588
36,7 Dec 2013 19:29:56.648,7 Dec 2013 19:42:27.967,751.319
37,7 Dec 2013 21:10:03.082,7 Dec 2013 21:18:14.179,491.097

"Access","Start Time (UTCG)","Stop Time (UTCG)","Duration (sec)"
1,3 Dec 2013 16:14:45.450,3 Dec 2013 16:22:38.555,473.105
2,3 Dec 2013 17:49:38.474,3 Dec 2013 18:02:15.503,757.029
3,3 Dec 2013 19:28:31.495,3 Dec 2013 19:41:19.008,767.513
4,3 Dec 2013 21:05:10.444,3 Dec 2013 21:16:17.389,666.944
5,3 Dec 2013 22:37:25.868,3 Dec 2013 22:47:21.084,595.216
6,4 Dec 2013 00:09:25.877,4 Dec 2013 00:19:25.938,600.061
7,4 Dec 2013 01:42:03.290,4 Dec 2013 01:52:59.807,656.517
8,4 Dec 2013 03:16:10.170,4 Dec 2013 03:27:47.494,697.324
9,4 Dec 2013 04:51:50.360,4 Dec 2013 05:03:28.776,698.416
10,4 Dec 2013 06:29:05.500,4 Dec 2013 06:37:11.688,486.188
11,4 Dec 2013 13:49:54.006,4 Dec 2013 13:59:04.710,550.704
12,4 Dec 2013 15:24:31.890,4 Dec 2013 15:36:58.369,746.479
13,4 Dec 2013 16:59:55.663,4 Dec 2013 17:11:51.861,716.198
14,4 Dec 2013 18:32:39.880,4 Dec 2013 18:44:33.082,713.203
15,4 Dec 2013 20:04:51.233,4 Dec 2013 20:16:42.585,711.351
16,4 Dec 2013 21:37:15.716,4 Dec 2013 21:49:10.847,715.131
17,4 Dec 2013 23:11:13.839,4 Dec 2013 23:22:06.239,652.400
18,5 Dec 2013 00:48:18.047,5 Dec 2013 00:55:06.450,408.403
19,5 Dec 2013 02:24:11.895,5 Dec 2013 02:34:23.161,611.266
20,5 Dec 2013 03:59:08.200,5 Dec 2013 04:09:45.077,636.877
21,5 Dec 2013 11:22:56.650,5 Dec 2013 11:32:34.658,578.008
22,5 Dec 2013 12:57:28.945,5 Dec 2013 13:06:54.968,566.023
23,5 Dec 2013 14:31:26.554,5 Dec 2013 14:39:33.084,486.529
24,5 Dec 2013 16:03:44.303,5 Dec 2013 16:11:26.821,462.519
25,5 Dec 2013 17:34:18.888,5 Dec 2013 17:43:49.590,570.702
26,5 Dec 2013 19:04:54.560,5 Dec 2013 19:16:28.888,694.328
27,5 Dec 2013 20:37:31.624,5 Dec 2013 20:48:34.954,663.329
28,5 Dec 2013 22:16:40.627,5 Dec 2013 22:25:56.390,555.763
29,5 Dec 2013 23:54:48.712,6 Dec 2013 00:06:53.427,724.715
30,6 Dec 2013 01:32:06.970,6 Dec 2013 01:42:30.077,623.107
31,6 Dec 2013 18:11:31.127,6 Dec 2013 18:22:58.311,687.184
32,6 Dec 2013 19:49:42.552,6 Dec 2013 20:02:29.065,766.513
33,6 Dec 2013 21:28:51.177,6 Dec 2013 21:41:33.950,762.774
34,6 Dec 2013 23:07:58.150,6 Dec 2013 23:17:11.233,553.083
35,7 Dec 2013 15:52:55.671,7 Dec 2013 15:57:33.551,277.881
36,7 Dec 2013 17:26:35.190,7 Dec 2013 17:38:51.444,736.254
37,7 Dec 2013 19:05:10.498,7 Dec 2013 19:17:50.731,760.233
38,7 Dec 2013 20:44:38.100,7 Dec 2013 20:54:59.654,621.553

"Access","Start Time (UTCG)","Stop Time (UTCG)","Duration (sec)"
1,3 Dec 2013 17:25:17.042,3 Dec 2013 17:37:33.697,736.655
2,3 Dec 2013 19:03:43.100,3 Dec 2013 19:16:30.785,767.685
3,3 Dec 2013 20:42:03.970,3 Dec 2013 20:53:30.331,686.361
4,3 Dec 2013 22:14:24.200,3 Dec 2013 22:24:32.374,608.174
5,3 Dec 2013 23:46:25.180,3 Dec 2013 23:56:16.161,590.981
6,4 Dec 2013 01:18:46.759,4 Dec 2013 01:29:28.722,641.963
7,4 Dec 2013 02:52:29.169,4 Dec 2013 03:03:59.588,690.419
8,4 Dec 2013 04:27:47.429,4 Dec 2013 04:39:30.146,702.717
9,4 Dec 2013 06:04:30.476,4 Dec 2013 06:15:21.913,651.438
10,4 Dec 2013 13:28:25.616,4 Dec 2013 13:33:24.155,298.539
11,4 Dec 2013 15:00:07.851,4 Dec 2013 15:12:39.389,751.538
12,4 Dec 2013 16:36:38.026,4 Dec 2013 16:48:27.951,709.925
13,4 Dec 2013 18:09:32.679,4 Dec 2013 18:21:28.561,715.882
14,4 Dec 2013 19:41:49.772,4 Dec 2013 19:53:39.658,709.886
15,4 Dec 2013 21:14:04.233,4 Dec 2013 21:26:00.981,716.748
16,4 Dec 2013 22:47:30.737,4 Dec 2013 22:58:50.488,679.751
17,5 Dec 2013 00:23:38.025,5 Dec 2013 00:31:54.385,496.360
18,5 Dec 2013 02:01:21.440,5 Dec 2013 02:08:33.941,432.501
19,5 Dec 2013 03:35:00.013,5 Dec 2013 03:46:53.551,713.538
20,5 Dec 2013 11:01:31.154,5 Dec 2013 11:07:35.237,364.083
21,5 Dec 2013 12:33:48.940,5 Dec 2013 12:43:30.246,581.305
22,5 Dec 2013 14:08:04.712,5 Dec 2013 14:16:31.171,506.459
23,5 Dec 2013 15:40:51.351,5 Dec 2013 15:48:27.326,455.975
24,5 Dec 2013 17:11:45.300,5 Dec 2013 17:20:40.676,535.376
25,5 Dec 2013 18:42:08.667,5 Dec 2013 18:53:19.941,671.274
26,5 Dec 2013 20:14:04.232,5 Dec 2013 20:25:40.630,696.397
27,5 Dec 2013 21:51:29.021,5 Dec 2013 22:00:45.949,556.927
28,5 Dec 2013 23:30:32.182,5 Dec 2013 23:41:55.406,683.224
29,6 Dec 2013 01:07:35.883,6 Dec 2013 01:19:23.278,707.394
30,6 Dec 2013 17:47:45.475,6 Dec 2013 17:57:40.915,595.441
31,6 Dec 2013 19:24:54.251,6 Dec 2013 19:37:40.131,765.880
32,6 Dec 2013 21:04:08.782,6 Dec 2013 21:16:54.495,765.712
33,6 Dec 2013 22:42:57.289,6 Dec 2013 22:53:58.840,661.551
34,7 Dec 2013 17:02:20.025,7 Dec 2013 17:14:01.882,701.857
35,7 Dec 2013 18:40:25.333,7 Dec 2013 18:53:08.227,762.894
36,7 Dec 2013 20:19:36.286,7 Dec 2013 20:31:08.796,692.509

"Access","Start Time (UTCG)","Stop Time (UTCG)","Duration (sec)"
1,3 Dec 2013 17:01:14.502,3 Dec 2013 17:12:49.282,694.779
2,3 Dec 2013 18:38:55.999,3 Dec 2013 18:51:43.251,767.252
3,3 Dec 2013 20:18:09.067,3 Dec 2013 20:30:39.244,750.177
4,3 Dec 2013 21:51:20.965,3 Dec 2013 22:01:46.619,625.654
5,3 Dec 2013 23:23:25.648,3 Dec 2013 23:33:12.251,586.603
6,4 Dec 2013 00:55:35.576,4 Dec 2013 01:06:02.509,626.933
7,4 Dec 2013 02:28:54.309,4 Dec 2013 02:40:15.494,681.185
8,4 Dec 2013 04:03:49.599,4 Dec 2013 04:15:33.271,703.672
9,4 Dec 2013 05:40:11.539,4 Dec 2013 05:51:27.628,676.089
10,4 Dec 2013 14:36:09.181,4 Dec 2013 14:48:18.548,729.367
11,4 Dec 2013 16:13:17.743,4 Dec 2013 16:24:56.415,698.671
12,4 Dec 2013 17:46:22.971,4 Dec 2013 17:58:20.993,718.022
13,4 Dec 2013 19:18:47.906,4 Dec 2013 19:30:37.623,709.717
14,4 Dec 2013 20:50:57.219,4 Dec 2013 21:02:53.011,715.791
15,4 Dec 2013 22:23:57.595,4 Dec 2013 22:35:35.806,698.210
16,4 Dec 2013 23:59:15.746,5 Dec 2013 00:08:39.046,563.300
17,5 Dec 2013 03:11:09.255,5 Dec 2013 03:23:22.197,732.942
18,5 Dec 2013 12:10:05.732,5 Dec 2013 12:19:58.636,592.904
19,5 Dec 2013 13:44:37.386,5 Dec 2013 13:53:24.847,527.461
20,5 Dec 2013 15:17:50.577,5 Dec 2013 15:25:29.506,458.930
21,5 Dec 2013 16:49:09.704,5 Dec 2013 16:57:33.553,503.850
22,5 Dec 2013 18:19:28.603,5 Dec 2013 18:30:09.941,641.338
23,5 Dec 2013 19:50:50.524,5 Dec 2013 20:02:40.338,709.814
24,5 Dec 2013 21:26:02.352,5 Dec 2013 21:35:50.239,587.887
25,5 Dec 2013 23:06:08.611,5 Dec 2013 23:16:40.924,632.313
26,6 Dec 2013 00:43:16.590,6 Dec 2013 00:55:41.057,744.467
27,6 Dec 2013 17:24:48.276,6 Dec 2013 17:31:43.104,414.829
28,6 Dec 2013 19:00:12.787,6 Dec 2013 19:12:50.912,758.125
29,6 Dec 2013 20:39:22.667,6 Dec 2013 20:52:08.050,765.383
30,6 Dec 2013 22:18:11.517,6 Dec 2013 22:30:12.061,720.544
31,7 Dec 2013 16:38:25.681,7 Dec 2013 16:49:04.386,638.705
32,7 Dec 2013 18:15:42.366,7 Dec 2013 18:28:23.446,761.080
33,7 Dec 2013 19:54:44.370,7 Dec 2013 20:06:55.757,731.387
34,7 Dec 2013 21:36:58.467,7 Dec 2013 21:39:44.762,166.296

