Raw and processed data/Altitude Variations/us_greatcircle_12sat_400km/Aircraft-B747LAX_Sydney-Transmitter-adsb_out6212-To-Satellite-400km_p1_1-Receiver-adsb_satrcvr2 Access.csv

"Access","Start Time (UTCG)","Stop Time (UTCG)","Duration (sec)"
1,3 Dec 2013 05:26:59.028,3 Dec 2013 05:38:08.247,669.220
2,3 Dec 2013 07:06:20.142,3 Dec 2013 07:16:19.670,599.528
3,3 Dec 2013 13:51:19.288,3 Dec 2013 14:03:24.950,725.662
4,3 Dec 2013 15:27:47.629,3 Dec 2013 15:37:40.433,592.804
5,3 Dec 2013 17:05:49.891,3 Dec 2013 17:11:08.249,318.358
6,4 Dec 2013 04:28:57.646,4 Dec 2013 04:33:31.866,274.220
7,4 Dec 2013 06:05:13.947,4 Dec 2013 06:17:43.308,749.361
8,4 Dec 2013 07:48:04.173,4 Dec 2013 07:51:44.559,220.386
9,4 Dec 2013 14:34:23.782,4 Dec 2013 14:46:30.906,727.124
10,5 Dec 2013 05:10:17.903,5 Dec 2013 05:20:11.924,594.022
11,5 Dec 2013 06:44:09.472,5 Dec 2013 06:56:42.731,753.259
12,5 Dec 2013 15:18:06.396,5 Dec 2013 15:30:02.878,716.482
13,6 Dec 2013 04:24:42.359,6 Dec 2013 04:34:47.452,605.094
14,6 Dec 2013 05:56:21.922,6 Dec 2013 06:08:01.234,699.312
15,6 Dec 2013 07:30:10.656,6 Dec 2013 07:38:26.525,495.870
16,6 Dec 2013 16:02:06.640,6 Dec 2013 16:13:52.837,706.196
17,7 Dec 2013 03:38:57.853,7 Dec 2013 03:49:27.613,629.760
18,7 Dec 2013 05:10:49.799,7 Dec 2013 05:22:08.151,678.352
19,7 Dec 2013 06:47:50.111,7 Dec 2013 06:49:30.087,99.976
20,7 Dec 2013 16:46:09.880,7 Dec 2013 16:57:48.730,698.850
21,8 Dec 2013 01:23:07.348,8 Dec 2013 01:29:46.418,399.070
22,8 Dec 2013 02:52:50.772,8 Dec 2013 03:04:08.345,677.573
23,8 Dec 2013 04:25:20.350,8 Dec 2013 04:36:23.954,663.604
24,8 Dec 2013 17:30:06.443,8 Dec 2013 17:41:35.897,689.454
25,9 Dec 2013 02:02:16.662,9 Dec 2013 02:13:48.192,691.530
26,9 Dec 2013 03:39:53.070,9 Dec 2013 03:50:37.044,643.974
27,9 Dec 2013 05:16:51.908,9 Dec 2013 05:20:06.619,194.711
28,9 Dec 2013 18:13:49.413,9 Dec 2013 18:24:56.881,667.468
29,9 Dec 2013 19:52:40.790,9 Dec 2013 19:56:39.794,239.004
30,10 Dec 2013 02:40:38.452,10 Dec 2013 02:53:02.952,744.499
31,10 Dec 2013 04:22:06.450,10 Dec 2013 04:30:27.887,501.437

"Access","Start Time (UTCG)","Stop Time (UTCG)","Duration (sec)"
1,3 Dec 2013 05:03:15.598,3 Dec 2013 05:12:05.001,529.403
2,3 Dec 2013 06:40:43.422,3 Dec 2013 06:52:34.536,711.114
3,3 Dec 2013 13:27:29.036,3 Dec 2013 13:39:32.526,723.491
4,3 Dec 2013 15:03:40.876,3 Dec 2013 15:14:04.180,623.305
5,3 Dec 2013 16:40:56.703,3 Dec 2013 16:48:03.086,426.382
6,4 Dec 2013 05:40:49.131,4 Dec 2013 05:52:33.081,703.951
7,4 Dec 2013 07:20:36.433,4 Dec 2013 07:30:01.811,565.378
8,4 Dec 2013 14:11:00.814,4 Dec 2013 14:22:21.887,681.072
9,4 Dec 2013 15:50:19.497,4 Dec 2013 15:51:37.650,78.153
10,5 Dec 2013 04:47:38.251,5 Dec 2013 04:56:17.528,519.277
11,5 Dec 2013 06:19:29.591,5 Dec 2013 06:32:01.643,752.051
12,5 Dec 2013 08:01:14.817,5 Dec 2013 08:06:27.908,313.091
13,5 Dec 2013 14:55:07.998,5 Dec 2013 15:05:42.100,634.102
14,5 Dec 2013 16:32:11.972,5 Dec 2013 16:36:54.504,282.532
15,6 Dec 2013 04:02:20.697,6 Dec 2013 04:10:50.447,509.750
16,6 Dec 2013 05:33:13.731,6 Dec 2013 05:44:59.589,705.858
17,6 Dec 2013 07:06:30.039,6 Dec 2013 07:16:07.448,577.409
18,6 Dec 2013 15:39:26.309,6 Dec 2013 15:49:25.736,599.427
19,6 Dec 2013 17:15:38.406,6 Dec 2013 17:21:23.114,344.709
20,7 Dec 2013 03:16:35.146,7 Dec 2013 03:25:44.159,549.013
21,7 Dec 2013 04:47:34.254,7 Dec 2013 04:59:15.341,701.087
22,7 Dec 2013 06:22:10.852,7 Dec 2013 06:29:06.479,415.627
23,7 Dec 2013 16:23:41.158,7 Dec 2013 16:33:17.697,576.539
24,7 Dec 2013 17:59:20.621,7 Dec 2013 18:05:59.354,398.734
25,8 Dec 2013 01:01:36.038,8 Dec 2013 01:05:21.955,225.917
26,8 Dec 2013 02:30:07.482,8 Dec 2013 02:40:46.634,639.152
27,8 Dec 2013 04:01:57.239,8 Dec 2013 04:13:32.107,694.868
28,8 Dec 2013 05:37:25.980,8 Dec 2013 05:43:16.257,350.277
29,8 Dec 2013 17:07:47.911,8 Dec 2013 17:16:57.514,549.603
30,8 Dec 2013 18:42:47.575,8 Dec 2013 18:50:47.665,480.090
31,9 Dec 2013 01:38:57.358,9 Dec 2013 01:48:12.991,555.633
32,9 Dec 2013 03:15:58.794,9 Dec 2013 03:27:39.482,700.688
33,9 Dec 2013 04:51:41.493,9 Dec 2013 04:58:33.087,411.593
34,9 Dec 2013 17:51:47.641,9 Dec 2013 18:00:01.100,493.459
35,9 Dec 2013 19:25:45.747,9 Dec 2013 19:35:28.312,582.565
36,10 Dec 2013 02:16:35.108,10 Dec 2013 02:27:55.106,679.999
37,10 Dec 2013 03:55:54.957,10 Dec 2013 04:06:27.174,632.217

"Access","Start Time (UTCG)","Stop Time (UTCG)","Duration (sec)"
1,3 Dec 2013 01:16:11.754,3 Dec 2013 01:17:42.938,91.183
2,3 Dec 2013 04:40:40.517,3 Dec 2013 04:44:30.570,230.053
3,3 Dec 2013 06:15:43.638,3 Dec 2013 06:28:15.876,752.238
4,3 Dec 2013 13:04:06.047,3 Dec 2013 13:14:51.375,645.327
5,3 Dec 2013 14:39:39.681,3 Dec 2013 14:50:26.288,646.606
6,3 Dec 2013 16:16:22.999,3 Dec 2013 16:24:42.415,499.416
7,4 Dec 2013 05:16:36.614,4 Dec 2013 05:26:51.601,614.987
8,4 Dec 2013 06:54:56.558,4 Dec 2013 07:06:33.480,696.922
9,4 Dec 2013 13:48:23.089,4 Dec 2013 13:57:10.044,526.955
10,4 Dec 2013 15:22:59.326,4 Dec 2013 15:32:12.856,553.529
11,5 Dec 2013 04:25:17.532,5 Dec 2013 04:31:59.854,402.322
12,5 Dec 2013 05:56:04.912,5 Dec 2013 06:07:22.103,677.191
13,5 Dec 2013 07:34:30.693,5 Dec 2013 07:44:23.331,592.637
14,5 Dec 2013 14:33:23.994,5 Dec 2013 14:39:55.953,391.959
15,5 Dec 2013 16:06:10.290,5 Dec 2013 16:16:07.621,597.332
16,6 Dec 2013 03:40:34.446,6 Dec 2013 03:46:16.246,341.799
17,6 Dec 2013 05:10:13.232,6 Dec 2013 05:21:47.829,694.597
18,6 Dec 2013 06:42:59.636,6 Dec 2013 06:53:35.642,636.006
19,6 Dec 2013 08:18:47.653,6 Dec 2013 08:21:41.943,174.289
20,6 Dec 2013 15:18:34.159,6 Dec 2013 15:23:07.460,273.301
21,6 Dec 2013 16:49:53.025,6 Dec 2013 17:00:11.735,618.709
22,7 Dec 2013 02:54:39.092,7 Dec 2013 03:01:35.816,416.724
23,7 Dec 2013 04:24:30.049,7 Dec 2013 04:36:11.033,700.984
24,7 Dec 2013 05:58:01.651,7 Dec 2013 06:07:10.667,549.016
25,7 Dec 2013 16:03:32.898,7 Dec 2013 16:06:31.012,178.114
26,7 Dec 2013 17:33:46.071,7 Dec 2013 17:44:23.355,637.285
27,8 Dec 2013 02:07:34.170,8 Dec 2013 02:17:17.455,583.285
28,8 Dec 2013 03:38:45.361,8 Dec 2013 03:50:31.413,706.053
29,8 Dec 2013 05:12:53.698,8 Dec 2013 05:21:27.204,513.505
30,8 Dec 2013 18:17:30.843,8 Dec 2013 18:28:36.046,665.203
31,9 Dec 2013 01:17:42.006,9 Dec 2013 01:20:39.371,177.365
32,9 Dec 2013 02:50:55.881,9 Dec 2013 03:03:31.138,755.257
33,9 Dec 2013 04:27:26.213,9 Dec 2013 04:36:09.378,523.165
34,9 Dec 2013 19:00:53.161,9 Dec 2013 19:12:34.932,701.770
35,10 Dec 2013 01:53:16.801,10 Dec 2013 02:02:04.450,527.649
36,10 Dec 2013 03:30:18.817,10 Dec 2013 03:42:13.445,714.628

"Access","Start Time (UTCG)","Stop Time (UTCG)","Duration (sec)"
1,3 Dec 2013 05:51:09.894,3 Dec 2013 06:03:28.158,738.264
2,3 Dec 2013 07:33:12.083,3 Dec 2013 07:39:00.145,348.061
3,3 Dec 2013 12:41:28.107,3 Dec 2013 12:48:59.833,451.726
4,3 Dec 2013 14:15:38.329,3 Dec 2013 14:26:47.676,669.347
5,3 Dec 2013 15:52:01.067,3 Dec 2013 16:01:13.788,552.722
6,3 Dec 2013 17:31:48.822,3 Dec 2013 17:33:11.961,83.139
7,4 Dec 2013 04:52:36.379,4 Dec 2013 05:00:34.883,478.504
8,4 Dec 2013 06:29:54.188,4 Dec 2013 06:42:23.977,749.789
9,4 Dec 2013 14:58:20.148,4 Dec 2013 15:09:50.888,690.740
10,5 Dec 2013 04:03:56.760,5 Dec 2013 04:06:37.317,160.557
11,5 Dec 2013 05:33:07.990,5 Dec 2013 05:43:52.074,644.084
12,5 Dec 2013 07:09:05.251,5 Dec 2013 07:20:53.279,708.027
13,5 Dec 2013 15:41:46.363,5 Dec 2013 15:53:32.162,705.798
14,6 Dec 2013 04:47:21.846,6 Dec 2013 04:58:24.663,662.817
15,6 Dec 2013 06:19:37.211,6 Dec 2013 06:30:53.285,676.074
16,6 Dec 2013 07:54:07.421,6 Dec 2013 08:00:27.072,379.651
17,6 Dec 2013 16:25:36.217,6 Dec 2013 16:37:27.617,711.400
18,7 Dec 2013 02:34:10.271,7 Dec 2013 02:36:02.528,112.257
19,7 Dec 2013 04:01:37.401,7 Dec 2013 04:12:55.479,678.078
20,7 Dec 2013 05:34:17.817,7 Dec 2013 05:44:47.876,630.059
21,7 Dec 2013 17:09:33.178,7 Dec 2013 17:21:29.093,715.915
22,8 Dec 2013 01:45:12.598,8 Dec 2013 01:53:38.958,506.360
23,8 Dec 2013 03:15:43.399,8 Dec 2013 03:27:23.280,699.881
24,8 Dec 2013 04:48:57.303,8 Dec 2013 04:59:04.231,606.928
25,8 Dec 2013 17:53:23.702,8 Dec 2013 18:05:25.834,722.133
26,9 Dec 2013 02:26:20.381,9 Dec 2013 02:38:48.718,748.337
27,9 Dec 2013 04:03:32.828,9 Dec 2013 04:13:28.131,595.304
28,9 Dec 2013 18:36:56.729,9 Dec 2013 18:49:02.637,725.908
29,10 Dec 2013 03:05:13.819,10 Dec 2013 03:17:46.534,752.715
30,10 Dec 2013 04:49:04.414,10 Dec 2013 04:54:07.074,302.660

"Access","Start Time (UTCG)","Stop Time (UTCG)","Duration (sec)"
1,3 Dec 2013 03:19:36.675,3 Dec 2013 03:27:45.911,489.236
2,3 Dec 2013 04:53:29.254,3 Dec 2013 05:02:46.844,557.591
3,3 Dec 2013 11:48:05.386,3 Dec 2013 11:57:38.893,573.507
4,3 Dec 2013 13:25:28.516,3 Dec 2013 13:37:21.939,713.423
5,3 Dec 2013 15:06:09.519,3 Dec 2013 15:10:08.501,238.982
6,4 Dec 2013 04:03:43.271,4 Dec 2013 04:10:21.132,397.861
7,4 Dec 2013 05:36:22.691,4 Dec 2013 05:47:06.603,643.912
8,4 Dec 2013 12:25:41.435,4 Dec 2013 12:37:22.405,700.970
9,4 Dec 2013 14:05:40.200,4 Dec 2013 14:15:25.045,584.845
10,4 Dec 2013 23:58:58.943,5 Dec 2013 00:02:07.027,188.084
11,5 Dec 2013 01:32:11.617,5 Dec 2013 01:42:03.604,591.987
12,5 Dec 2013 03:07:23.759,5 Dec 2013 03:19:12.989,709.230
13,5 Dec 2013 04:43:03.887,5 Dec 2013 04:55:16.538,732.651
14,5 Dec 2013 06:18:44.032,5 Dec 2013 06:30:37.021,712.990
15,5 Dec 2013 13:04:00.642,5 Dec 2013 13:16:33.841,753.199
16,5 Dec 2013 19:48:49.334,5 Dec 2013 19:59:53.828,664.493
17,5 Dec 2013 21:24:17.069,5 Dec 2013 21:35:59.635,702.565
18,5 Dec 2013 23:00:08.707,5 Dec 2013 23:12:22.380,733.673
19,6 Dec 2013 00:36:40.185,6 Dec 2013 00:48:26.013,705.828
20,6 Dec 2013 02:14:20.121,6 Dec 2013 02:23:46.317,566.196
21,6 Dec 2013 03:54:09.193,6 Dec 2013 03:57:37.634,208.441
22,6 Dec 2013 12:05:27.682,6 Dec 2013 12:14:34.211,546.529
23,6 Dec 2013 13:43:07.130,6 Dec 2013 13:54:59.095,711.966
24,6 Dec 2013 20:31:50.983,6 Dec 2013 20:43:13.300,682.317
25,6 Dec 2013 22:09:45.595,6 Dec 2013 22:15:32.233,346.638
26,7 Dec 2013 11:08:44.371,7 Dec 2013 11:10:24.325,99.954
27,7 Dec 2013 12:43:13.905,7 Dec 2013 12:54:58.255,704.350
28,7 Dec 2013 14:22:51.399,7 Dec 2013 14:32:35.095,583.695
29,7 Dec 2013 21:15:52.413,7 Dec 2013 21:26:03.428,611.015
30,7 Dec 2013 22:51:56.452,7 Dec 2013 22:58:51.274,414.823
31,8 Dec 2013 11:52:51.291,8 Dec 2013 12:02:39.158,587.867
32,8 Dec 2013 13:24:33.638,8 Dec 2013 13:36:23.075,709.436
33,8 Dec 2013 15:02:54.364,8 Dec 2013 15:09:44.697,410.334
34,8 Dec 2013 22:00:20.372,8 Dec 2013 22:09:24.578,544.206
35,8 Dec 2013 23:35:08.899,8 Dec 2013 23:43:02.267,473.368
36,9 Dec 2013 11:07:16.591,9 Dec 2013 11:17:15.883,599.293
37,9 Dec 2013 12:38:50.735,9 Dec 2013 12:50:26.076,695.341
38,9 Dec 2013 14:13:12.410,9 Dec 2013 14:20:15.098,422.688
39,9 Dec 2013 22:44:49.639,9 Dec 2013 22:53:08.429,498.791
40,10 Dec 2013 00:18:53.095,10 Dec 2013 00:27:18.053,504.958

"Access","Start Time (UTCG)","Stop Time (UTCG)","Duration (sec)"
1,3 Dec 2013 04:28:35.236,3 Dec 2013 04:40:08.317,693.080
2,3 Dec 2013 11:26:19.126,3 Dec 2013 11:30:27.991,248.865
3,3 Dec 2013 13:00:20.713,3 Dec 2013 13:12:52.608,751.896
4,3 Dec 2013 14:41:19.196,3 Dec 2013 14:48:08.291,409.095
5,4 Dec 2013 05:11:49.700,4 Dec 2013 05:23:51.648,721.948
6,4 Dec 2013 12:02:07.470,4 Dec 2013 12:11:42.218,574.748
7,4 Dec 2013 13:39:50.943,4 Dec 2013 13:51:22.733,691.791
8,5 Dec 2013 01:08:33.783,5 Dec 2013 01:17:29.452,535.669
9,5 Dec 2013 02:43:31.501,5 Dec 2013 02:55:03.397,691.895
10,5 Dec 2013 04:19:08.347,5 Dec 2013 04:31:20.074,731.727
11,5 Dec 2013 05:54:45.010,5 Dec 2013 06:06:51.222,726.211
12,5 Dec 2013 12:39:36.827,5 Dec 2013 12:51:37.271,720.443
13,5 Dec 2013 14:20:33.408,5 Dec 2013 14:28:31.807,478.399
14,5 Dec 2013 19:25:05.796,5 Dec 2013 19:35:59.055,653.259
15,5 Dec 2013 21:00:23.144,5 Dec 2013 21:11:55.097,691.953
16,5 Dec 2013 22:36:07.945,5 Dec 2013 22:48:17.242,729.297
17,6 Dec 2013 00:12:27.192,6 Dec 2013 00:24:28.414,721.222
18,6 Dec 2013 01:49:46.708,6 Dec 2013 02:00:01.407,614.699
19,6 Dec 2013 03:28:49.040,6 Dec 2013 03:34:28.600,339.560
20,6 Dec 2013 11:42:19.313,6 Dec 2013 11:47:27.377,308.064
21,6 Dec 2013 13:18:08.388,6 Dec 2013 13:30:41.071,752.683
22,6 Dec 2013 20:08:59.646,6 Dec 2013 20:17:54.946,535.300
23,6 Dec 2013 21:43:53.142,6 Dec 2013 21:53:38.166,585.024
24,7 Dec 2013 12:18:55.999,7 Dec 2013 12:29:18.445,622.446
25,7 Dec 2013 13:57:18.745,7 Dec 2013 14:09:03.656,704.911
26,7 Dec 2013 20:54:17.721,7 Dec 2013 20:59:46.985,329.264
27,7 Dec 2013 22:26:38.751,7 Dec 2013 22:37:17.012,638.261
28,8 Dec 2013 11:30:21.196,8 Dec 2013 11:38:39.415,498.219
29,8 Dec 2013 13:01:28.849,8 Dec 2013 13:13:10.617,701.768
30,8 Dec 2013 14:36:43.482,8 Dec 2013 14:47:11.475,627.992
31,8 Dec 2013 23:10:07.498,8 Dec 2013 23:21:09.267,661.769
32,9 Dec 2013 10:45:00.724,9 Dec 2013 10:53:17.639,496.915
33,9 Dec 2013 12:15:41.684,9 Dec 2013 12:27:26.511,704.827
34,9 Dec 2013 13:49:15.354,9 Dec 2013 13:58:13.496,538.142
35,9 Dec 2013 23:53:57.774,10 Dec 2013 00:05:11.985,674.211

"Access","Start Time (UTCG)","Stop Time (UTCG)","Duration (sec)"
1,3 Dec 2013 04:04:40.407,3 Dec 2013 04:16:43.819,723.412
2,3 Dec 2013 12:35:40.889,3 Dec 2013 12:48:11.840,750.951
3,3 Dec 2013 14:17:01.423,3 Dec 2013 14:25:34.451,513.029
4,4 Dec 2013 04:48:06.931,4 Dec 2013 05:00:04.978,718.047
5,4 Dec 2013 11:40:04.178,4 Dec 2013 11:44:25.397,261.219
6,4 Dec 2013 13:14:37.169,4 Dec 2013 13:27:02.859,745.690
7,5 Dec 2013 00:45:03.335,5 Dec 2013 00:52:44.631,461.295
8,5 Dec 2013 02:19:41.556,5 Dec 2013 02:30:49.239,667.683
9,5 Dec 2013 03:55:12.765,5 Dec 2013 04:07:20.873,728.108
10,5 Dec 2013 05:30:52.713,5 Dec 2013 05:43:02.015,729.302
11,5 Dec 2013 07:10:00.505,5 Dec 2013 07:16:35.406,394.901
12,5 Dec 2013 12:15:42.355,5 Dec 2013 12:26:05.303,622.947
13,5 Dec 2013 13:54:17.275,5 Dec 2013 14:05:06.031,648.756
14,5 Dec 2013 19:01:56.329,5 Dec 2013 19:10:34.626,518.296
15,5 Dec 2013 20:36:30.529,5 Dec 2013 20:47:52.258,681.729
16,5 Dec 2013 22:12:09.271,5 Dec 2013 22:24:11.338,722.067
17,5 Dec 2013 23:48:17.923,6 Dec 2013 00:00:28.383,730.460
18,6 Dec 2013 01:25:19.368,6 Dec 2013 01:36:12.799,653.431
19,6 Dec 2013 03:03:49.206,6 Dec 2013 03:11:01.905,432.698
20,6 Dec 2013 12:53:33.944,6 Dec 2013 13:05:53.229,739.285
21,6 Dec 2013 14:35:33.392,6 Dec 2013 14:41:15.139,341.747
22,6 Dec 2013 21:19:18.904,6 Dec 2013 21:31:01.752,702.848
23,7 Dec 2013 11:54:43.787,7 Dec 2013 12:03:10.234,506.446
24,7 Dec 2013 13:32:19.852,7 Dec 2013 13:44:51.984,752.131
25,7 Dec 2013 22:02:25.546,7 Dec 2013 22:14:24.190,718.644
26,8 Dec 2013 11:08:19.753,8 Dec 2013 11:14:07.072,347.319
27,8 Dec 2013 12:38:29.013,8 Dec 2013 12:49:50.547,681.535
28,8 Dec 2013 14:11:28.990,8 Dec 2013 14:23:32.110,723.120
29,8 Dec 2013 22:46:06.638,8 Dec 2013 22:58:07.387,720.749
30,9 Dec 2013 10:23:26.227,9 Dec 2013 10:28:37.547,311.321
31,9 Dec 2013 11:52:41.820,9 Dec 2013 12:04:15.909,694.089
32,9 Dec 2013 13:25:36.118,9 Dec 2013 13:35:51.259,615.141
33,9 Dec 2013 23:30:03.406,9 Dec 2013 23:42:03.407,720.001

"Access","Start Time (UTCG)","Stop Time (UTCG)","Duration (sec)"
1,3 Dec 2013 03:41:35.243,3 Dec 2013 03:52:41.914,666.672
2,3 Dec 2013 05:21:56.210,3 Dec 2013 05:22:08.004,11.795
3,3 Dec 2013 12:11:32.225,3 Dec 2013 12:23:12.308,700.084
4,3 Dec 2013 13:51:02.929,3 Dec 2013 14:01:44.698,641.769
5,4 Dec 2013 04:25:14.725,4 Dec 2013 04:35:44.830,630.106
6,4 Dec 2013 06:02:11.333,4 Dec 2013 06:09:27.536,436.203
7,4 Dec 2013 12:49:54.038,4 Dec 2013 13:02:24.609,750.572
8,4 Dec 2013 14:32:18.143,4 Dec 2013 14:39:01.910,403.767
9,5 Dec 2013 00:21:45.244,5 Dec 2013 00:27:43.775,358.531
10,5 Dec 2013 01:55:54.635,5 Dec 2013 02:06:29.675,635.040
11,5 Dec 2013 03:31:17.707,5 Dec 2013 03:43:18.646,720.939
12,5 Dec 2013 05:06:58.852,5 Dec 2013 05:19:10.475,731.623
13,5 Dec 2013 06:43:44.095,5 Dec 2013 06:53:59.990,615.895
14,5 Dec 2013 11:52:35.914,5 Dec 2013 11:59:32.086,416.172
15,5 Dec 2013 13:28:52.230,5 Dec 2013 13:41:03.151,730.920
16,5 Dec 2013 18:40:45.911,5 Dec 2013 18:42:23.103,97.192
17,5 Dec 2013 20:12:39.232,5 Dec 2013 20:23:51.679,672.447
18,5 Dec 2013 21:48:12.390,5 Dec 2013 22:00:05.263,712.872
19,5 Dec 2013 23:24:11.903,5 Dec 2013 23:36:26.245,734.341
20,6 Dec 2013 01:00:57.390,6 Dec 2013 01:12:20.897,683.507
21,6 Dec 2013 02:39:00.496,6 Dec 2013 02:47:26.885,506.389
22,6 Dec 2013 12:29:19.712,6 Dec 2013 12:40:33.654,673.941
23,6 Dec 2013 14:08:41.798,6 Dec 2013 14:18:41.850,600.052
24,6 Dec 2013 20:55:20.641,6 Dec 2013 21:07:31.392,730.751
25,6 Dec 2013 22:34:28.523,6 Dec 2013 22:38:23.139,234.616
26,7 Dec 2013 11:30:34.237,7 Dec 2013 11:36:36.616,362.379
27,7 Dec 2013 13:07:40.494,7 Dec 2013 13:20:09.442,748.949
28,7 Dec 2013 14:49:53.104,7 Dec 2013 14:54:36.311,283.206
29,7 Dec 2013 21:38:49.456,7 Dec 2013 21:50:40.609,711.153
30,8 Dec 2013 12:15:35.634,8 Dec 2013 12:26:21.032,645.399
31,8 Dec 2013 13:47:42.428,8 Dec 2013 13:59:29.232,706.804
32,8 Dec 2013 22:22:47.526,8 Dec 2013 22:34:15.972,688.446
33,9 Dec 2013 11:29:52.477,9 Dec 2013 11:40:53.235,660.758
34,9 Dec 2013 13:02:08.655,9 Dec 2013 13:13:14.635,665.979
35,9 Dec 2013 14:37:52.955,9 Dec 2013 14:41:30.254,217.299
36,9 Dec 2013 23:06:55.301,9 Dec 2013 23:18:07.489,672.189

"Access","Start Time (UTCG)","Stop Time (UTCG)","Duration (sec)"
1,3 Dec 2013 09:21:18.948,3 Dec 2013 09:32:42.550,683.603
2,3 Dec 2013 20:56:28.002,3 Dec 2013 21:06:56.773,628.772
3,3 Dec 2013 22:28:20.113,3 Dec 2013 22:39:40.036,679.923
4,4 Dec 2013 00:04:14.891,4 Dec 2013 00:07:56.399,221.507
5,4 Dec 2013 10:05:13.253,4 Dec 2013 10:16:46.215,692.962
6,4 Dec 2013 18:42:01.067,4 Dec 2013 18:46:06.066,244.999
7,4 Dec 2013 20:10:30.019,4 Dec 2013 20:21:36.953,666.934
8,4 Dec 2013 21:42:51.843,4 Dec 2013 21:53:53.430,661.587
9,5 Dec 2013 10:49:05.325,5 Dec 2013 11:00:50.573,705.248
10,5 Dec 2013 19:23:46.976,5 Dec 2013 19:36:02.086,735.110
11,5 Dec 2013 20:57:23.965,5 Dec 2013 21:08:09.874,645.909
12,6 Dec 2013 11:32:41.625,6 Dec 2013 11:44:42.882,721.256
13,6 Dec 2013 18:29:38.694,6 Dec 2013 18:31:51.289,132.595
14,6 Dec 2013 20:02:47.474,6 Dec 2013 20:15:20.120,752.646
15,6 Dec 2013 21:46:06.099,6 Dec 2013 21:52:24.426,378.327
16,7 Dec 2013 10:44:15.488,7 Dec 2013 10:49:32.610,317.122
17,7 Dec 2013 12:15:52.675,7 Dec 2013 12:28:03.758,731.083
18,7 Dec 2013 19:04:31.544,7 Dec 2013 19:14:01.894,570.350
19,7 Dec 2013 20:42:16.300,7 Dec 2013 20:53:44.706,688.406
20,8 Dec 2013 05:01:45.514,8 Dec 2013 05:04:35.463,169.949
21,8 Dec 2013 06:35:34.067,8 Dec 2013 06:44:32.191,538.123
22,8 Dec 2013 08:10:50.025,8 Dec 2013 08:22:24.590,694.564
23,8 Dec 2013 09:46:51.471,8 Dec 2013 09:59:06.099,734.628
24,8 Dec 2013 11:23:20.227,8 Dec 2013 11:35:04.274,704.048
25,8 Dec 2013 12:59:42.418,8 Dec 2013 13:10:38.935,656.517
26,8 Dec 2013 14:38:59.676,8 Dec 2013 14:44:07.746,308.070
27,8 Dec 2013 19:42:00.063,8 Dec 2013 19:54:01.817,721.754
28,8 Dec 2013 21:23:00.811,8 Dec 2013 21:30:42.973,462.163
29,9 Dec 2013 02:29:38.548,9 Dec 2013 02:39:08.630,570.082
30,9 Dec 2013 04:04:12.974,9 Dec 2013 04:16:24.784,731.810
31,9 Dec 2013 05:40:04.189,9 Dec 2013 05:51:58.210,714.021
32,9 Dec 2013 07:16:56.470,9 Dec 2013 07:27:12.818,616.348
33,9 Dec 2013 08:56:04.101,9 Dec 2013 09:00:58.535,294.434
34,9 Dec 2013 18:44:07.419,9 Dec 2013 18:50:17.007,369.588
35,9 Dec 2013 20:20:33.380,9 Dec 2013 20:33:06.831,753.451
36,10 Dec 2013 03:14:46.949,10 Dec 2013 03:20:14.276,327.327
37,10 Dec 2013 04:47:27.306,10 Dec 2013 04:58:29.450,662.144

"Access","Start Time (UTCG)","Stop Time (UTCG)","Duration (sec)"
1,3 Dec 2013 08:57:28.943,3 Dec 2013 09:09:29.267,720.324
2,3 Dec 2013 20:34:05.041,3 Dec 2013 20:43:10.364,545.323
3,3 Dec 2013 22:05:05.502,3 Dec 2013 22:16:47.015,701.513
4,3 Dec 2013 23:39:24.966,3 Dec 2013 23:46:47.292,442.326
5,4 Dec 2013 09:41:28.968,4 Dec 2013 09:53:26.547,717.579
6,4 Dec 2013 19:47:52.750,4 Dec 2013 19:58:10.161,617.411
7,4 Dec 2013 21:19:29.229,4 Dec 2013 21:31:03.660,694.431
8,4 Dec 2013 22:55:05.615,4 Dec 2013 23:00:23.729,318.115
9,5 Dec 2013 10:25:25.863,5 Dec 2013 10:37:21.006,715.142
10,5 Dec 2013 18:59:36.935,5 Dec 2013 19:11:26.174,709.239
11,5 Dec 2013 20:33:54.502,5 Dec 2013 20:45:15.867,681.365
12,5 Dec 2013 22:09:33.355,5 Dec 2013 22:15:32.286,358.931
13,6 Dec 2013 11:09:10.071,6 Dec 2013 11:20:57.607,707.536
14,6 Dec 2013 19:38:10.306,6 Dec 2013 19:50:37.793,747.486
15,6 Dec 2013 21:19:33.133,6 Dec 2013 21:28:18.188,525.055
16,7 Dec 2013 10:21:42.279,7 Dec 2013 10:24:25.191,162.912
17,7 Dec 2013 11:52:34.653,7 Dec 2013 12:03:57.086,682.432
18,7 Dec 2013 13:31:41.655,7 Dec 2013 13:36:33.674,292.019
19,7 Dec 2013 18:42:24.927,7 Dec 2013 18:46:40.276,255.349
20,7 Dec 2013 20:17:02.486,7 Dec 2013 20:29:27.534,745.048
21,8 Dec 2013 06:11:54.270,8 Dec 2013 06:19:49.128,474.858
22,8 Dec 2013 07:46:56.257,8 Dec 2013 07:58:04.312,668.055
23,8 Dec 2013 09:22:47.610,8 Dec 2013 09:35:00.774,733.164
24,8 Dec 2013 10:59:12.064,8 Dec 2013 11:11:07.506,715.443
25,8 Dec 2013 12:35:39.739,8 Dec 2013 12:46:46.923,667.184
26,8 Dec 2013 14:12:10.081,8 Dec 2013 14:21:43.674,573.593
27,8 Dec 2013 19:18:01.527,8 Dec 2013 19:28:29.926,628.399
28,8 Dec 2013 20:56:41.637,8 Dec 2013 21:07:26.299,644.662
29,9 Dec 2013 02:07:38.859,9 Dec 2013 02:12:09.237,270.378
30,9 Dec 2013 03:40:22.046,9 Dec 2013 03:52:32.857,730.812
31,9 Dec 2013 05:16:01.825,9 Dec 2013 05:28:05.075,723.250
32,9 Dec 2013 06:52:35.512,9 Dec 2013 07:03:28.289,652.777
33,9 Dec 2013 08:30:52.018,9 Dec 2013 08:37:51.820,419.802
34,9 Dec 2013 19:55:58.463,9 Dec 2013 20:08:18.514,740.051
35,9 Dec 2013 21:37:48.207,9 Dec 2013 21:43:37.849,349.641
36,10 Dec 2013 04:23:17.267,10 Dec 2013 04:35:23.465,726.198

"Access","Start Time (UTCG)","Stop Time (UTCG)","Duration (sec)"
1,3 Dec 2013 08:34:22.611,3 Dec 2013 08:45:26.965,664.354
2,3 Dec 2013 20:12:10.912,3 Dec 2013 20:18:55.862,404.951
3,3 Dec 2013 21:42:01.362,3 Dec 2013 21:53:42.425,701.062
4,3 Dec 2013 23:15:25.203,3 Dec 2013 23:24:45.237,560.035
5,4 Dec 2013 09:18:32.870,4 Dec 2013 09:29:20.222,647.351
6,4 Dec 2013 19:25:29.287,4 Dec 2013 19:34:32.196,542.908
7,4 Dec 2013 20:56:18.612,4 Dec 2013 21:08:03.593,704.981
8,4 Dec 2013 22:30:26.901,4 Dec 2013 22:38:46.937,500.036
9,5 Dec 2013 10:02:37.408,5 Dec 2013 10:13:08.588,631.180
10,5 Dec 2013 11:40:11.085,5 Dec 2013 11:44:28.530,257.445
11,5 Dec 2013 18:36:07.341,5 Dec 2013 18:46:03.582,596.241
12,5 Dec 2013 20:10:34.189,5 Dec 2013 20:22:15.691,701.503
13,5 Dec 2013 21:45:04.048,5 Dec 2013 21:53:27.075,503.028
14,6 Dec 2013 10:46:32.024,6 Dec 2013 10:56:32.718,600.694
15,6 Dec 2013 12:22:43.029,6 Dec 2013 12:30:00.661,437.631
16,6 Dec 2013 19:14:04.926,6 Dec 2013 19:25:33.825,688.899
17,6 Dec 2013 20:53:28.634,6 Dec 2013 21:04:06.794,638.160
18,7 Dec 2013 11:30:16.190,7 Dec 2013 11:39:08.951,532.761
19,7 Dec 2013 13:04:57.863,7 Dec 2013 13:14:46.990,589.127
20,7 Dec 2013 19:52:19.748,7 Dec 2013 20:04:49.433,749.686
21,7 Dec 2013 21:35:01.540,7 Dec 2013 21:40:56.681,355.141
22,8 Dec 2013 05:48:19.756,8 Dec 2013 05:54:58.317,398.561
23,8 Dec 2013 07:23:05.505,8 Dec 2013 07:33:39.157,633.652
24,8 Dec 2013 08:58:45.913,8 Dec 2013 09:10:52.367,726.454
25,8 Dec 2013 10:35:04.165,8 Dec 2013 10:47:09.105,724.940
26,8 Dec 2013 12:11:34.735,8 Dec 2013 12:22:53.835,679.100
27,8 Dec 2013 13:47:38.859,8 Dec 2013 13:58:19.345,640.486
28,8 Dec 2013 18:54:43.687,8 Dec 2013 19:02:01.716,438.029
29,8 Dec 2013 20:31:16.798,8 Dec 2013 20:43:26.797,729.999
30,9 Dec 2013 03:16:32.051,9 Dec 2013 03:28:42.473,730.423
31,9 Dec 2013 04:52:02.692,9 Dec 2013 05:04:11.416,728.724
32,9 Dec 2013 06:28:20.405,9 Dec 2013 06:39:40.483,680.078
33,9 Dec 2013 08:06:01.902,9 Dec 2013 08:14:27.058,505.156
34,9 Dec 2013 19:31:40.993,9 Dec 2013 19:42:59.209,678.216
35,9 Dec 2013 21:11:01.904,9 Dec 2013 21:21:06.768,604.864
36,10 Dec 2013 03:59:38.983,10 Dec 2013 04:11:28.636,709.653

"Access","Start Time (UTCG)","Stop Time (UTCG)","Duration (sec)"
1,3 Dec 2013 01:12:08.577,3 Dec 2013 01:19:10.141,421.564
2,3 Dec 2013 08:12:19.561,3 Dec 2013 08:20:15.974,476.413
3,3 Dec 2013 09:46:03.293,3 Dec 2013 09:54:55.684,532.390
4,3 Dec 2013 21:19:08.225,3 Dec 2013 21:30:26.161,677.936
5,3 Dec 2013 22:51:45.863,3 Dec 2013 23:02:20.404,634.541
6,4 Dec 2013 08:56:51.582,4 Dec 2013 09:04:01.169,429.587
7,4 Dec 2013 10:29:53.201,4 Dec 2013 10:39:11.360,558.159
8,4 Dec 2013 19:03:25.153,4 Dec 2013 19:10:37.709,432.556
9,4 Dec 2013 20:33:18.910,4 Dec 2013 20:44:54.569,695.659
10,4 Dec 2013 22:06:29.024,4 Dec 2013 22:16:29.998,600.974
11,5 Dec 2013 09:41:13.025,5 Dec 2013 09:47:41.026,388.002
12,5 Dec 2013 11:13:39.267,5 Dec 2013 11:23:33.924,594.657
13,5 Dec 2013 18:14:01.035,5 Dec 2013 18:19:26.370,325.335
14,5 Dec 2013 19:47:21.210,5 Dec 2013 19:59:10.796,709.586
15,5 Dec 2013 21:21:05.404,5 Dec 2013 21:30:55.243,589.839
16,6 Dec 2013 10:25:36.233,6 Dec 2013 10:30:40.187,303.954
17,6 Dec 2013 11:57:03.907,6 Dec 2013 12:07:51.929,648.022
18,6 Dec 2013 18:50:43.394,6 Dec 2013 18:59:51.161,547.767
19,6 Dec 2013 20:27:53.586,6 Dec 2013 20:39:48.354,714.768
20,6 Dec 2013 22:12:49.778,6 Dec 2013 22:15:32.957,163.179
21,7 Dec 2013 11:07:20.372,7 Dec 2013 11:14:03.801,403.428
22,7 Dec 2013 12:39:58.185,7 Dec 2013 12:51:41.818,703.633
23,7 Dec 2013 19:28:06.953,7 Dec 2013 19:39:45.453,698.500
24,7 Dec 2013 21:08:08.424,7 Dec 2013 21:17:39.896,571.472
25,8 Dec 2013 05:24:53.292,8 Dec 2013 05:29:57.167,303.875
26,8 Dec 2013 06:59:18.001,8 Dec 2013 07:09:08.634,590.633
27,8 Dec 2013 08:34:46.645,8 Dec 2013 08:46:40.452,713.807
28,8 Dec 2013 10:10:57.132,8 Dec 2013 10:23:08.747,731.615
29,8 Dec 2013 11:47:28.005,8 Dec 2013 11:58:59.655,691.650
30,8 Dec 2013 13:23:42.250,8 Dec 2013 13:34:29.798,647.548
31,8 Dec 2013 20:06:25.231,8 Dec 2013 20:18:58.512,753.281
32,9 Dec 2013 02:52:51.041,9 Dec 2013 03:04:24.990,693.949
33,9 Dec 2013 04:28:06.477,9 Dec 2013 04:40:17.804,731.327
34,9 Dec 2013 06:04:10.201,9 Dec 2013 06:15:50.221,700.021
35,9 Dec 2013 07:41:24.601,9 Dec 2013 07:50:52.975,568.374
36,9 Dec 2013 19:07:40.747,9 Dec 2013 19:17:03.600,562.853
37,9 Dec 2013 20:45:30.562,9 Dec 2013 20:57:24.946,714.384
38,10 Dec 2013 03:36:35.312,10 Dec 2013 03:46:40.337,605.024
39,10 Dec 2013 05:12:27.479,10 Dec 2013 05:20:28.471,480.992

