Raw and processed data/Altitude Variations/us_greatcircle_12sat_400km/Aircraft-B747LAX_Narita-Transmitter-adsb_out6211-To-Satellite-400km_p1_1-Receiver-adsb_satrcvr2 Access.csv

"Access","Start Time (UTCG)","Stop Time (UTCG)","Duration (sec)"
1,3 Dec 2013 07:18:09.585,3 Dec 2013 07:30:37.523,747.938
2,3 Dec 2013 08:58:59.731,3 Dec 2013 09:07:10.913,491.182
3,3 Dec 2013 10:42:10.740,3 Dec 2013 10:47:04.272,293.533
4,3 Dec 2013 12:12:55.753,3 Dec 2013 12:23:20.877,625.123
5,3 Dec 2013 13:45:17.035,3 Dec 2013 13:56:59.410,702.375
6,3 Dec 2013 15:18:06.814,3 Dec 2013 15:30:04.525,717.711
7,3 Dec 2013 16:51:26.675,3 Dec 2013 17:03:28.193,721.518
8,3 Dec 2013 18:25:30.064,3 Dec 2013 18:37:34.993,724.929
9,3 Dec 2013 20:00:25.067,3 Dec 2013 20:12:27.110,722.043
10,4 Dec 2013 04:51:33.281,4 Dec 2013 05:03:46.830,733.549
11,4 Dec 2013 06:29:43.356,4 Dec 2013 06:38:49.150,545.795
12,4 Dec 2013 08:04:21.098,4 Dec 2013 08:14:17.099,596.001
13,4 Dec 2013 09:38:09.871,4 Dec 2013 09:48:41.816,631.945
14,4 Dec 2013 11:11:39.604,4 Dec 2013 11:22:13.011,633.407
15,4 Dec 2013 12:45:27.451,4 Dec 2013 12:55:13.168,585.717
16,4 Dec 2013 14:20:33.945,4 Dec 2013 14:27:47.508,433.563
17,4 Dec 2013 15:58:14.756,4 Dec 2013 16:02:10.808,236.052
18,4 Dec 2013 17:32:44.907,4 Dec 2013 17:45:09.191,744.285
19,5 Dec 2013 04:01:45.112,5 Dec 2013 04:08:07.254,382.143
20,5 Dec 2013 05:34:37.736,5 Dec 2013 05:42:46.891,489.155
21,5 Dec 2013 07:06:58.116,5 Dec 2013 07:16:27.139,569.023
22,5 Dec 2013 08:38:45.081,5 Dec 2013 08:49:38.951,653.870
23,5 Dec 2013 10:10:38.935,5 Dec 2013 10:22:28.421,709.486
24,5 Dec 2013 11:46:43.584,5 Dec 2013 11:58:00.692,677.108
25,5 Dec 2013 13:28:27.982,5 Dec 2013 13:38:18.929,590.947
26,5 Dec 2013 15:06:47.419,5 Dec 2013 15:19:22.492,755.073
27,5 Dec 2013 16:47:28.614,5 Dec 2013 16:52:09.088,280.475
28,6 Dec 2013 07:47:24.817,6 Dec 2013 07:53:29.729,364.913
29,6 Dec 2013 09:21:44.522,6 Dec 2013 09:34:24.617,760.095
30,6 Dec 2013 11:02:30.449,6 Dec 2013 11:13:35.611,665.162
31,6 Dec 2013 12:42:13.258,6 Dec 2013 12:54:39.031,745.773
32,6 Dec 2013 14:21:45.364,6 Dec 2013 14:31:35.000,589.636
33,7 Dec 2013 06:57:18.290,7 Dec 2013 07:09:48.992,750.702
34,7 Dec 2013 08:37:32.780,7 Dec 2013 08:47:39.167,606.387
35,7 Dec 2013 10:18:47.361,7 Dec 2013 10:28:47.379,600.017
36,7 Dec 2013 11:55:41.228,7 Dec 2013 12:07:30.220,708.992
37,7 Dec 2013 13:28:22.181,7 Dec 2013 13:39:32.614,670.433
38,7 Dec 2013 15:01:31.238,7 Dec 2013 15:11:01.799,570.562
39,7 Dec 2013 16:35:05.193,7 Dec 2013 16:42:48.760,463.566
40,7 Dec 2013 18:09:27.850,7 Dec 2013 18:15:08.879,341.029
41,8 Dec 2013 04:31:35.304,8 Dec 2013 04:43:52.158,736.854
42,8 Dec 2013 06:12:18.980,8 Dec 2013 06:18:49.162,390.182
43,8 Dec 2013 07:51:11.817,8 Dec 2013 07:55:23.345,251.528
44,8 Dec 2013 09:22:57.836,8 Dec 2013 09:31:56.304,538.468
45,8 Dec 2013 10:55:43.555,8 Dec 2013 11:06:09.666,626.112
46,8 Dec 2013 12:28:55.356,8 Dec 2013 12:39:42.513,647.157
47,8 Dec 2013 14:02:49.047,8 Dec 2013 14:13:21.950,632.904
48,8 Dec 2013 15:37:41.613,8 Dec 2013 15:47:39.716,598.103
49,8 Dec 2013 17:12:52.676,8 Dec 2013 17:25:07.431,734.755
50,9 Dec 2013 02:04:26.809,9 Dec 2013 02:16:16.897,710.088

"Access","Start Time (UTCG)","Stop Time (UTCG)","Duration (sec)"
1,3 Dec 2013 06:54:20.681,3 Dec 2013 07:06:10.482,709.801
2,3 Dec 2013 08:33:00.672,3 Dec 2013 08:43:06.652,605.980
3,3 Dec 2013 10:17:39.383,3 Dec 2013 10:20:58.013,198.630
4,3 Dec 2013 11:49:58.364,3 Dec 2013 11:59:40.901,582.537
5,3 Dec 2013 13:22:08.498,3 Dec 2013 13:33:40.675,692.177
6,3 Dec 2013 14:54:51.988,3 Dec 2013 15:06:48.016,716.029
7,3 Dec 2013 16:28:03.152,3 Dec 2013 16:40:03.779,720.628
8,3 Dec 2013 18:01:54.521,3 Dec 2013 18:13:58.768,724.247
9,3 Dec 2013 19:36:36.366,3 Dec 2013 19:48:40.507,724.141
10,3 Dec 2013 21:14:51.909,3 Dec 2013 21:19:20.415,268.506
11,4 Dec 2013 04:28:14.884,4 Dec 2013 04:39:31.803,676.919
12,4 Dec 2013 06:05:52.386,4 Dec 2013 06:14:49.892,537.505
13,4 Dec 2013 07:40:47.490,4 Dec 2013 07:50:30.660,583.170
14,4 Dec 2013 09:14:45.632,4 Dec 2013 09:25:11.499,625.867
15,4 Dec 2013 10:48:17.191,4 Dec 2013 10:58:53.928,636.737
16,4 Dec 2013 12:21:56.081,4 Dec 2013 12:32:00.159,604.078
17,4 Dec 2013 13:56:34.823,4 Dec 2013 14:04:42.921,488.098
18,4 Dec 2013 17:08:43.577,4 Dec 2013 17:20:33.252,709.675
19,4 Dec 2013 18:46:42.718,4 Dec 2013 18:54:39.518,476.800
20,5 Dec 2013 03:38:33.640,5 Dec 2013 03:44:10.284,336.645
21,5 Dec 2013 05:11:26.338,5 Dec 2013 05:19:14.423,468.085
22,5 Dec 2013 06:43:56.980,5 Dec 2013 06:53:05.489,548.509
23,5 Dec 2013 08:15:49.774,5 Dec 2013 08:26:22.945,633.171
24,5 Dec 2013 09:47:36.670,5 Dec 2013 09:59:18.654,701.983
25,5 Dec 2013 11:21:18.992,5 Dec 2013 11:33:23.815,724.823
26,5 Dec 2013 13:03:21.281,5 Dec 2013 13:12:51.099,569.818
27,5 Dec 2013 14:42:20.192,5 Dec 2013 14:54:32.893,732.701
28,5 Dec 2013 16:21:07.067,5 Dec 2013 16:30:39.394,572.327
29,6 Dec 2013 08:57:11.222,6 Dec 2013 09:09:43.185,751.963
30,6 Dec 2013 10:37:10.731,6 Dec 2013 10:48:34.774,684.043
31,6 Dec 2013 12:17:31.395,6 Dec 2013 12:29:28.293,716.898
32,6 Dec 2013 13:56:28.891,6 Dec 2013 14:08:10.067,701.176
33,7 Dec 2013 06:33:22.900,7 Dec 2013 06:45:12.115,709.216
34,7 Dec 2013 08:11:58.760,7 Dec 2013 08:23:06.026,667.266
35,7 Dec 2013 09:53:54.591,7 Dec 2013 10:03:05.009,550.419
36,7 Dec 2013 11:32:36.783,7 Dec 2013 11:44:16.660,699.876
37,7 Dec 2013 13:05:08.693,7 Dec 2013 13:16:37.518,688.824
38,7 Dec 2013 14:38:11.889,7 Dec 2013 14:48:09.455,597.566
39,7 Dec 2013 16:11:38.660,7 Dec 2013 16:19:48.591,489.931
40,7 Dec 2013 17:45:44.715,7 Dec 2013 17:52:02.325,377.610
41,7 Dec 2013 19:21:54.734,7 Dec 2013 19:23:48.348,113.614
42,8 Dec 2013 04:08:09.953,8 Dec 2013 04:19:27.620,677.667
43,8 Dec 2013 05:45:54.353,8 Dec 2013 05:55:33.269,578.916
44,8 Dec 2013 08:59:51.304,8 Dec 2013 09:08:08.086,496.782
45,8 Dec 2013 10:32:29.864,8 Dec 2013 10:42:42.519,612.655
46,8 Dec 2013 12:05:34.335,8 Dec 2013 12:16:20.152,645.817
47,8 Dec 2013 13:39:15.512,8 Dec 2013 13:49:54.610,639.098
48,8 Dec 2013 15:13:52.818,8 Dec 2013 15:24:00.127,607.309
49,8 Dec 2013 16:49:09.427,8 Dec 2013 17:00:31.155,681.728
50,8 Dec 2013 18:26:21.209,8 Dec 2013 18:34:17.903,476.694
51,9 Dec 2013 01:41:42.504,9 Dec 2013 01:51:52.042,609.538

"Access","Start Time (UTCG)","Stop Time (UTCG)","Duration (sec)"
1,3 Dec 2013 06:31:16.110,3 Dec 2013 06:41:21.551,605.441
2,3 Dec 2013 08:07:31.546,3 Dec 2013 08:19:01.568,690.022
3,3 Dec 2013 09:51:52.960,3 Dec 2013 09:55:40.752,227.792
4,3 Dec 2013 11:27:07.275,3 Dec 2013 11:35:49.873,522.598
5,3 Dec 2013 12:59:01.777,3 Dec 2013 13:10:18.930,677.153
6,3 Dec 2013 14:31:38.808,3 Dec 2013 14:43:32.171,713.363
7,3 Dec 2013 16:04:42.168,3 Dec 2013 16:16:41.933,719.766
8,3 Dec 2013 17:38:22.181,3 Dec 2013 17:50:25.572,723.392
9,3 Dec 2013 19:12:50.971,3 Dec 2013 19:24:56.073,725.101
10,3 Dec 2013 20:48:52.683,3 Dec 2013 20:58:31.733,579.050
11,4 Dec 2013 04:05:53.167,4 Dec 2013 04:14:41.437,528.269
12,4 Dec 2013 05:40:21.966,4 Dec 2013 05:51:14.097,652.131
13,4 Dec 2013 07:17:10.360,4 Dec 2013 07:26:40.228,569.867
14,4 Dec 2013 08:51:19.715,4 Dec 2013 09:01:37.436,617.721
15,4 Dec 2013 10:24:55.150,4 Dec 2013 10:35:32.630,637.481
16,4 Dec 2013 11:58:28.260,4 Dec 2013 12:08:45.882,617.622
17,4 Dec 2013 13:32:45.390,4 Dec 2013 13:41:34.969,529.579
18,4 Dec 2013 15:09:20.868,4 Dec 2013 15:13:30.748,249.880
19,4 Dec 2013 16:44:52.791,4 Dec 2013 16:55:18.829,626.039
20,4 Dec 2013 18:21:31.192,4 Dec 2013 18:32:24.166,652.974
21,5 Dec 2013 03:15:28.671,5 Dec 2013 03:20:00.815,272.144
22,5 Dec 2013 04:48:13.139,5 Dec 2013 04:55:37.671,444.532
23,5 Dec 2013 06:20:53.244,5 Dec 2013 06:29:41.860,528.615
24,5 Dec 2013 07:52:53.973,5 Dec 2013 08:03:05.687,611.714
25,5 Dec 2013 09:24:37.611,5 Dec 2013 09:36:06.969,689.359
26,5 Dec 2013 10:56:57.580,5 Dec 2013 11:08:46.956,709.376
27,5 Dec 2013 12:37:55.873,5 Dec 2013 12:47:38.768,582.895
28,5 Dec 2013 14:17:51.648,5 Dec 2013 14:29:20.852,689.203
29,5 Dec 2013 15:56:00.829,5 Dec 2013 16:07:34.495,693.666
30,6 Dec 2013 08:33:05.841,6 Dec 2013 08:44:52.264,706.423
31,6 Dec 2013 10:11:50.911,6 Dec 2013 10:23:45.272,714.362
32,6 Dec 2013 11:52:42.323,6 Dec 2013 12:04:08.485,686.162
33,6 Dec 2013 13:31:35.636,6 Dec 2013 13:44:05.871,750.235
34,7 Dec 2013 06:10:09.311,7 Dec 2013 06:20:14.751,605.441
35,7 Dec 2013 07:46:40.859,7 Dec 2013 07:58:40.299,719.439
36,7 Dec 2013 09:28:42.667,7 Dec 2013 09:37:35.060,532.393
37,7 Dec 2013 11:08:01.765,7 Dec 2013 11:19:57.659,715.894
38,7 Dec 2013 12:41:57.105,7 Dec 2013 12:53:39.456,702.351
39,7 Dec 2013 14:14:53.908,7 Dec 2013 14:25:17.685,623.776
40,7 Dec 2013 15:48:14.401,7 Dec 2013 15:56:50.876,516.475
41,7 Dec 2013 17:22:07.387,7 Dec 2013 17:28:56.109,408.722
42,7 Dec 2013 18:57:22.341,7 Dec 2013 19:01:12.452,230.111
43,8 Dec 2013 03:45:39.034,8 Dec 2013 03:54:30.889,531.855
44,8 Dec 2013 05:20:26.705,8 Dec 2013 05:31:53.007,686.302
45,8 Dec 2013 08:36:48.552,8 Dec 2013 08:44:10.077,441.524
46,8 Dec 2013 10:09:17.594,8 Dec 2013 10:19:12.016,594.423
47,8 Dec 2013 11:42:15.566,8 Dec 2013 11:52:57.683,642.117
48,8 Dec 2013 13:15:45.590,8 Dec 2013 13:26:29.232,643.642
49,8 Dec 2013 14:50:07.677,8 Dec 2013 15:00:24.271,616.594
50,8 Dec 2013 16:25:28.454,8 Dec 2013 16:35:11.867,583.414
51,8 Dec 2013 18:01:16.798,8 Dec 2013 18:12:11.194,654.396
52,9 Dec 2013 01:20:23.566,9 Dec 2013 01:26:21.659,358.093

"Access","Start Time (UTCG)","Stop Time (UTCG)","Duration (sec)"
1,3 Dec 2013 06:09:30.100,3 Dec 2013 06:15:35.925,365.824
2,3 Dec 2013 07:42:34.158,3 Dec 2013 07:54:52.903,738.745
3,3 Dec 2013 09:25:22.983,3 Dec 2013 09:31:18.394,355.411
4,3 Dec 2013 11:04:26.991,3 Dec 2013 11:11:42.390,435.399
5,3 Dec 2013 12:35:57.293,3 Dec 2013 12:46:52.860,655.567
6,3 Dec 2013 14:08:27.166,3 Dec 2013 14:20:16.257,709.090
7,3 Dec 2013 15:41:23.470,3 Dec 2013 15:53:22.327,718.857
8,3 Dec 2013 17:14:52.953,3 Dec 2013 17:26:55.400,722.447
9,3 Dec 2013 18:49:08.873,3 Dec 2013 19:01:14.147,725.274
10,3 Dec 2013 20:24:18.752,3 Dec 2013 20:35:57.180,698.428
11,4 Dec 2013 05:15:35.403,4 Dec 2013 05:27:40.368,724.964
12,4 Dec 2013 06:53:29.173,4 Dec 2013 07:02:46.191,557.019
13,4 Dec 2013 08:27:51.685,4 Dec 2013 08:37:59.357,607.672
14,4 Dec 2013 10:01:32.886,4 Dec 2013 10:12:08.728,635.842
15,4 Dec 2013 11:35:03.045,4 Dec 2013 11:45:30.233,627.188
16,4 Dec 2013 13:09:03.465,4 Dec 2013 13:18:24.855,561.390
17,4 Dec 2013 14:44:46.394,4 Dec 2013 14:50:46.043,359.649
18,4 Dec 2013 16:21:15.441,4 Dec 2013 16:29:19.874,484.433
19,4 Dec 2013 17:56:58.599,4 Dec 2013 18:09:07.678,729.078
20,5 Dec 2013 02:52:43.071,5 Dec 2013 02:55:26.149,163.079
21,5 Dec 2013 04:24:58.974,5 Dec 2013 04:31:55.714,416.740
22,5 Dec 2013 05:57:46.803,5 Dec 2013 06:06:15.832,509.029
23,5 Dec 2013 07:29:56.961,5 Dec 2013 07:39:47.127,590.166
24,5 Dec 2013 09:01:40.732,5 Dec 2013 09:12:53.661,672.929
25,5 Dec 2013 10:33:45.495,5 Dec 2013 10:45:35.837,710.342
26,5 Dec 2013 12:12:19.346,5 Dec 2013 12:22:43.535,624.189
27,5 Dec 2013 13:53:16.302,5 Dec 2013 14:03:52.904,636.602
28,5 Dec 2013 15:31:18.664,5 Dec 2013 15:43:44.897,746.233
29,6 Dec 2013 08:09:38.788,6 Dec 2013 08:19:39.907,601.119
30,6 Dec 2013 09:46:39.714,6 Dec 2013 09:59:03.496,743.782
31,6 Dec 2013 11:27:42.274,6 Dec 2013 11:38:48.270,665.996
32,6 Dec 2013 13:06:52.823,6 Dec 2013 13:19:33.487,760.664
33,6 Dec 2013 14:48:06.964,6 Dec 2013 14:53:40.606,333.642
34,7 Dec 2013 05:48:11.047,7 Dec 2013 05:54:22.556,371.508
35,7 Dec 2013 07:21:45.876,7 Dec 2013 07:34:16.322,750.446
36,7 Dec 2013 09:03:12.017,7 Dec 2013 09:12:26.653,554.636
37,7 Dec 2013 10:43:27.331,7 Dec 2013 10:54:28.607,661.276
38,7 Dec 2013 12:18:47.780,7 Dec 2013 12:30:37.390,709.610
39,7 Dec 2013 13:51:37.306,7 Dec 2013 14:02:25.698,648.391
40,7 Dec 2013 15:24:52.021,7 Dec 2013 15:33:55.412,543.390
41,7 Dec 2013 16:58:34.528,7 Dec 2013 17:05:51.367,436.839
42,7 Dec 2013 18:33:18.932,7 Dec 2013 18:38:13.717,294.785
43,8 Dec 2013 03:26:13.296,8 Dec 2013 03:26:51.445,38.149
44,8 Dec 2013 04:55:41.633,8 Dec 2013 05:07:59.102,737.469
45,8 Dec 2013 08:13:52.516,8 Dec 2013 08:19:58.365,365.849
46,8 Dec 2013 09:46:06.818,8 Dec 2013 09:55:37.058,570.240
47,8 Dec 2013 11:18:58.729,8 Dec 2013 11:29:34.441,635.711
48,8 Dec 2013 12:52:18.990,8 Dec 2013 13:03:05.362,646.372
49,8 Dec 2013 14:26:26.404,8 Dec 2013 14:36:51.692,625.288
50,8 Dec 2013 16:01:33.674,8 Dec 2013 16:11:23.489,589.815
51,8 Dec 2013 17:36:53.702,8 Dec 2013 17:49:01.506,727.804

"Access","Start Time (UTCG)","Stop Time (UTCG)","Duration (sec)"
1,3 Dec 2013 01:25:02.799,3 Dec 2013 01:33:50.750,527.952
2,3 Dec 2013 03:00:44.271,3 Dec 2013 03:12:26.370,702.099
3,3 Dec 2013 11:52:56.207,3 Dec 2013 12:02:03.374,547.167
4,3 Dec 2013 13:26:54.372,3 Dec 2013 13:37:06.703,612.331
5,3 Dec 2013 15:00:21.463,3 Dec 2013 15:11:05.076,643.613
6,3 Dec 2013 16:33:05.391,3 Dec 2013 16:44:22.207,676.816
7,3 Dec 2013 18:05:25.790,3 Dec 2013 18:17:15.049,709.259
8,3 Dec 2013 19:38:12.627,3 Dec 2013 19:49:42.916,690.289
9,3 Dec 2013 21:16:49.640,3 Dec 2013 21:26:01.369,551.730
10,3 Dec 2013 22:57:06.700,3 Dec 2013 23:07:53.116,646.415
11,4 Dec 2013 00:34:53.914,4 Dec 2013 00:47:00.311,726.397
12,4 Dec 2013 17:12:08.539,4 Dec 2013 17:23:28.851,680.312
13,4 Dec 2013 18:50:27.616,4 Dec 2013 19:02:32.398,724.782
14,4 Dec 2013 20:31:26.394,4 Dec 2013 20:42:43.639,677.245
15,4 Dec 2013 22:10:20.583,4 Dec 2013 22:22:57.610,757.027
16,5 Dec 2013 14:50:05.294,5 Dec 2013 14:58:42.108,516.814
17,5 Dec 2013 16:25:28.477,5 Dec 2013 16:37:50.970,742.493
18,5 Dec 2013 18:07:00.207,5 Dec 2013 18:16:39.593,579.386
19,5 Dec 2013 19:46:40.069,5 Dec 2013 19:58:36.784,716.715
20,5 Dec 2013 21:23:09.209,5 Dec 2013 21:34:28.148,678.938
21,5 Dec 2013 22:56:29.127,5 Dec 2013 23:05:18.847,529.720
22,6 Dec 2013 00:30:43.571,6 Dec 2013 00:35:23.933,280.362
23,6 Dec 2013 12:26:32.681,6 Dec 2013 12:32:58.932,386.251
24,6 Dec 2013 13:59:33.776,6 Dec 2013 14:11:39.737,725.961
25,6 Dec 2013 17:18:41.540,6 Dec 2013 17:24:58.463,376.924
26,6 Dec 2013 18:50:34.763,6 Dec 2013 19:00:32.108,597.345
27,6 Dec 2013 20:23:17.309,6 Dec 2013 20:34:22.151,664.842
28,6 Dec 2013 21:56:29.292,6 Dec 2013 22:07:52.132,682.840
29,6 Dec 2013 23:30:23.770,6 Dec 2013 23:41:45.314,681.544
30,7 Dec 2013 01:05:10.284,7 Dec 2013 01:16:27.691,677.407
31,7 Dec 2013 02:40:44.411,7 Dec 2013 02:52:25.155,700.744
32,7 Dec 2013 11:31:58.028,7 Dec 2013 11:44:01.403,723.375
33,7 Dec 2013 13:07:19.324,7 Dec 2013 13:19:11.191,711.867
34,7 Dec 2013 14:41:45.718,7 Dec 2013 14:53:33.734,708.016
35,7 Dec 2013 16:15:27.574,7 Dec 2013 16:27:08.167,700.593
36,7 Dec 2013 17:48:51.905,7 Dec 2013 18:00:06.692,674.787
37,7 Dec 2013 19:22:48.728,7 Dec 2013 19:32:36.071,587.343
38,7 Dec 2013 20:59:17.610,7 Dec 2013 21:03:38.943,261.333
39,7 Dec 2013 22:37:16.792,7 Dec 2013 22:46:46.014,569.222
40,8 Dec 2013 00:13:59.878,8 Dec 2013 00:26:06.552,726.674
41,8 Dec 2013 15:18:40.391,8 Dec 2013 15:26:24.235,463.844
42,8 Dec 2013 16:49:38.697,8 Dec 2013 17:01:54.157,735.460
43,8 Dec 2013 18:29:24.152,8 Dec 2013 18:40:47.005,682.853
44,8 Dec 2013 20:10:22.278,8 Dec 2013 20:21:27.826,665.548
45,8 Dec 2013 21:48:50.527,8 Dec 2013 22:01:19.022,748.495

"Access","Start Time (UTCG)","Stop Time (UTCG)","Duration (sec)"
1,3 Dec 2013 01:02:09.135,3 Dec 2013 01:06:54.483,285.348
2,3 Dec 2013 02:36:26.413,3 Dec 2013 02:48:48.695,742.282
3,3 Dec 2013 11:29:26.550,3 Dec 2013 11:38:03.549,516.999
4,3 Dec 2013 13:03:26.582,3 Dec 2013 13:13:28.002,601.420
5,3 Dec 2013 14:37:03.792,3 Dec 2013 14:47:40.217,636.425
6,3 Dec 2013 16:09:57.936,3 Dec 2013 16:21:05.655,667.719
7,3 Dec 2013 17:42:20.626,3 Dec 2013 17:54:03.743,703.117
8,3 Dec 2013 19:14:54.665,3 Dec 2013 19:26:39.360,704.695
9,3 Dec 2013 20:51:04.735,3 Dec 2013 21:01:13.129,608.394
10,3 Dec 2013 22:32:31.381,3 Dec 2013 22:42:15.085,583.704
11,4 Dec 2013 00:10:21.174,4 Dec 2013 00:22:55.308,754.134
12,4 Dec 2013 16:48:56.826,4 Dec 2013 16:58:02.147,545.321
13,4 Dec 2013 18:25:20.226,4 Dec 2013 18:37:51.521,751.295
14,4 Dec 2013 20:06:22.391,4 Dec 2013 20:17:25.284,662.894
15,4 Dec 2013 21:45:40.621,4 Dec 2013 21:58:18.294,757.672
16,4 Dec 2013 23:25:59.348,4 Dec 2013 23:33:29.235,449.887
17,5 Dec 2013 16:00:46.115,5 Dec 2013 16:13:22.552,756.437
18,5 Dec 2013 17:41:30.562,5 Dec 2013 17:51:37.845,607.283
19,5 Dec 2013 19:22:01.831,5 Dec 2013 19:33:09.739,667.908
20,5 Dec 2013 20:59:56.400,5 Dec 2013 21:11:34.554,698.155
21,5 Dec 2013 22:33:05.021,5 Dec 2013 22:42:41.305,576.284
22,6 Dec 2013 00:07:01.888,6 Dec 2013 00:12:57.222,355.334
23,6 Dec 2013 13:35:08.636,6 Dec 2013 13:47:34.200,745.564
24,6 Dec 2013 15:16:56.005,6 Dec 2013 15:22:43.293,347.288
25,6 Dec 2013 16:56:15.119,6 Dec 2013 17:00:17.070,241.951
26,6 Dec 2013 18:27:29.179,6 Dec 2013 18:36:53.590,564.410
27,6 Dec 2013 20:00:04.128,6 Dec 2013 20:10:58.747,654.619
28,6 Dec 2013 21:33:07.956,6 Dec 2013 21:44:28.780,680.824
29,6 Dec 2013 23:06:50.360,6 Dec 2013 23:18:13.206,682.846
30,7 Dec 2013 00:41:23.995,7 Dec 2013 00:52:41.529,677.534
31,7 Dec 2013 02:16:36.901,7 Dec 2013 02:28:53.946,737.045
32,7 Dec 2013 11:07:58.910,7 Dec 2013 11:20:09.687,730.778
33,7 Dec 2013 12:43:34.244,7 Dec 2013 12:55:27.793,713.550
34,7 Dec 2013 14:18:13.966,7 Dec 2013 14:30:02.868,708.903
35,7 Dec 2013 15:52:05.123,7 Dec 2013 16:03:48.502,703.378
36,7 Dec 2013 17:25:30.230,7 Dec 2013 17:36:54.714,684.483
37,7 Dec 2013 18:59:12.435,7 Dec 2013 19:09:32.128,619.693
38,7 Dec 2013 20:34:37.645,7 Dec 2013 20:41:16.337,398.692
39,7 Dec 2013 22:13:15.327,7 Dec 2013 22:20:35.996,440.669
40,7 Dec 2013 23:49:37.667,8 Dec 2013 00:02:06.979,749.312
41,8 Dec 2013 14:56:23.101,8 Dec 2013 15:02:44.723,381.622
42,8 Dec 2013 16:26:13.333,8 Dec 2013 16:36:47.770,634.437
43,8 Dec 2013 18:04:01.648,8 Dec 2013 18:16:03.877,722.228
44,8 Dec 2013 19:45:26.372,8 Dec 2013 19:56:02.637,636.265
45,8 Dec 2013 21:24:14.381,8 Dec 2013 21:36:52.305,757.924
46,8 Dec 2013 23:05:00.735,8 Dec 2013 23:10:18.347,317.612

"Access","Start Time (UTCG)","Stop Time (UTCG)","Duration (sec)"
1,3 Dec 2013 02:12:24.425,3 Dec 2013 02:24:31.228,726.803
2,3 Dec 2013 03:51:22.786,3 Dec 2013 03:56:31.851,309.065
3,3 Dec 2013 11:05:59.358,3 Dec 2013 11:13:56.093,476.735
4,3 Dec 2013 12:39:57.178,3 Dec 2013 12:49:44.881,587.703
5,3 Dec 2013 14:13:43.275,3 Dec 2013 14:24:12.444,629.168
6,3 Dec 2013 15:46:48.361,3 Dec 2013 15:57:47.469,659.108
7,3 Dec 2013 17:19:16.045,3 Dec 2013 17:30:51.158,695.113
8,3 Dec 2013 18:51:41.717,3 Dec 2013 19:03:33.175,711.458
9,3 Dec 2013 20:25:24.187,3 Dec 2013 20:36:35.886,671.699
10,3 Dec 2013 22:07:39.549,3 Dec 2013 22:16:35.328,535.779
11,3 Dec 2013 23:45:56.035,3 Dec 2013 23:58:19.499,743.464
12,4 Dec 2013 01:25:11.189,4 Dec 2013 01:32:54.268,463.079
13,4 Dec 2013 16:27:45.208,4 Dec 2013 16:30:48.862,183.654
14,4 Dec 2013 18:00:30.655,4 Dec 2013 18:13:11.552,760.898
15,4 Dec 2013 19:41:07.136,4 Dec 2013 19:52:16.277,669.142
16,4 Dec 2013 21:21:01.674,4 Dec 2013 21:33:18.455,736.780
17,4 Dec 2013 23:00:12.581,4 Dec 2013 23:10:48.938,636.357
18,5 Dec 2013 15:36:32.094,5 Dec 2013 15:48:48.483,736.389
19,5 Dec 2013 17:15:58.091,5 Dec 2013 17:26:52.986,654.895
20,5 Dec 2013 18:57:16.046,5 Dec 2013 19:07:33.875,617.829
21,5 Dec 2013 20:35:57.734,5 Dec 2013 20:48:34.972,757.237
22,5 Dec 2013 22:09:43.680,5 Dec 2013 22:20:00.776,617.096
23,5 Dec 2013 23:43:26.811,5 Dec 2013 23:50:26.760,419.949
24,6 Dec 2013 13:11:21.323,6 Dec 2013 13:23:15.231,713.908
25,6 Dec 2013 14:50:19.525,6 Dec 2013 14:59:19.404,539.879
26,6 Dec 2013 18:04:26.888,6 Dec 2013 18:13:07.374,520.486
27,6 Dec 2013 19:36:52.583,6 Dec 2013 19:47:33.335,640.752
28,6 Dec 2013 21:09:49.020,6 Dec 2013 21:21:06.423,677.402
29,6 Dec 2013 22:43:20.251,6 Dec 2013 22:54:43.903,683.652
30,7 Dec 2013 00:17:40.678,7 Dec 2013 00:28:59.209,678.531
31,7 Dec 2013 01:52:49.814,7 Dec 2013 02:04:39.647,709.833
32,7 Dec 2013 03:31:15.387,7 Dec 2013 03:36:07.383,291.996
33,7 Dec 2013 10:44:45.113,7 Dec 2013 10:55:59.827,674.714
34,7 Dec 2013 12:19:45.730,7 Dec 2013 12:31:41.561,715.831
35,7 Dec 2013 13:54:39.100,7 Dec 2013 14:06:28.822,709.722
36,7 Dec 2013 15:28:40.948,7 Dec 2013 15:40:26.364,705.416
37,7 Dec 2013 17:02:09.475,7 Dec 2013 17:13:41.063,691.588
38,7 Dec 2013 18:35:41.846,7 Dec 2013 18:46:25.590,643.744
39,7 Dec 2013 20:10:27.296,7 Dec 2013 20:18:31.213,483.917
40,7 Dec 2013 21:49:11.904,7 Dec 2013 21:54:01.166,289.262
41,7 Dec 2013 23:25:25.556,7 Dec 2013 23:37:32.666,727.110
42,8 Dec 2013 01:04:00.397,8 Dec 2013 01:11:41.912,461.514
43,8 Dec 2013 14:34:17.617,8 Dec 2013 14:38:52.999,275.383
44,8 Dec 2013 16:03:36.250,8 Dec 2013 16:13:23.698,587.449
45,8 Dec 2013 17:38:52.761,8 Dec 2013 17:51:24.500,751.739
46,8 Dec 2013 19:20:15.396,8 Dec 2013 19:30:44.451,629.055
47,8 Dec 2013 20:59:41.238,8 Dec 2013 21:12:00.933,739.695
48,8 Dec 2013 22:38:45.399,8 Dec 2013 22:48:29.210,583.811

"Access","Start Time (UTCG)","Stop Time (UTCG)","Duration (sec)"
1,3 Dec 2013 01:48:35.558,3 Dec 2013 01:59:34.087,658.529
2,3 Dec 2013 03:25:28.237,3 Dec 2013 03:35:15.521,587.284
3,3 Dec 2013 10:42:37.096,3 Dec 2013 10:49:38.755,421.659
4,3 Dec 2013 12:16:26.782,3 Dec 2013 12:25:56.871,570.089
5,3 Dec 2013 13:50:20.056,3 Dec 2013 14:00:41.394,621.338
6,3 Dec 2013 15:23:36.284,3 Dec 2013 15:34:27.380,651.096
7,3 Dec 2013 16:56:11.216,3 Dec 2013 17:07:37.330,686.113
8,3 Dec 2013 18:28:32.478,3 Dec 2013 18:40:24.942,712.465
9,3 Dec 2013 20:01:37.178,3 Dec 2013 20:12:42.974,665.796
10,3 Dec 2013 21:42:25.063,3 Dec 2013 21:51:08.032,522.969
11,3 Dec 2013 23:21:32.909,3 Dec 2013 23:33:17.181,704.272
12,4 Dec 2013 00:59:43.114,4 Dec 2013 01:10:27.102,643.988
13,4 Dec 2013 17:36:04.520,4 Dec 2013 17:48:26.676,742.155
14,4 Dec 2013 19:15:46.060,4 Dec 2013 19:27:19.244,693.184
15,4 Dec 2013 20:56:18.475,4 Dec 2013 21:08:04.294,705.819
16,4 Dec 2013 22:35:07.915,4 Dec 2013 22:47:10.678,722.763
17,5 Dec 2013 15:12:53.077,5 Dec 2013 15:24:00.807,667.730
18,5 Dec 2013 16:50:34.438,5 Dec 2013 17:02:19.339,704.901
19,5 Dec 2013 18:32:16.608,5 Dec 2013 18:42:00.130,583.522
20,5 Dec 2013 20:11:16.814,5 Dec 2013 20:23:47.293,750.479
21,5 Dec 2013 21:46:25.046,5 Dec 2013 21:57:16.628,651.581
22,5 Dec 2013 23:19:56.225,5 Dec 2013 23:27:53.904,477.679
23,6 Dec 2013 00:54:38.044,6 Dec 2013 00:57:41.476,183.432
24,6 Dec 2013 12:48:19.059,6 Dec 2013 12:58:33.931,614.872
25,6 Dec 2013 14:24:36.183,6 Dec 2013 14:35:35.015,658.832
26,6 Dec 2013 17:41:29.686,6 Dec 2013 17:49:10.665,460.979
27,6 Dec 2013 19:13:42.724,6 Dec 2013 19:24:04.862,622.138
28,6 Dec 2013 20:46:32.218,6 Dec 2013 20:57:44.443,672.225
29,6 Dec 2013 22:19:53.304,6 Dec 2013 22:31:17.018,683.714
30,6 Dec 2013 23:54:00.560,7 Dec 2013 00:05:20.550,679.991
31,7 Dec 2013 01:28:59.227,7 Dec 2013 01:40:17.775,678.547
32,7 Dec 2013 03:05:21.315,7 Dec 2013 03:15:05.622,584.307
33,7 Dec 2013 10:22:29.752,7 Dec 2013 10:31:11.736,521.984
34,7 Dec 2013 11:55:53.928,7 Dec 2013 12:07:52.698,718.770
35,7 Dec 2013 13:31:00.928,7 Dec 2013 13:42:51.577,710.649
36,7 Dec 2013 15:05:14.604,7 Dec 2013 15:17:01.512,706.908
37,7 Dec 2013 16:38:48.821,7 Dec 2013 16:50:25.610,696.789
38,7 Dec 2013 18:12:15.423,7 Dec 2013 18:23:17.017,661.594
39,7 Dec 2013 19:46:32.713,7 Dec 2013 19:55:36.411,543.697
40,7 Dec 2013 21:24:53.922,7 Dec 2013 21:27:21.193,147.271
41,7 Dec 2013 23:01:19.471,7 Dec 2013 23:12:25.466,665.995
42,8 Dec 2013 00:38:40.094,8 Dec 2013 00:49:25.263,645.169
43,8 Dec 2013 14:12:53.221,8 Dec 2013 14:14:19.016,85.795
44,8 Dec 2013 15:41:05.187,8 Dec 2013 15:49:56.592,531.405
45,8 Dec 2013 17:14:03.459,8 Dec 2013 17:26:43.348,759.890
46,8 Dec 2013 18:54:52.003,8 Dec 2013 19:05:39.210,647.206
47,8 Dec 2013 20:35:05.621,8 Dec 2013 20:46:50.385,704.763
48,8 Dec 2013 22:13:36.657,8 Dec 2013 22:25:15.112,698.455

"Access","Start Time (UTCG)","Stop Time (UTCG)","Duration (sec)"
1,3 Dec 2013 02:39:17.054,3 Dec 2013 02:51:56.091,759.036
2,3 Dec 2013 04:19:44.887,3 Dec 2013 04:30:55.746,670.859
3,3 Dec 2013 05:59:52.518,3 Dec 2013 06:11:56.582,724.064
4,3 Dec 2013 07:38:45.820,3 Dec 2013 07:50:01.767,675.947
5,4 Dec 2013 00:15:49.015,4 Dec 2013 00:27:40.015,711.000
6,4 Dec 2013 01:54:29.531,4 Dec 2013 02:06:00.113,690.582
7,4 Dec 2013 03:35:46.676,4 Dec 2013 03:46:19.036,632.361
8,4 Dec 2013 05:14:38.250,4 Dec 2013 05:27:18.118,759.868
9,4 Dec 2013 06:51:20.788,4 Dec 2013 07:00:12.092,531.304
10,4 Dec 2013 21:51:14.337,4 Dec 2013 22:02:25.712,671.376
11,4 Dec 2013 23:28:48.223,4 Dec 2013 23:39:19.171,630.948
12,5 Dec 2013 02:45:50.417,5 Dec 2013 02:54:25.405,514.988
13,5 Dec 2013 04:17:58.329,5 Dec 2013 04:28:56.991,658.662
14,5 Dec 2013 05:50:43.024,5 Dec 2013 06:02:23.356,700.332
15,5 Dec 2013 07:23:57.698,5 Dec 2013 07:35:50.428,712.730
16,5 Dec 2013 08:57:54.844,5 Dec 2013 09:09:53.300,718.456
17,5 Dec 2013 10:32:41.409,5 Dec 2013 10:44:47.046,725.637
18,5 Dec 2013 12:09:43.946,5 Dec 2013 12:17:37.756,473.810
19,5 Dec 2013 19:25:12.495,5 Dec 2013 19:35:29.433,616.938
20,5 Dec 2013 21:00:32.596,5 Dec 2013 21:11:28.763,656.166
21,5 Dec 2013 22:35:41.747,5 Dec 2013 22:46:42.106,660.358
22,6 Dec 2013 00:09:53.120,6 Dec 2013 00:21:04.508,671.388
23,6 Dec 2013 01:43:29.504,6 Dec 2013 01:54:36.530,667.026
24,6 Dec 2013 03:17:05.712,6 Dec 2013 03:27:33.828,628.117
25,6 Dec 2013 04:51:40.095,6 Dec 2013 05:00:00.688,500.593
26,6 Dec 2013 08:05:02.268,6 Dec 2013 08:16:30.818,688.550
27,6 Dec 2013 09:42:34.290,6 Dec 2013 09:52:11.524,577.234
28,6 Dec 2013 21:42:28.782,6 Dec 2013 21:47:18.526,289.744
29,6 Dec 2013 23:13:08.050,6 Dec 2013 23:21:26.467,498.417
30,7 Dec 2013 00:44:00.279,7 Dec 2013 00:54:51.091,650.812
31,7 Dec 2013 02:17:32.636,7 Dec 2013 02:30:06.191,753.556
32,7 Dec 2013 03:59:04.572,7 Dec 2013 04:09:12.951,608.379
33,7 Dec 2013 05:38:43.595,7 Dec 2013 05:50:42.912,719.317
34,7 Dec 2013 07:17:17.616,7 Dec 2013 07:28:04.394,646.778
35,7 Dec 2013 23:54:03.337,8 Dec 2013 00:06:11.468,728.131
36,8 Dec 2013 01:33:15.571,8 Dec 2013 01:44:56.122,700.551
37,8 Dec 2013 03:13:59.648,8 Dec 2013 03:25:32.222,692.574
38,8 Dec 2013 04:52:53.526,8 Dec 2013 05:05:14.133,740.607
39,8 Dec 2013 21:30:23.006,8 Dec 2013 21:41:31.317,668.310
40,8 Dec 2013 23:07:58.753,8 Dec 2013 23:19:21.760,683.007
41,9 Dec 2013 00:50:32.493,9 Dec 2013 00:58:24.199,471.706

"Access","Start Time (UTCG)","Stop Time (UTCG)","Duration (sec)"
1,3 Dec 2013 02:14:57.658,3 Dec 2013 02:27:07.312,729.654
2,3 Dec 2013 03:54:22.459,3 Dec 2013 04:06:02.295,699.836
3,3 Dec 2013 05:35:07.564,3 Dec 2013 05:46:38.837,691.273
4,3 Dec 2013 07:13:50.993,3 Dec 2013 07:26:11.038,740.044
5,3 Dec 2013 23:52:28.289,4 Dec 2013 00:02:38.604,610.315
6,4 Dec 2013 01:29:15.206,4 Dec 2013 01:41:25.958,730.752
7,4 Dec 2013 03:10:42.089,4 Dec 2013 03:20:52.510,610.421
8,4 Dec 2013 04:49:57.650,4 Dec 2013 05:02:26.811,749.161
9,4 Dec 2013 06:27:52.321,4 Dec 2013 06:37:43.242,590.921
10,4 Dec 2013 08:02:43.107,4 Dec 2013 08:06:35.058,231.950
11,4 Dec 2013 21:28:41.569,4 Dec 2013 21:37:21.019,519.450
12,4 Dec 2013 23:03:30.858,4 Dec 2013 23:15:20.241,709.383
13,5 Dec 2013 02:23:02.568,5 Dec 2013 02:30:21.738,439.170
14,5 Dec 2013 03:54:51.623,5 Dec 2013 04:05:28.876,637.253
15,5 Dec 2013 05:27:29.363,5 Dec 2013 05:39:03.599,694.237
16,5 Dec 2013 07:00:35.586,5 Dec 2013 07:12:26.298,710.712
17,5 Dec 2013 08:34:20.950,5 Dec 2013 08:46:18.093,717.143
18,5 Dec 2013 10:08:55.310,5 Dec 2013 10:20:58.721,723.411
19,5 Dec 2013 11:44:42.584,5 Dec 2013 11:55:36.656,654.071
20,5 Dec 2013 19:03:41.259,5 Dec 2013 19:10:03.564,382.305
21,5 Dec 2013 20:36:05.370,5 Dec 2013 20:47:35.504,690.133
22,5 Dec 2013 22:12:00.524,5 Dec 2013 22:22:57.993,657.469
23,5 Dec 2013 23:46:24.610,5 Dec 2013 23:57:34.072,669.462
24,6 Dec 2013 01:20:07.062,6 Dec 2013 01:31:17.431,670.369
25,6 Dec 2013 02:53:39.072,6 Dec 2013 03:04:22.021,642.949
26,6 Dec 2013 04:27:51.159,6 Dec 2013 04:36:58.154,546.995
27,6 Dec 2013 06:04:48.862,6 Dec 2013 06:08:05.198,196.336
28,6 Dec 2013 07:41:07.001,6 Dec 2013 07:51:01.936,594.935
29,6 Dec 2013 09:17:42.746,6 Dec 2013 09:29:20.201,697.455
30,6 Dec 2013 21:19:52.754,6 Dec 2013 21:23:32.507,219.753
31,6 Dec 2013 22:50:27.889,6 Dec 2013 22:57:59.596,451.707
32,7 Dec 2013 00:21:14.116,7 Dec 2013 00:31:33.202,619.086
33,7 Dec 2013 01:52:46.235,7 Dec 2013 02:05:24.344,758.109
34,7 Dec 2013 03:33:35.113,7 Dec 2013 03:44:12.177,637.064
35,7 Dec 2013 05:14:08.230,7 Dec 2013 05:25:24.023,675.792
36,7 Dec 2013 06:52:23.872,7 Dec 2013 07:04:31.362,727.491
37,7 Dec 2013 23:30:22.443,7 Dec 2013 23:41:10.818,648.375
38,8 Dec 2013 01:08:00.346,8 Dec 2013 01:20:13.047,732.701
39,8 Dec 2013 02:49:03.342,8 Dec 2013 03:00:10.162,666.820
40,8 Dec 2013 04:28:07.429,8 Dec 2013 04:40:48.242,760.814
41,8 Dec 2013 06:11:00.723,8 Dec 2013 06:13:12.163,131.440
42,8 Dec 2013 21:07:41.672,8 Dec 2013 21:16:17.617,515.946
43,8 Dec 2013 22:42:49.823,8 Dec 2013 22:55:02.422,732.599
44,9 Dec 2013 00:25:02.774,9 Dec 2013 00:33:06.851,484.078
45,9 Dec 2013 02:04:54.039,9 Dec 2013 02:15:46.865,652.825

"Access","Start Time (UTCG)","Stop Time (UTCG)","Duration (sec)"
1,3 Dec 2013 01:51:11.003,3 Dec 2013 02:02:01.635,650.632
2,3 Dec 2013 03:29:05.305,3 Dec 2013 03:41:17.783,732.478
3,3 Dec 2013 05:10:12.008,3 Dec 2013 05:21:17.424,665.416
4,3 Dec 2013 06:49:08.809,3 Dec 2013 07:01:48.873,760.063
5,3 Dec 2013 08:31:31.961,3 Dec 2013 08:33:55.945,143.984
6,3 Dec 2013 23:30:18.631,3 Dec 2013 23:36:45.277,386.646
7,4 Dec 2013 01:04:20.043,4 Dec 2013 01:16:54.989,754.947
8,4 Dec 2013 02:45:23.097,4 Dec 2013 02:55:39.430,616.333
9,4 Dec 2013 04:25:19.277,4 Dec 2013 04:37:15.586,716.309
10,4 Dec 2013 06:04:29.046,4 Dec 2013 06:15:07.162,638.116
11,4 Dec 2013 07:38:39.960,4 Dec 2013 07:44:43.569,363.609
12,4 Dec 2013 22:38:48.618,4 Dec 2013 22:51:14.103,745.485
13,5 Dec 2013 00:21:18.653,5 Dec 2013 00:26:52.737,334.084
14,5 Dec 2013 02:00:31.304,5 Dec 2013 02:05:54.830,323.526
15,5 Dec 2013 03:31:47.364,5 Dec 2013 03:41:55.584,608.220
16,5 Dec 2013 05:04:17.360,5 Dec 2013 05:15:43.237,685.877
17,5 Dec 2013 06:37:15.931,5 Dec 2013 06:49:04.083,708.152
18,5 Dec 2013 08:10:50.200,5 Dec 2013 08:22:46.027,715.828
19,5 Dec 2013 09:45:12.096,5 Dec 2013 09:57:13.593,721.497
20,5 Dec 2013 11:20:24.909,5 Dec 2013 11:32:31.135,726.225
21,5 Dec 2013 20:11:42.313,5 Dec 2013 20:23:56.852,734.539
22,5 Dec 2013 21:48:15.369,5 Dec 2013 21:59:10.816,655.448
23,5 Dec 2013 23:22:53.460,5 Dec 2013 23:34:00.231,666.771
24,6 Dec 2013 00:56:43.876,6 Dec 2013 01:07:55.922,672.047
25,6 Dec 2013 02:30:14.751,6 Dec 2013 02:41:08.612,653.860
26,6 Dec 2013 04:04:10.373,6 Dec 2013 04:13:52.260,581.887
27,6 Dec 2013 05:39:57.033,6 Dec 2013 05:45:45.104,348.071
28,6 Dec 2013 07:17:20.329,6 Dec 2013 07:24:53.487,453.157
29,6 Dec 2013 08:53:16.859,6 Dec 2013 09:05:40.765,743.906
30,6 Dec 2013 20:57:29.991,6 Dec 2013 20:59:27.946,117.955
31,6 Dec 2013 22:27:47.858,6 Dec 2013 22:34:29.901,402.043
32,6 Dec 2013 23:58:30.526,7 Dec 2013 00:08:13.131,582.605
33,7 Dec 2013 01:29:43.605,7 Dec 2013 01:41:19.655,696.050
34,7 Dec 2013 03:08:03.553,7 Dec 2013 03:19:24.402,680.849
35,7 Dec 2013 04:49:22.723,7 Dec 2013 04:59:55.808,633.085
36,7 Dec 2013 06:27:45.787,7 Dec 2013 06:40:22.044,756.257
37,7 Dec 2013 23:07:35.765,7 Dec 2013 23:15:32.760,476.995
38,8 Dec 2013 00:42:59.128,8 Dec 2013 00:55:34.877,755.749
39,8 Dec 2013 02:23:54.960,8 Dec 2013 02:34:53.718,658.758
40,8 Dec 2013 04:03:26.907,8 Dec 2013 04:15:58.766,751.859
41,8 Dec 2013 05:43:24.165,8 Dec 2013 05:52:20.017,535.852
42,8 Dec 2013 22:18:08.092,8 Dec 2013 22:30:41.353,753.261
43,8 Dec 2013 23:59:16.390,9 Dec 2013 00:08:16.332,539.942
44,9 Dec 2013 01:40:20.837,9 Dec 2013 01:49:59.491,578.654

"Access","Start Time (UTCG)","Stop Time (UTCG)","Duration (sec)"
1,3 Dec 2013 01:28:16.904,3 Dec 2013 01:36:17.135,480.231
2,3 Dec 2013 03:04:01.438,3 Dec 2013 03:16:37.484,756.046
3,3 Dec 2013 04:45:03.697,3 Dec 2013 04:56:01.102,657.405
4,3 Dec 2013 06:24:31.234,3 Dec 2013 06:37:02.177,750.943
5,3 Dec 2013 08:04:09.552,3 Dec 2013 08:13:06.229,536.677
6,4 Dec 2013 00:39:49.494,4 Dec 2013 00:52:21.825,752.332
7,4 Dec 2013 02:19:55.509,4 Dec 2013 02:30:42.861,647.352
8,4 Dec 2013 04:00:37.506,4 Dec 2013 04:11:50.202,672.696
9,4 Dec 2013 05:39:27.316,4 Dec 2013 05:51:44.858,737.543
10,4 Dec 2013 07:14:55.678,4 Dec 2013 07:22:32.985,457.307
11,4 Dec 2013 22:14:41.725,4 Dec 2013 22:26:57.996,736.272
12,4 Dec 2013 23:54:42.528,5 Dec 2013 00:03:11.384,508.857
13,5 Dec 2013 03:08:46.430,5 Dec 2013 03:18:15.284,568.854
14,5 Dec 2013 04:41:06.988,5 Dec 2013 04:52:21.376,674.389
15,5 Dec 2013 06:13:58.488,5 Dec 2013 06:25:43.292,704.804
16,5 Dec 2013 07:47:22.501,5 Dec 2013 07:59:16.892,714.391
17,5 Dec 2013 09:21:31.907,5 Dec 2013 09:33:31.779,719.872
18,5 Dec 2013 10:56:30.240,5 Dec 2013 11:08:39.799,729.558
19,5 Dec 2013 19:48:03.245,5 Dec 2013 19:59:56.784,713.540
20,5 Dec 2013 21:24:26.085,5 Dec 2013 21:35:20.936,654.852
21,5 Dec 2013 22:59:19.287,5 Dec 2013 23:10:22.900,663.613
22,6 Dec 2013 00:33:19.393,6 Dec 2013 00:44:31.710,672.317
23,6 Dec 2013 02:06:51.831,6 Dec 2013 02:17:53.508,661.678
24,6 Dec 2013 03:40:35.730,6 Dec 2013 03:50:43.981,608.251
25,6 Dec 2013 05:15:40.175,6 Dec 2013 05:22:57.878,437.703
26,6 Dec 2013 06:53:54.921,6 Dec 2013 06:57:52.658,237.736
27,6 Dec 2013 08:29:04.956,6 Dec 2013 08:41:23.475,738.520
28,6 Dec 2013 10:08:41.475,6 Dec 2013 10:13:25.051,283.575
29,6 Dec 2013 22:05:07.938,6 Dec 2013 22:10:56.658,348.720
30,6 Dec 2013 23:35:48.740,6 Dec 2013 23:44:50.907,542.167
31,7 Dec 2013 01:06:49.823,7 Dec 2013 01:18:06.650,676.827
32,7 Dec 2013 02:42:40.160,7 Dec 2013 02:54:44.318,724.158
33,7 Dec 2013 04:24:22.038,7 Dec 2013 04:34:28.884,606.846
34,7 Dec 2013 06:03:14.339,7 Dec 2013 06:15:44.186,749.847
35,7 Dec 2013 07:42:48.795,7 Dec 2013 07:50:40.475,471.680
36,8 Dec 2013 00:18:18.238,8 Dec 2013 00:30:56.391,758.152
37,8 Dec 2013 01:58:36.744,8 Dec 2013 02:09:48.709,671.965
38,8 Dec 2013 03:38:46.038,8 Dec 2013 03:50:51.218,725.179
39,8 Dec 2013 05:17:53.499,8 Dec 2013 05:29:09.659,676.160
40,8 Dec 2013 21:53:57.163,8 Dec 2013 22:06:13.496,736.333
41,8 Dec 2013 23:33:30.360,8 Dec 2013 23:43:44.268,613.908
42,9 Dec 2013 01:15:36.879,9 Dec 2013 01:24:06.577,509.698

