Raw and processed data/Altitude Variations/us_greatcircle_3sat_750km/Aircraft-B747LAX_Narita-Transmitter-adsb_out6211-To-Satellite-750km_p1_1-Receiver-adsb_satrcvr2 Access.csv

"Access","Start Time (UTCG)","Stop Time (UTCG)","Duration (sec)"
1,3 Dec 2013 06:05:47.163,3 Dec 2013 06:18:26.530,759.367
2,3 Dec 2013 07:47:38.187,3 Dec 2013 08:04:51.310,1033.123
3,3 Dec 2013 09:38:24.683,3 Dec 2013 09:51:10.583,765.900
4,3 Dec 2013 11:23:57.518,3 Dec 2013 11:38:07.875,850.357
5,3 Dec 2013 13:03:31.709,3 Dec 2013 13:19:39.092,967.383
6,3 Dec 2013 14:43:32.664,3 Dec 2013 15:00:06.993,994.329
7,3 Dec 2013 16:24:02.580,3 Dec 2013 16:40:44.466,1001.887
8,3 Dec 2013 18:05:21.511,3 Dec 2013 18:22:11.364,1009.854
9,3 Dec 2013 19:47:43.314,3 Dec 2013 20:04:37.542,1014.228
10,3 Dec 2013 21:34:32.394,3 Dec 2013 21:40:56.032,383.638
11,4 Dec 2013 03:42:49.640,4 Dec 2013 03:53:27.199,637.559
12,4 Dec 2013 05:22:11.210,4 Dec 2013 05:39:01.808,1010.598
13,4 Dec 2013 07:07:15.188,4 Dec 2013 07:22:13.760,898.572
14,4 Dec 2013 08:49:11.444,4 Dec 2013 09:04:39.587,928.143
15,4 Dec 2013 10:30:17.282,4 Dec 2013 10:45:55.487,938.205
16,4 Dec 2013 12:11:13.906,4 Dec 2013 12:26:30.192,916.286
17,4 Dec 2013 13:52:58.530,4 Dec 2013 14:06:53.408,834.877
18,4 Dec 2013 15:36:48.000,4 Dec 2013 15:47:38.554,650.554
19,4 Dec 2013 17:21:24.950,4 Dec 2013 17:38:39.096,1034.146
20,4 Dec 2013 19:08:01.432,4 Dec 2013 19:18:32.727,631.296
21,5 Dec 2013 02:58:59.358,5 Dec 2013 03:10:01.145,661.787
22,5 Dec 2013 04:39:49.401,5 Dec 2013 04:52:45.709,776.307
23,5 Dec 2013 06:20:05.076,5 Dec 2013 06:34:02.385,837.309
24,5 Dec 2013 07:59:27.335,5 Dec 2013 08:14:32.423,905.089
25,5 Dec 2013 09:38:26.575,5 Dec 2013 09:54:39.818,973.243
26,5 Dec 2013 11:19:03.367,5 Dec 2013 11:36:28.489,1045.123
27,5 Dec 2013 13:09:18.803,5 Dec 2013 13:24:55.553,936.751
28,5 Dec 2013 14:56:58.933,5 Dec 2013 15:14:31.073,1052.140
29,5 Dec 2013 16:44:21.837,5 Dec 2013 16:57:01.192,759.355
30,6 Dec 2013 08:57:04.610,6 Dec 2013 09:14:34.252,1049.642
31,6 Dec 2013 10:45:16.028,6 Dec 2013 11:02:03.821,1007.793
32,6 Dec 2013 12:34:06.042,6 Dec 2013 12:51:31.958,1045.916
33,6 Dec 2013 14:21:39.358,6 Dec 2013 14:37:18.883,939.524
34,7 Dec 2013 06:35:08.238,7 Dec 2013 06:51:54.621,1006.383
35,7 Dec 2013 08:21:50.357,7 Dec 2013 08:38:11.761,981.404
36,7 Dec 2013 10:12:05.728,7 Dec 2013 10:27:32.485,926.757
37,7 Dec 2013 11:57:37.017,7 Dec 2013 12:14:02.278,985.260
38,7 Dec 2013 13:37:27.081,7 Dec 2013 13:53:29.828,962.747
39,7 Dec 2013 15:17:38.386,7 Dec 2013 15:32:34.356,895.969
40,7 Dec 2013 16:58:16.644,7 Dec 2013 17:12:14.110,837.467
41,7 Dec 2013 18:39:50.510,7 Dec 2013 18:52:47.704,777.194
42,7 Dec 2013 20:23:03.094,7 Dec 2013 20:33:44.631,641.537
43,8 Dec 2013 04:11:36.015,8 Dec 2013 04:27:50.367,974.352
44,8 Dec 2013 05:57:13.953,8 Dec 2013 06:12:04.897,890.944
45,8 Dec 2013 07:44:49.393,8 Dec 2013 07:56:36.744,707.352
46,8 Dec 2013 09:25:16.684,8 Dec 2013 09:39:42.263,865.579
47,8 Dec 2013 11:05:42.639,8 Dec 2013 11:21:07.314,924.675
48,8 Dec 2013 12:46:26.222,8 Dec 2013 13:02:01.359,935.137
49,8 Dec 2013 14:28:00.526,8 Dec 2013 14:43:16.136,915.610
50,8 Dec 2013 16:10:49.445,8 Dec 2013 16:25:30.216,880.771
51,8 Dec 2013 17:54:27.241,8 Dec 2013 18:11:04.047,996.806
52,9 Dec 2013 01:46:36.753,9 Dec 2013 02:01:48.776,912.022

"Access","Start Time (UTCG)","Stop Time (UTCG)","Duration (sec)"
1,3 Dec 2013 01:00:00.000,3 Dec 2013 01:01:45.086,105.086
2,3 Dec 2013 02:33:42.422,3 Dec 2013 02:50:57.822,1035.400
3,3 Dec 2013 10:28:17.258,3 Dec 2013 10:39:49.647,692.389
4,3 Dec 2013 12:08:51.460,3 Dec 2013 12:23:38.726,887.266
5,3 Dec 2013 13:50:25.048,3 Dec 2013 14:05:49.429,924.380
6,3 Dec 2013 15:31:07.131,3 Dec 2013 15:46:52.032,944.901
7,3 Dec 2013 17:10:58.944,3 Dec 2013 17:27:12.241,973.297
8,3 Dec 2013 18:50:39.406,3 Dec 2013 19:07:09.284,989.878
9,3 Dec 2013 20:32:07.626,3 Dec 2013 20:48:36.185,988.558
10,3 Dec 2013 22:22:31.757,3 Dec 2013 22:38:00.091,928.334
11,4 Dec 2013 00:09:16.992,4 Dec 2013 00:26:49.017,1052.026
12,4 Dec 2013 01:58:18.165,4 Dec 2013 02:05:37.996,439.830
13,4 Dec 2013 16:26:21.487,4 Dec 2013 16:38:05.186,703.698
14,4 Dec 2013 18:09:06.095,4 Dec 2013 18:26:49.396,1063.302
15,4 Dec 2013 19:58:15.010,4 Dec 2013 20:14:52.025,997.015
16,4 Dec 2013 21:46:24.432,4 Dec 2013 22:04:06.166,1061.734
17,4 Dec 2013 23:34:39.712,4 Dec 2013 23:47:23.126,763.414
18,5 Dec 2013 15:46:46.544,5 Dec 2013 16:04:13.054,1046.510
19,5 Dec 2013 17:34:58.874,5 Dec 2013 17:51:00.831,961.956
20,5 Dec 2013 19:24:25.538,5 Dec 2013 19:41:02.391,996.853
21,5 Dec 2013 21:10:04.597,5 Dec 2013 21:26:21.145,976.548
22,5 Dec 2013 22:50:14.311,5 Dec 2013 23:04:51.241,876.930
23,6 Dec 2013 00:30:46.740,6 Dec 2013 00:43:06.650,739.910
24,6 Dec 2013 02:11:51.752,6 Dec 2013 02:22:00.934,609.182
25,6 Dec 2013 03:54:21.805,6 Dec 2013 04:01:25.891,424.086
26,6 Dec 2013 13:23:07.301,6 Dec 2013 13:40:14.215,1026.914
27,6 Dec 2013 15:11:02.270,6 Dec 2013 15:24:40.025,817.755
28,6 Dec 2013 16:58:21.196,6 Dec 2013 17:10:13.933,712.737
29,6 Dec 2013 18:38:16.321,6 Dec 2013 18:53:05.339,889.019
30,6 Dec 2013 20:18:28.812,6 Dec 2013 20:34:17.958,949.146
31,6 Dec 2013 21:59:05.882,6 Dec 2013 22:15:11.609,965.728
32,6 Dec 2013 23:40:32.966,6 Dec 2013 23:56:38.290,965.324
33,7 Dec 2013 01:23:05.805,7 Dec 2013 01:39:09.923,964.119
34,7 Dec 2013 03:07:01.565,7 Dec 2013 03:22:12.633,911.068
35,7 Dec 2013 10:57:49.061,7 Dec 2013 11:14:26.939,997.878
36,7 Dec 2013 12:40:42.320,7 Dec 2013 12:57:34.017,1011.697
37,7 Dec 2013 14:22:57.937,7 Dec 2013 14:39:39.446,1001.509
38,7 Dec 2013 16:04:13.027,7 Dec 2013 16:20:44.488,991.461
39,7 Dec 2013 17:44:55.085,7 Dec 2013 18:01:06.589,971.503
40,7 Dec 2013 19:25:58.861,7 Dec 2013 19:41:04.340,905.479
41,7 Dec 2013 21:08:57.385,7 Dec 2013 21:21:11.018,733.633
42,7 Dec 2013 22:56:37.549,7 Dec 2013 23:12:49.788,972.239
43,8 Dec 2013 00:42:10.779,8 Dec 2013 00:58:10.307,959.528
44,8 Dec 2013 13:39:58.143,8 Dec 2013 13:46:59.456,421.313
45,8 Dec 2013 15:16:21.384,8 Dec 2013 15:28:39.023,737.638
46,8 Dec 2013 16:54:48.078,8 Dec 2013 17:12:02.812,1034.734
47,8 Dec 2013 18:42:45.026,8 Dec 2013 18:59:32.292,1007.266
48,8 Dec 2013 20:32:04.423,8 Dec 2013 20:49:00.582,1016.159
49,8 Dec 2013 22:19:03.764,8 Dec 2013 22:35:51.828,1008.064

"Access","Start Time (UTCG)","Stop Time (UTCG)","Duration (sec)"
1,3 Dec 2013 02:10:22.249,3 Dec 2013 02:27:32.755,1030.505
2,3 Dec 2013 03:58:03.782,3 Dec 2013 04:15:00.988,1017.206
3,3 Dec 2013 05:47:13.646,3 Dec 2013 06:04:23.129,1029.483
4,3 Dec 2013 07:34:26.672,3 Dec 2013 07:51:01.299,994.627
5,3 Dec 2013 23:49:42.748,4 Dec 2013 00:05:09.752,927.004
6,4 Dec 2013 01:34:47.951,4 Dec 2013 01:52:02.531,1034.580
7,4 Dec 2013 03:24:36.223,4 Dec 2013 03:40:41.705,965.482
8,4 Dec 2013 05:12:21.836,4 Dec 2013 05:30:04.971,1063.135
9,4 Dec 2013 06:56:21.764,4 Dec 2013 07:10:27.370,845.606
10,4 Dec 2013 08:37:26.035,4 Dec 2013 08:47:23.397,597.362
11,4 Dec 2013 10:19:58.223,4 Dec 2013 10:23:28.486,210.263
12,4 Dec 2013 21:27:35.784,4 Dec 2013 21:41:50.758,854.975
13,4 Dec 2013 23:10:43.708,4 Dec 2013 23:27:28.384,1004.676
14,5 Dec 2013 01:02:44.192,5 Dec 2013 01:13:36.054,651.862
15,5 Dec 2013 02:44:29.476,5 Dec 2013 02:58:33.164,843.687
16,5 Dec 2013 04:24:18.958,5 Dec 2013 04:40:10.442,951.484
17,5 Dec 2013 06:04:30.794,5 Dec 2013 06:20:54.588,983.795
18,5 Dec 2013 07:45:16.978,5 Dec 2013 08:01:52.835,995.857
19,5 Dec 2013 09:26:58.732,5 Dec 2013 09:43:43.570,1004.837
20,5 Dec 2013 11:09:42.411,5 Dec 2013 11:26:48.333,1025.922
21,5 Dec 2013 19:03:52.018,5 Dec 2013 19:16:33.268,761.250
22,5 Dec 2013 20:44:46.048,5 Dec 2013 21:01:09.763,983.715
23,5 Dec 2013 22:27:54.967,5 Dec 2013 22:44:04.258,969.291
24,6 Dec 2013 00:09:44.809,6 Dec 2013 00:25:55.302,970.493
25,6 Dec 2013 01:50:46.368,6 Dec 2013 02:06:47.889,961.521
26,6 Dec 2013 03:31:42.793,6 Dec 2013 03:47:06.556,923.763
27,6 Dec 2013 05:13:41.750,6 Dec 2013 05:27:08.124,806.374
28,6 Dec 2013 06:58:51.984,6 Dec 2013 07:11:53.663,781.679
29,6 Dec 2013 08:44:02.136,6 Dec 2013 09:01:25.466,1043.330
30,6 Dec 2013 10:32:14.885,6 Dec 2013 10:39:15.305,420.420
31,6 Dec 2013 18:26:14.645,6 Dec 2013 18:27:48.588,93.943
32,6 Dec 2013 20:04:08.650,6 Dec 2013 20:12:37.088,508.438
33,6 Dec 2013 21:43:11.838,6 Dec 2013 21:54:12.507,660.670
34,6 Dec 2013 23:21:31.194,6 Dec 2013 23:34:58.641,807.446
35,7 Dec 2013 00:59:40.923,7 Dec 2013 01:15:20.846,939.923
36,7 Dec 2013 02:42:37.640,7 Dec 2013 03:00:03.443,1045.803
37,7 Dec 2013 04:32:36.847,7 Dec 2013 04:48:40.247,963.400
38,7 Dec 2013 06:20:08.829,7 Dec 2013 06:37:46.788,1057.959
39,7 Dec 2013 08:08:22.834,7 Dec 2013 08:19:06.745,643.912
40,7 Dec 2013 22:40:58.332,7 Dec 2013 22:47:40.992,402.660
41,8 Dec 2013 00:20:23.806,8 Dec 2013 00:38:00.157,1056.351
42,8 Dec 2013 02:08:53.732,8 Dec 2013 02:25:32.610,998.877
43,8 Dec 2013 03:57:35.423,8 Dec 2013 04:15:05.776,1050.353
44,8 Dec 2013 05:45:21.349,8 Dec 2013 06:00:31.375,910.026
45,8 Dec 2013 21:57:52.730,8 Dec 2013 22:15:03.128,1030.397
46,8 Dec 2013 23:45:28.097,9 Dec 2013 00:01:05.763,937.665
47,9 Dec 2013 01:35:54.930,9 Dec 2013 01:50:54.726,899.797

