Raw and processed data/Altitude Variations/us_greatcircle_12sat_650km/Aircraft-B747LAX_Narita-Transmitter-adsb_out6211-To-Satellite-650km_p1_1-Receiver-adsb_satrcvr2 Access.csv

"Access","Start Time (UTCG)","Stop Time (UTCG)","Duration (sec)"
1,3 Dec 2013 06:00:31.451,3 Dec 2013 06:10:18.684,587.233
2,3 Dec 2013 07:38:59.855,3 Dec 2013 07:54:59.949,960.094
3,3 Dec 2013 09:26:56.797,3 Dec 2013 09:38:21.622,684.825
4,3 Dec 2013 11:11:34.168,3 Dec 2013 11:23:47.000,732.832
5,3 Dec 2013 12:48:50.964,3 Dec 2013 13:03:31.708,880.745
6,3 Dec 2013 14:26:41.104,3 Dec 2013 14:41:57.713,916.609
7,3 Dec 2013 16:04:57.432,3 Dec 2013 16:20:21.949,924.517
8,3 Dec 2013 17:43:56.244,3 Dec 2013 17:59:27.332,931.088
9,3 Dec 2013 19:23:52.629,3 Dec 2013 19:39:28.493,935.864
10,3 Dec 2013 21:05:59.676,3 Dec 2013 21:17:20.842,681.166
11,4 Dec 2013 04:45:35.283,4 Dec 2013 05:01:14.272,938.989
12,4 Dec 2013 06:28:51.574,4 Dec 2013 06:42:11.704,800.131
13,4 Dec 2013 08:09:02.035,4 Dec 2013 08:22:55.860,833.825
14,4 Dec 2013 09:48:13.011,4 Dec 2013 10:02:29.710,856.699
15,4 Dec 2013 11:26:59.334,4 Dec 2013 11:41:10.194,850.860
16,4 Dec 2013 13:06:07.155,4 Dec 2013 13:19:26.829,799.674
17,4 Dec 2013 14:46:41.873,4 Dec 2013 14:57:35.775,653.901
18,4 Dec 2013 16:29:03.039,4 Dec 2013 16:42:34.713,811.674
19,4 Dec 2013 18:11:16.686,4 Dec 2013 18:26:28.831,912.145
20,5 Dec 2013 01:56:51.325,5 Dec 2013 02:02:47.076,355.751
21,5 Dec 2013 03:34:50.769,5 Dec 2013 03:45:14.075,623.305
22,5 Dec 2013 05:13:22.277,5 Dec 2013 05:25:16.681,714.404
23,5 Dec 2013 06:51:11.996,5 Dec 2013 07:04:09.456,777.460
24,5 Dec 2013 08:28:16.070,5 Dec 2013 08:42:27.313,851.243
25,5 Dec 2013 10:05:15.335,5 Dec 2013 10:20:24.907,909.572
26,5 Dec 2013 11:46:22.758,5 Dec 2013 12:01:44.667,921.909
27,5 Dec 2013 13:34:03.700,5 Dec 2013 13:48:24.219,860.519
28,5 Dec 2013 15:18:34.144,5 Dec 2013 15:34:47.342,973.198
29,5 Dec 2013 17:05:30.868,5 Dec 2013 17:11:46.875,376.007
30,6 Dec 2013 08:54:36.279,6 Dec 2013 09:10:42.257,965.978
31,6 Dec 2013 10:40:17.821,6 Dec 2013 10:55:40.820,923.000
32,6 Dec 2013 12:26:44.001,6 Dec 2013 12:42:39.352,955.352
33,6 Dec 2013 14:11:46.344,6 Dec 2013 14:26:35.118,888.774
34,7 Dec 2013 06:05:24.182,7 Dec 2013 06:18:45.338,801.156
35,7 Dec 2013 07:47:10.816,7 Dec 2013 08:02:59.630,948.813
36,7 Dec 2013 09:34:58.853,7 Dec 2013 09:48:22.569,803.716
37,7 Dec 2013 11:20:37.011,7 Dec 2013 11:36:17.890,940.879
38,7 Dec 2013 12:59:01.439,7 Dec 2013 13:14:05.525,904.085
39,7 Dec 2013 14:37:02.287,7 Dec 2013 14:51:01.638,839.351
40,7 Dec 2013 16:15:24.087,7 Dec 2013 16:28:11.519,767.433
41,7 Dec 2013 17:54:25.275,7 Dec 2013 18:06:09.734,704.459
42,7 Dec 2013 19:34:43.540,7 Dec 2013 19:44:44.378,600.839
43,8 Dec 2013 03:18:23.220,8 Dec 2013 03:24:01.895,338.675
44,8 Dec 2013 04:53:40.039,8 Dec 2013 05:09:36.348,956.309
45,8 Dec 2013 06:41:56.872,8 Dec 2013 06:50:31.685,514.813
46,8 Dec 2013 08:21:53.009,8 Dec 2013 08:33:20.532,687.523
47,8 Dec 2013 10:00:03.327,8 Dec 2013 10:13:35.784,812.457
48,8 Dec 2013 11:38:22.203,8 Dec 2013 11:52:36.275,854.071
49,8 Dec 2013 13:17:09.304,8 Dec 2013 13:31:23.863,854.559
50,8 Dec 2013 14:56:54.232,8 Dec 2013 15:10:42.165,827.933
51,8 Dec 2013 16:37:47.876,8 Dec 2013 16:52:06.314,858.438
52,8 Dec 2013 18:19:43.254,8 Dec 2013 18:33:11.757,808.503
53,9 Dec 2013 02:00:12.109,9 Dec 2013 02:15:09.933,897.825

"Access","Start Time (UTCG)","Stop Time (UTCG)","Duration (sec)"
1,3 Dec 2013 07:13:15.412,3 Dec 2013 07:29:16.141,960.729
2,3 Dec 2013 08:59:24.391,3 Dec 2013 09:12:14.338,769.947
3,3 Dec 2013 10:47:27.723,3 Dec 2013 10:58:22.633,654.911
4,3 Dec 2013 12:24:27.348,3 Dec 2013 12:38:46.947,859.599
5,3 Dec 2013 14:02:11.453,3 Dec 2013 14:17:23.716,912.263
6,3 Dec 2013 15:40:20.146,3 Dec 2013 15:55:43.205,923.059
7,3 Dec 2013 17:19:06.526,3 Dec 2013 17:34:35.872,929.346
8,3 Dec 2013 18:58:47.815,3 Dec 2013 19:14:23.164,935.348
9,3 Dec 2013 20:39:46.173,3 Dec 2013 20:54:01.316,855.143
10,4 Dec 2013 04:21:04.831,4 Dec 2013 04:35:34.401,869.570
11,4 Dec 2013 06:03:36.105,4 Dec 2013 06:16:51.417,795.312
12,4 Dec 2013 07:44:06.253,4 Dec 2013 07:57:51.321,825.069
13,4 Dec 2013 09:23:29.046,4 Dec 2013 09:37:42.380,853.333
14,4 Dec 2013 11:02:17.834,4 Dec 2013 11:16:33.385,855.552
15,4 Dec 2013 12:41:14.984,4 Dec 2013 12:54:53.628,818.645
16,4 Dec 2013 14:21:20.551,4 Dec 2013 14:33:04.402,703.851
17,4 Dec 2013 16:03:37.316,4 Dec 2013 16:15:00.134,682.818
18,4 Dec 2013 17:45:31.304,4 Dec 2013 18:01:28.132,956.827
19,5 Dec 2013 01:33:24.716,5 Dec 2013 01:35:50.712,145.996
20,5 Dec 2013 03:10:11.951,5 Dec 2013 03:19:56.390,584.439
21,5 Dec 2013 04:48:47.070,5 Dec 2013 05:00:24.293,697.224
22,5 Dec 2013 06:26:49.536,5 Dec 2013 06:39:30.623,761.086
23,5 Dec 2013 08:04:02.731,5 Dec 2013 08:17:54.900,832.169
24,5 Dec 2013 09:40:57.536,5 Dec 2013 09:55:57.553,900.017
25,5 Dec 2013 11:19:33.667,5 Dec 2013 11:35:32.879,959.212
26,5 Dec 2013 13:07:23.982,5 Dec 2013 13:21:25.551,841.569
27,5 Dec 2013 14:52:36.003,5 Dec 2013 15:08:42.910,966.907
28,5 Dec 2013 16:37:28.577,5 Dec 2013 16:49:25.985,717.408
29,6 Dec 2013 08:29:10.077,6 Dec 2013 08:44:23.787,913.710
30,6 Dec 2013 10:13:29.655,6 Dec 2013 10:29:17.025,947.369
31,6 Dec 2013 12:00:22.861,6 Dec 2013 12:15:52.802,929.941
32,6 Dec 2013 13:45:21.475,6 Dec 2013 14:01:17.118,955.644
33,7 Dec 2013 05:42:03.353,7 Dec 2013 05:51:39.652,576.300
34,7 Dec 2013 07:20:54.102,7 Dec 2013 07:37:05.076,970.974
35,7 Dec 2013 09:07:58.132,7 Dec 2013 09:21:35.804,817.672
36,7 Dec 2013 10:54:28.365,7 Dec 2013 11:09:43.478,915.113
37,7 Dec 2013 12:34:34.703,7 Dec 2013 12:49:46.428,911.725
38,7 Dec 2013 14:12:30.294,7 Dec 2013 14:26:48.500,858.206
39,7 Dec 2013 15:50:46.061,7 Dec 2013 16:03:50.143,784.083
40,7 Dec 2013 17:29:34.498,7 Dec 2013 17:41:35.442,720.944
41,7 Dec 2013 19:09:28.907,7 Dec 2013 19:20:04.964,636.058
42,7 Dec 2013 20:51:34.557,7 Dec 2013 20:58:16.319,401.762
43,8 Dec 2013 04:28:21.346,8 Dec 2013 04:44:01.959,940.613
44,8 Dec 2013 06:13:40.994,8 Dec 2013 06:25:29.704,708.711
45,8 Dec 2013 07:57:21.989,8 Dec 2013 08:07:55.478,633.489
46,8 Dec 2013 09:35:30.236,8 Dec 2013 09:48:41.864,791.628
47,8 Dec 2013 11:13:45.932,8 Dec 2013 11:27:54.426,848.494
48,8 Dec 2013 12:52:23.219,8 Dec 2013 13:06:40.541,857.322
49,8 Dec 2013 14:31:51.307,8 Dec 2013 14:45:47.780,836.473
50,8 Dec 2013 16:12:29.613,8 Dec 2013 16:25:51.610,801.998
51,8 Dec 2013 17:53:47.971,8 Dec 2013 18:09:02.963,914.992
52,9 Dec 2013 01:36:25.005,9 Dec 2013 01:49:17.614,772.608

"Access","Start Time (UTCG)","Stop Time (UTCG)","Duration (sec)"
1,3 Dec 2013 06:48:07.955,3 Dec 2013 07:03:23.529,915.574
2,3 Dec 2013 08:32:07.870,3 Dec 2013 08:46:23.562,855.692
3,3 Dec 2013 10:21:31.136,3 Dec 2013 10:32:05.846,634.710
4,3 Dec 2013 12:00:06.013,3 Dec 2013 12:13:55.981,829.968
5,3 Dec 2013 13:37:43.207,3 Dec 2013 13:52:48.790,905.584
6,3 Dec 2013 15:15:45.207,3 Dec 2013 15:31:06.673,921.466
7,3 Dec 2013 16:54:20.316,3 Dec 2013 17:09:47.956,927.640
8,3 Dec 2013 18:33:46.818,3 Dec 2013 18:49:21.056,934.238
9,3 Dec 2013 20:14:13.576,3 Dec 2013 20:29:41.265,927.690
10,4 Dec 2013 03:57:30.912,4 Dec 2013 04:09:23.243,712.332
11,4 Dec 2013 05:36:48.376,4 Dec 2013 05:51:42.128,893.751
12,4 Dec 2013 07:19:06.238,4 Dec 2013 07:32:42.228,815.990
13,4 Dec 2013 08:58:42.913,4 Dec 2013 09:12:51.199,848.286
14,4 Dec 2013 10:37:36.762,4 Dec 2013 10:51:54.701,857.940
15,4 Dec 2013 12:16:26.975,4 Dec 2013 12:30:19.960,832.985
16,4 Dec 2013 13:56:08.650,4 Dec 2013 14:08:32.263,743.613
17,4 Dec 2013 15:38:00.776,4 Dec 2013 15:46:50.655,529.879
18,4 Dec 2013 17:19:56.843,4 Dec 2013 17:35:48.150,951.307
19,4 Dec 2013 19:04:13.298,4 Dec 2013 19:13:44.752,571.455
20,5 Dec 2013 02:45:36.075,5 Dec 2013 02:54:28.902,532.827
21,5 Dec 2013 04:24:09.539,5 Dec 2013 04:35:26.937,677.397
22,5 Dec 2013 06:02:23.757,5 Dec 2013 06:14:49.247,745.489
23,5 Dec 2013 07:39:48.083,5 Dec 2013 07:53:21.261,813.178
24,5 Dec 2013 09:16:42.453,5 Dec 2013 09:31:28.704,886.251
25,5 Dec 2013 10:54:03.837,5 Dec 2013 11:09:23.250,919.413
26,5 Dec 2013 12:40:28.364,5 Dec 2013 12:54:37.595,849.232
27,5 Dec 2013 14:26:35.265,5 Dec 2013 14:42:13.017,937.752
28,5 Dec 2013 16:10:48.798,5 Dec 2013 16:25:19.003,870.205
29,6 Dec 2013 08:04:23.031,6 Dec 2013 08:17:45.920,802.889
30,6 Dec 2013 09:46:51.935,6 Dec 2013 10:03:02.504,970.569
31,6 Dec 2013 11:33:50.705,6 Dec 2013 11:49:02.252,911.546
32,6 Dec 2013 13:19:07.848,6 Dec 2013 13:35:27.753,979.906
33,6 Dec 2013 15:06:35.524,6 Dec 2013 15:14:20.494,464.970
34,7 Dec 2013 06:55:06.872,7 Dec 2013 07:11:09.591,962.719
35,7 Dec 2013 08:40:51.728,7 Dec 2013 08:55:09.083,857.354
36,7 Dec 2013 10:28:12.925,7 Dec 2013 10:42:37.593,864.668
37,7 Dec 2013 12:10:09.952,7 Dec 2013 12:25:23.015,913.063
38,7 Dec 2013 13:47:59.439,7 Dec 2013 14:02:35.455,876.016
39,7 Dec 2013 15:26:09.963,7 Dec 2013 15:39:31.727,801.763
40,7 Dec 2013 17:04:47.772,7 Dec 2013 17:17:04.156,736.385
41,7 Dec 2013 18:44:21.681,7 Dec 2013 18:55:25.285,663.604
42,7 Dec 2013 20:25:42.404,7 Dec 2013 20:33:54.207,491.803
43,8 Dec 2013 04:03:45.380,8 Dec 2013 04:18:11.968,866.588
44,8 Dec 2013 05:46:17.139,8 Dec 2013 06:00:18.521,841.382
45,8 Dec 2013 07:32:52.781,8 Dec 2013 07:42:18.413,565.632
46,8 Dec 2013 09:10:57.439,8 Dec 2013 09:23:42.216,764.778
47,8 Dec 2013 10:49:10.930,8 Dec 2013 11:03:11.023,840.093
48,8 Dec 2013 12:27:40.349,8 Dec 2013 12:41:58.602,858.253
49,8 Dec 2013 14:06:52.978,8 Dec 2013 14:20:56.946,843.968
50,8 Dec 2013 15:47:13.694,8 Dec 2013 16:00:43.591,809.897
51,8 Dec 2013 17:28:14.441,8 Dec 2013 17:44:06.483,952.042
52,9 Dec 2013 01:14:04.753,9 Dec 2013 01:22:22.474,497.721

"Access","Start Time (UTCG)","Stop Time (UTCG)","Duration (sec)"
1,3 Dec 2013 06:23:45.266,3 Dec 2013 06:37:12.550,807.285
2,3 Dec 2013 08:05:18.118,3 Dec 2013 08:20:40.754,922.636
3,3 Dec 2013 09:54:25.919,3 Dec 2013 10:04:56.525,630.605
4,3 Dec 2013 11:35:47.803,3 Dec 2013 11:48:56.856,789.052
5,3 Dec 2013 13:13:16.337,3 Dec 2013 13:28:11.863,895.526
6,3 Dec 2013 14:51:12.281,3 Dec 2013 15:06:31.753,919.471
7,3 Dec 2013 16:29:37.380,3 Dec 2013 16:45:03.406,926.026
8,3 Dec 2013 18:08:49.640,3 Dec 2013 18:24:22.402,932.762
9,3 Dec 2013 19:49:01.221,3 Dec 2013 20:04:36.713,935.492
10,3 Dec 2013 21:34:19.217,3 Dec 2013 21:38:08.309,229.092
11,4 Dec 2013 03:35:53.999,4 Dec 2013 03:41:41.722,347.723
12,4 Dec 2013 05:10:50.165,4 Dec 2013 05:26:35.606,945.441
13,4 Dec 2013 06:54:01.496,4 Dec 2013 07:07:28.861,807.365
14,4 Dec 2013 08:33:54.086,4 Dec 2013 08:47:55.786,841.700
15,4 Dec 2013 10:12:55.374,4 Dec 2013 10:27:13.644,858.270
16,4 Dec 2013 11:51:42.087,4 Dec 2013 12:05:45.590,843.503
17,4 Dec 2013 13:31:04.633,4 Dec 2013 13:43:59.697,775.064
18,4 Dec 2013 15:12:14.454,4 Dec 2013 15:22:05.696,591.242
19,4 Dec 2013 16:54:28.510,4 Dec 2013 17:09:30.562,902.052
20,4 Dec 2013 18:37:22.168,4 Dec 2013 18:50:42.851,800.682
21,5 Dec 2013 02:21:06.650,5 Dec 2013 02:28:48.298,461.648
22,5 Dec 2013 03:59:30.431,5 Dec 2013 04:10:23.843,653.412
23,5 Dec 2013 05:37:54.616,5 Dec 2013 05:50:04.791,730.175
24,5 Dec 2013 07:15:31.367,5 Dec 2013 07:28:46.210,794.844
25,5 Dec 2013 08:52:28.982,5 Dec 2013 09:06:58.587,869.604
26,5 Dec 2013 10:29:37.018,5 Dec 2013 10:44:50.430,913.411
27,5 Dec 2013 12:13:24.311,5 Dec 2013 12:28:04.556,880.245
28,5 Dec 2013 14:00:26.284,5 Dec 2013 14:15:23.789,897.504
29,5 Dec 2013 15:44:35.722,5 Dec 2013 16:00:21.489,945.767
30,6 Dec 2013 07:40:40.940,6 Dec 2013 07:50:20.927,579.987
31,6 Dec 2013 09:20:32.178,6 Dec 2013 09:36:52.781,980.603
32,6 Dec 2013 11:07:07.528,6 Dec 2013 11:22:16.334,908.806
33,6 Dec 2013 12:52:57.364,6 Dec 2013 13:09:13.306,975.942
34,6 Dec 2013 14:38:36.739,6 Dec 2013 14:51:09.777,753.038
35,7 Dec 2013 06:29:53.924,7 Dec 2013 06:45:06.527,912.603
36,7 Dec 2013 08:13:52.367,7 Dec 2013 08:28:58.983,906.616
37,7 Dec 2013 10:01:44.444,7 Dec 2013 10:15:26.490,822.046
38,7 Dec 2013 11:45:47.739,7 Dec 2013 12:00:53.991,906.252
39,7 Dec 2013 13:23:29.770,7 Dec 2013 13:38:21.490,891.720
40,7 Dec 2013 15:01:35.459,7 Dec 2013 15:15:15.778,820.319
41,7 Dec 2013 16:40:04.490,7 Dec 2013 16:52:36.158,751.668
42,7 Dec 2013 18:19:20.757,7 Dec 2013 18:30:46.571,685.813
43,7 Dec 2013 20:00:07.159,7 Dec 2013 20:09:21.731,554.572
44,8 Dec 2013 03:40:05.235,8 Dec 2013 03:51:52.379,707.144
45,8 Dec 2013 05:19:38.211,8 Dec 2013 05:35:00.962,922.751
46,8 Dec 2013 07:08:27.233,8 Dec 2013 07:16:26.452,479.219
47,8 Dec 2013 08:46:24.969,8 Dec 2013 08:58:35.571,730.601
48,8 Dec 2013 10:24:36.825,8 Dec 2013 10:38:25.145,828.320
49,8 Dec 2013 12:03:00.180,8 Dec 2013 12:17:17.409,857.229
50,8 Dec 2013 13:41:59.084,8 Dec 2013 13:56:09.151,850.067
51,8 Dec 2013 15:22:01.767,8 Dec 2013 15:35:40.600,818.834
52,8 Dec 2013 17:02:55.135,8 Dec 2013 17:18:28.088,932.953
53,8 Dec 2013 18:46:23.767,8 Dec 2013 18:56:09.271,585.504

"Access","Start Time (UTCG)","Stop Time (UTCG)","Duration (sec)"
1,3 Dec 2013 01:24:29.698,3 Dec 2013 01:37:55.961,806.263
2,3 Dec 2013 03:06:23.504,3 Dec 2013 03:21:20.943,897.439
3,3 Dec 2013 10:48:41.806,3 Dec 2013 11:00:38.848,717.042
4,3 Dec 2013 12:28:18.717,3 Dec 2013 12:41:53.067,814.350
5,3 Dec 2013 14:07:33.333,3 Dec 2013 14:21:41.351,848.018
6,3 Dec 2013 15:45:58.012,3 Dec 2013 16:00:28.939,870.927
7,3 Dec 2013 17:23:38.606,3 Dec 2013 17:38:40.048,901.442
8,3 Dec 2013 19:01:16.395,3 Dec 2013 19:16:29.349,912.954
9,3 Dec 2013 20:41:35.144,3 Dec 2013 20:56:17.362,882.218
10,3 Dec 2013 22:29:18.913,3 Dec 2013 22:43:22.869,843.956
11,4 Dec 2013 00:13:26.578,4 Dec 2013 00:29:35.905,969.327
12,4 Dec 2013 02:01:26.621,4 Dec 2013 02:04:43.869,197.248
13,4 Dec 2013 16:12:07.713,4 Dec 2013 16:16:28.582,260.869
14,4 Dec 2013 17:49:08.671,4 Dec 2013 18:05:24.338,975.667
15,4 Dec 2013 19:35:17.193,4 Dec 2013 19:50:33.381,916.188
16,4 Dec 2013 21:21:29.316,4 Dec 2013 21:37:33.280,963.964
17,4 Dec 2013 23:06:34.645,4 Dec 2013 23:20:41.946,847.301
18,5 Dec 2013 14:59:46.064,5 Dec 2013 15:13:38.189,832.125
19,5 Dec 2013 16:42:10.360,5 Dec 2013 16:57:58.935,948.575
20,5 Dec 2013 18:29:44.672,5 Dec 2013 18:43:47.178,842.507
21,5 Dec 2013 20:15:09.672,5 Dec 2013 20:31:24.835,975.163
22,5 Dec 2013 21:55:16.101,5 Dec 2013 22:09:37.369,861.268
23,5 Dec 2013 23:33:36.509,5 Dec 2013 23:45:42.622,726.114
24,6 Dec 2013 01:12:22.712,6 Dec 2013 01:21:55.517,572.805
25,6 Dec 2013 02:52:01.366,6 Dec 2013 02:58:43.905,402.540
26,6 Dec 2013 12:12:16.643,6 Dec 2013 12:19:41.346,444.703
27,6 Dec 2013 13:48:48.665,6 Dec 2013 14:04:46.487,957.822
28,6 Dec 2013 15:37:01.085,6 Dec 2013 15:46:33.939,572.854
29,6 Dec 2013 17:18:43.572,6 Dec 2013 17:29:54.357,670.786
30,6 Dec 2013 18:56:28.312,6 Dec 2013 19:10:13.930,825.618
31,6 Dec 2013 20:34:34.399,6 Dec 2013 20:49:11.383,876.984
32,6 Dec 2013 22:13:08.833,6 Dec 2013 22:27:58.879,890.046
33,6 Dec 2013 23:52:34.104,7 Dec 2013 00:07:22.075,887.971
34,7 Dec 2013 01:33:00.812,7 Dec 2013 01:47:48.461,887.649
35,7 Dec 2013 03:15:02.462,7 Dec 2013 03:27:57.518,775.056
36,7 Dec 2013 10:55:19.063,7 Dec 2013 11:10:34.631,915.568
37,7 Dec 2013 12:35:58.958,7 Dec 2013 12:51:31.287,932.329
38,7 Dec 2013 14:16:06.538,7 Dec 2013 14:31:29.940,923.402
39,7 Dec 2013 15:55:16.439,7 Dec 2013 16:10:31.175,914.735
40,7 Dec 2013 17:33:53.115,7 Dec 2013 17:48:49.495,896.381
41,7 Dec 2013 19:12:45.843,7 Dec 2013 19:26:41.938,836.096
42,7 Dec 2013 20:53:19.842,7 Dec 2013 21:03:58.958,639.115
43,7 Dec 2013 22:38:14.524,7 Dec 2013 22:52:05.500,830.976
44,8 Dec 2013 00:21:12.367,8 Dec 2013 00:36:47.996,935.629
45,8 Dec 2013 14:39:31.823,8 Dec 2013 14:48:44.799,552.976
46,8 Dec 2013 16:14:23.977,8 Dec 2013 16:27:45.720,801.744
47,8 Dec 2013 17:56:24.953,8 Dec 2013 18:12:32.385,967.432
48,8 Dec 2013 19:43:44.495,8 Dec 2013 19:58:32.144,887.649
49,8 Dec 2013 21:28:54.967,8 Dec 2013 21:45:12.623,977.656
50,8 Dec 2013 23:14:54.994,8 Dec 2013 23:24:43.953,588.959

"Access","Start Time (UTCG)","Stop Time (UTCG)","Duration (sec)"
1,3 Dec 2013 01:00:00.000,3 Dec 2013 01:10:17.103,617.103
2,3 Dec 2013 02:40:39.238,3 Dec 2013 02:56:30.563,951.325
3,3 Dec 2013 10:25:40.489,3 Dec 2013 10:34:37.033,536.545
4,3 Dec 2013 12:03:24.746,3 Dec 2013 12:16:43.774,799.028
5,3 Dec 2013 13:42:48.836,3 Dec 2013 13:56:50.898,842.061
6,3 Dec 2013 15:21:26.809,3 Dec 2013 15:35:51.384,864.575
7,3 Dec 2013 16:59:15.915,3 Dec 2013 17:14:09.561,893.645
8,3 Dec 2013 18:36:48.766,3 Dec 2013 18:52:04.087,915.321
9,3 Dec 2013 20:15:10.115,3 Dec 2013 20:30:04.761,894.646
10,3 Dec 2013 22:02:45.811,3 Dec 2013 22:16:17.201,811.390
11,3 Dec 2013 23:47:31.874,4 Dec 2013 00:03:38.794,966.920
12,4 Dec 2013 01:32:26.759,4 Dec 2013 01:43:33.904,667.145
13,4 Dec 2013 17:23:28.776,4 Dec 2013 17:39:08.173,939.397
14,4 Dec 2013 19:08:26.978,4 Dec 2013 19:24:05.016,938.038
15,4 Dec 2013 20:55:12.173,4 Dec 2013 21:10:51.238,939.065
16,4 Dec 2013 22:40:04.741,4 Dec 2013 22:55:40.551,935.811
17,5 Dec 2013 14:36:01.997,5 Dec 2013 14:46:43.268,641.272
18,5 Dec 2013 16:15:48.021,5 Dec 2013 16:31:59.794,971.773
19,5 Dec 2013 18:02:52.315,5 Dec 2013 18:16:56.086,843.771
20,5 Dec 2013 19:49:00.076,5 Dec 2013 20:04:47.952,947.875
21,5 Dec 2013 21:30:45.218,5 Dec 2013 21:45:30.170,884.952
22,5 Dec 2013 23:08:59.161,5 Dec 2013 23:21:42.800,763.639
23,6 Dec 2013 00:47:38.081,6 Dec 2013 00:57:48.952,610.871
24,6 Dec 2013 02:26:58.092,6 Dec 2013 02:34:30.056,451.963
25,6 Dec 2013 04:09:09.193,6 Dec 2013 04:10:12.191,62.998
26,6 Dec 2013 13:23:20.854,6 Dec 2013 13:39:09.403,948.549
27,6 Dec 2013 15:09:00.818,6 Dec 2013 15:21:06.490,725.673
28,6 Dec 2013 16:54:24.779,6 Dec 2013 17:04:23.082,598.303
29,6 Dec 2013 18:31:59.630,6 Dec 2013 18:45:20.380,800.749
30,6 Dec 2013 20:10:00.964,6 Dec 2013 20:24:30.227,869.264
31,6 Dec 2013 21:48:26.344,6 Dec 2013 22:03:15.087,888.743
32,6 Dec 2013 23:27:36.995,6 Dec 2013 23:42:26.153,889.158
33,7 Dec 2013 01:07:48.860,7 Dec 2013 01:22:35.094,886.234
34,7 Dec 2013 02:49:03.596,7 Dec 2013 03:04:02.999,899.403
35,7 Dec 2013 10:31:15.840,7 Dec 2013 10:44:48.614,812.774
36,7 Dec 2013 12:10:47.422,7 Dec 2013 12:26:22.713,935.291
37,7 Dec 2013 13:51:10.507,7 Dec 2013 14:06:35.850,925.342
38,7 Dec 2013 15:30:33.425,7 Dec 2013 15:45:50.690,917.265
39,7 Dec 2013 17:09:14.834,7 Dec 2013 17:24:17.810,902.976
40,7 Dec 2013 18:47:57.368,7 Dec 2013 19:02:15.947,858.579
41,7 Dec 2013 20:27:54.423,7 Dec 2013 20:39:46.182,711.759
42,7 Dec 2013 22:12:19.143,7 Dec 2013 22:24:42.777,743.634
43,7 Dec 2013 23:55:23.138,8 Dec 2013 00:11:28.201,965.063
44,8 Dec 2013 01:42:27.689,8 Dec 2013 01:46:20.688,232.998
45,8 Dec 2013 14:15:59.168,8 Dec 2013 14:23:48.481,469.313
46,8 Dec 2013 15:50:34.342,8 Dec 2013 16:03:05.734,751.391
47,8 Dec 2013 17:29:59.914,8 Dec 2013 17:46:21.050,981.136
48,8 Dec 2013 19:16:56.920,8 Dec 2013 19:31:45.317,888.397
49,8 Dec 2013 21:02:50.125,8 Dec 2013 21:18:54.195,964.070
50,8 Dec 2013 22:47:41.518,8 Dec 2013 23:01:08.063,806.545

"Access","Start Time (UTCG)","Stop Time (UTCG)","Duration (sec)"
1,3 Dec 2013 02:15:08.172,3 Dec 2013 02:30:59.194,951.022
2,3 Dec 2013 03:59:35.821,3 Dec 2013 04:07:58.588,502.767
3,3 Dec 2013 11:38:29.945,3 Dec 2013 11:51:28.764,778.819
4,3 Dec 2013 13:18:01.312,3 Dec 2013 13:31:56.262,834.950
5,3 Dec 2013 14:56:52.372,3 Dec 2013 15:11:11.203,858.832
6,3 Dec 2013 16:34:52.046,3 Dec 2013 16:49:37.707,885.661
7,3 Dec 2013 18:12:24.018,3 Dec 2013 18:27:37.335,913.317
8,3 Dec 2013 19:50:25.522,3 Dec 2013 20:05:13.812,888.290
9,3 Dec 2013 21:35:52.886,3 Dec 2013 21:49:20.859,807.972
10,3 Dec 2013 23:21:36.230,3 Dec 2013 23:37:13.624,937.395
11,4 Dec 2013 01:05:40.442,4 Dec 2013 01:19:45.637,845.195
12,4 Dec 2013 16:58:23.137,4 Dec 2013 17:12:37.193,854.056
13,4 Dec 2013 18:41:43.695,4 Dec 2013 18:57:46.888,963.193
14,4 Dec 2013 20:28:44.675,4 Dec 2013 20:44:01.569,916.894
15,4 Dec 2013 22:13:49.720,4 Dec 2013 22:30:03.890,974.170
16,5 Dec 2013 00:02:57.699,5 Dec 2013 00:06:28.024,210.325
17,5 Dec 2013 15:49:52.773,5 Dec 2013 16:06:01.404,968.631
18,5 Dec 2013 17:35:51.920,5 Dec 2013 17:50:22.084,870.164
19,5 Dec 2013 19:22:46.338,5 Dec 2013 19:37:53.645,907.307
20,5 Dec 2013 21:06:16.529,5 Dec 2013 21:21:18.536,902.007
21,5 Dec 2013 22:44:23.261,5 Dec 2013 22:57:42.657,799.396
22,6 Dec 2013 00:22:55.762,6 Dec 2013 00:33:44.949,649.187
23,6 Dec 2013 02:02:01.666,6 Dec 2013 02:10:16.543,494.877
24,6 Dec 2013 03:42:44.140,6 Dec 2013 03:46:57.706,253.566
25,6 Dec 2013 12:58:33.826,6 Dec 2013 13:13:19.161,885.335
26,6 Dec 2013 14:41:38.043,6 Dec 2013 14:55:41.789,843.746
27,6 Dec 2013 16:30:13.724,6 Dec 2013 16:38:33.901,500.177
28,6 Dec 2013 18:07:32.246,6 Dec 2013 18:20:20.474,768.228
29,6 Dec 2013 19:45:28.931,6 Dec 2013 19:59:47.641,858.710
30,6 Dec 2013 21:23:46.711,6 Dec 2013 21:38:33.027,886.316
31,6 Dec 2013 23:02:43.862,6 Dec 2013 23:17:33.924,890.062
32,7 Dec 2013 00:42:40.212,7 Dec 2013 00:57:26.311,886.099
33,7 Dec 2013 02:23:30.251,7 Dec 2013 02:39:17.704,947.454
34,7 Dec 2013 10:08:24.388,7 Dec 2013 10:18:15.175,590.787
35,7 Dec 2013 11:45:32.389,7 Dec 2013 12:01:10.933,938.544
36,7 Dec 2013 13:26:10.596,7 Dec 2013 13:41:38.005,927.409
37,7 Dec 2013 15:05:47.703,7 Dec 2013 15:21:07.172,919.469
38,7 Dec 2013 16:44:36.486,7 Dec 2013 16:59:44.392,907.906
39,7 Dec 2013 18:23:13.278,7 Dec 2013 18:37:48.486,875.208
40,7 Dec 2013 20:02:42.301,7 Dec 2013 20:15:27.909,765.608
41,7 Dec 2013 21:46:03.839,7 Dec 2013 21:57:09.637,665.797
42,7 Dec 2013 23:29:40.616,7 Dec 2013 23:45:32.757,952.141
43,8 Dec 2013 01:13:51.600,8 Dec 2013 01:25:07.223,675.622
44,8 Dec 2013 13:52:32.307,8 Dec 2013 13:58:44.141,371.835
45,8 Dec 2013 15:26:49.405,8 Dec 2013 15:38:22.500,693.095
46,8 Dec 2013 17:03:58.156,8 Dec 2013 17:20:07.037,968.881
47,8 Dec 2013 18:50:01.720,8 Dec 2013 19:05:10.217,908.497
48,8 Dec 2013 20:36:39.737,8 Dec 2013 20:52:15.896,936.159
49,8 Dec 2013 22:21:11.802,8 Dec 2013 22:36:26.979,915.176

"Access","Start Time (UTCG)","Stop Time (UTCG)","Duration (sec)"
1,3 Dec 2013 01:49:45.702,3 Dec 2013 02:04:48.398,902.696
2,3 Dec 2013 03:32:31.264,3 Dec 2013 03:45:21.505,770.241
3,3 Dec 2013 11:13:35.241,3 Dec 2013 11:26:07.415,752.175
4,3 Dec 2013 12:53:11.106,3 Dec 2013 13:06:57.098,825.991
5,3 Dec 2013 14:32:14.550,3 Dec 2013 14:46:27.997,853.447
6,3 Dec 2013 16:10:26.275,3 Dec 2013 16:25:04.261,877.987
7,3 Dec 2013 17:48:00.985,3 Dec 2013 18:03:09.293,908.309
8,3 Dec 2013 19:25:48.169,3 Dec 2013 19:40:52.772,904.603
9,3 Dec 2013 21:08:45.542,3 Dec 2013 21:22:41.024,835.482
10,3 Dec 2013 22:55:33.914,3 Dec 2013 23:10:25.590,891.677
11,4 Dec 2013 00:39:26.517,4 Dec 2013 00:55:00.513,933.996
12,4 Dec 2013 16:34:08.209,4 Dec 2013 16:45:32.610,684.401
13,4 Dec 2013 18:15:15.478,4 Dec 2013 18:31:35.076,979.598
14,4 Dec 2013 20:02:05.424,4 Dec 2013 20:17:13.233,907.809
15,4 Dec 2013 21:47:40.078,4 Dec 2013 22:03:59.606,979.528
16,4 Dec 2013 23:33:38.899,4 Dec 2013 23:44:50.619,671.721
17,5 Dec 2013 15:24:29.529,5 Dec 2013 15:39:57.346,927.817
18,5 Dec 2013 17:08:54.328,5 Dec 2013 17:24:04.510,910.181
19,5 Dec 2013 18:56:22.652,5 Dec 2013 19:10:49.818,867.166
20,5 Dec 2013 20:41:21.298,5 Dec 2013 20:57:01.406,940.108
21,5 Dec 2013 22:19:48.855,5 Dec 2013 22:33:41.189,832.334
22,5 Dec 2013 23:58:15.331,6 Dec 2013 00:09:43.060,687.729
23,6 Dec 2013 01:37:10.286,6 Dec 2013 01:46:04.788,534.501
24,6 Dec 2013 03:17:14.500,6 Dec 2013 03:22:55.305,340.805
25,6 Dec 2013 12:34:38.318,6 Dec 2013 12:47:03.752,745.434
26,6 Dec 2013 14:14:54.315,6 Dec 2013 14:30:16.100,921.784
27,6 Dec 2013 16:05:27.866,6 Dec 2013 16:12:15.808,407.942
28,6 Dec 2013 17:43:06.608,6 Dec 2013 17:55:12.513,725.905
29,6 Dec 2013 19:20:58.086,6 Dec 2013 19:35:02.593,844.507
30,6 Dec 2013 20:59:09.523,6 Dec 2013 21:13:52.040,882.517
31,6 Dec 2013 22:37:54.558,6 Dec 2013 22:52:44.985,890.427
32,7 Dec 2013 00:17:35.213,7 Dec 2013 00:32:22.032,886.818
33,7 Dec 2013 01:58:13.558,7 Dec 2013 02:13:49.209,935.652
34,7 Dec 2013 03:41:58.729,7 Dec 2013 03:50:28.651,509.922
35,7 Dec 2013 11:20:11.043,7 Dec 2013 11:35:56.155,945.112
36,7 Dec 2013 13:01:06.736,7 Dec 2013 13:16:36.448,929.713
37,7 Dec 2013 14:40:58.850,7 Dec 2013 14:56:20.335,921.485
38,7 Dec 2013 16:19:57.255,7 Dec 2013 16:35:08.959,911.703
39,7 Dec 2013 17:58:32.250,7 Dec 2013 18:13:19.675,887.425
40,7 Dec 2013 19:37:40.211,7 Dec 2013 19:51:06.129,805.918
41,7 Dec 2013 21:19:17.852,7 Dec 2013 21:29:46.890,629.038
42,7 Dec 2013 23:03:59.465,7 Dec 2013 23:19:04.261,904.795
43,8 Dec 2013 00:47:16.157,8 Dec 2013 01:01:26.403,850.246
44,8 Dec 2013 13:29:17.779,8 Dec 2013 13:33:24.231,246.452
45,8 Dec 2013 15:03:08.659,8 Dec 2013 15:13:35.726,627.067
46,8 Dec 2013 16:38:24.809,8 Dec 2013 16:53:42.807,917.997
47,8 Dec 2013 18:23:07.968,8 Dec 2013 18:38:47.055,939.087
48,8 Dec 2013 20:10:18.931,8 Dec 2013 20:25:25.367,906.436
49,8 Dec 2013 21:54:59.888,8 Dec 2013 22:11:05.433,965.546

"Access","Start Time (UTCG)","Stop Time (UTCG)","Duration (sec)"
1,3 Dec 2013 01:04:21.844,3 Dec 2013 01:12:43.446,501.603
2,3 Dec 2013 02:43:44.318,3 Dec 2013 03:00:05.161,980.843
3,3 Dec 2013 04:30:18.402,3 Dec 2013 04:45:25.491,907.089
4,3 Dec 2013 06:16:15.590,3 Dec 2013 06:32:25.226,969.636
5,3 Dec 2013 08:01:25.324,3 Dec 2013 08:14:44.998,799.674
6,3 Dec 2013 23:54:07.565,4 Dec 2013 00:08:28.669,861.104
7,4 Dec 2013 01:37:08.482,4 Dec 2013 01:52:56.111,947.629
8,4 Dec 2013 03:24:30.296,4 Dec 2013 03:39:04.494,874.198
9,4 Dec 2013 05:09:45.458,4 Dec 2013 05:26:06.369,980.910
10,4 Dec 2013 06:51:48.419,4 Dec 2013 07:04:39.212,770.793
11,4 Dec 2013 08:30:59.088,4 Dec 2013 08:39:20.953,501.865
12,4 Dec 2013 21:06:21.498,4 Dec 2013 21:15:04.823,523.325
13,4 Dec 2013 22:43:55.314,4 Dec 2013 22:59:54.367,959.053
14,5 Dec 2013 00:32:00.627,5 Dec 2013 00:42:31.104,630.477
15,5 Dec 2013 02:15:17.327,5 Dec 2013 02:26:45.621,688.294
16,5 Dec 2013 03:52:43.529,5 Dec 2013 04:06:54.734,851.205
17,5 Dec 2013 05:30:39.672,5 Dec 2013 05:45:40.426,900.754
18,5 Dec 2013 07:09:03.565,5 Dec 2013 07:24:19.885,916.320
19,5 Dec 2013 08:48:13.526,5 Dec 2013 09:03:38.067,924.540
20,5 Dec 2013 10:28:21.635,5 Dec 2013 10:43:55.721,934.085
21,5 Dec 2013 12:10:27.469,5 Dec 2013 12:22:41.079,733.610
22,5 Dec 2013 19:50:27.020,5 Dec 2013 20:05:55.949,928.929
23,5 Dec 2013 21:32:08.175,5 Dec 2013 21:46:55.045,886.870
24,5 Dec 2013 23:12:23.222,5 Dec 2013 23:27:12.187,888.965
25,6 Dec 2013 00:51:38.384,6 Dec 2013 01:06:27.852,889.468
26,6 Dec 2013 02:30:23.814,6 Dec 2013 02:44:56.222,872.408
27,6 Dec 2013 04:09:28.685,6 Dec 2013 04:22:59.146,810.461
28,6 Dec 2013 05:50:11.487,6 Dec 2013 06:00:37.895,626.409
29,6 Dec 2013 07:33:37.761,6 Dec 2013 07:47:17.977,820.216
30,6 Dec 2013 09:16:13.046,6 Dec 2013 09:31:37.765,924.719
31,6 Dec 2013 20:20:35.194,6 Dec 2013 20:27:48.500,433.306
32,6 Dec 2013 21:57:18.738,6 Dec 2013 22:07:14.886,596.148
33,6 Dec 2013 23:33:26.651,6 Dec 2013 23:45:56.464,749.813
34,7 Dec 2013 01:09:35.915,7 Dec 2013 01:24:12.900,876.985
35,7 Dec 2013 02:51:19.954,7 Dec 2013 03:07:09.471,949.517
36,7 Dec 2013 04:38:52.331,7 Dec 2013 04:53:27.490,875.159
37,7 Dec 2013 06:23:43.674,7 Dec 2013 06:39:59.734,976.059
38,7 Dec 2013 08:10:06.690,7 Dec 2013 08:18:20.810,494.121
39,8 Dec 2013 00:00:06.236,8 Dec 2013 00:15:58.911,952.675
40,8 Dec 2013 01:45:19.604,8 Dec 2013 02:00:47.426,927.822
41,8 Dec 2013 03:31:59.450,8 Dec 2013 03:47:42.553,943.104
42,8 Dec 2013 05:17:00.280,8 Dec 2013 05:32:23.847,923.567
43,8 Dec 2013 21:11:01.784,8 Dec 2013 21:23:49.702,767.918
44,8 Dec 2013 22:52:09.471,8 Dec 2013 23:07:58.077,948.606
45,9 Dec 2013 00:40:12.748,9 Dec 2013 00:52:49.694,756.946

"Access","Start Time (UTCG)","Stop Time (UTCG)","Duration (sec)"
1,3 Dec 2013 02:17:51.129,3 Dec 2013 02:33:50.940,959.811
2,3 Dec 2013 04:03:26.810,3 Dec 2013 04:18:52.402,925.593
3,3 Dec 2013 05:50:02.320,3 Dec 2013 06:05:48.107,945.787
4,3 Dec 2013 07:34:49.476,3 Dec 2013 07:50:01.347,911.871
5,3 Dec 2013 23:30:02.559,3 Dec 2013 23:41:42.328,699.769
6,4 Dec 2013 01:10:40.835,4 Dec 2013 01:26:52.508,971.673
7,4 Dec 2013 02:57:45.001,4 Dec 2013 03:12:11.256,866.255
8,4 Dec 2013 04:43:34.629,4 Dec 2013 04:59:42.986,968.357
9,4 Dec 2013 06:27:09.610,4 Dec 2013 06:40:47.677,818.067
10,4 Dec 2013 08:06:05.040,4 Dec 2013 08:15:46.529,581.489
11,4 Dec 2013 09:46:58.557,4 Dec 2013 09:49:02.131,123.574
12,4 Dec 2013 22:18:18.937,4 Dec 2013 22:34:14.096,955.159
13,5 Dec 2013 00:04:15.054,5 Dec 2013 00:16:41.746,746.692
14,5 Dec 2013 01:51:07.295,5 Dec 2013 02:01:14.338,607.043
15,5 Dec 2013 03:28:18.115,5 Dec 2013 03:42:04.330,826.215
16,5 Dec 2013 05:06:08.535,5 Dec 2013 05:21:01.937,893.402
17,5 Dec 2013 06:44:24.065,5 Dec 2013 06:59:37.700,913.635
18,5 Dec 2013 08:23:20.744,5 Dec 2013 08:38:43.371,922.627
19,5 Dec 2013 10:03:14.237,5 Dec 2013 10:18:45.477,931.240
20,5 Dec 2013 11:44:22.844,5 Dec 2013 11:59:02.699,879.855
21,5 Dec 2013 19:26:09.508,5 Dec 2013 19:40:13.894,844.386
22,5 Dec 2013 21:06:53.196,5 Dec 2013 21:21:42.041,888.845
23,5 Dec 2013 22:47:25.904,5 Dec 2013 23:02:13.675,887.772
24,6 Dec 2013 00:26:53.839,6 Dec 2013 00:41:44.269,890.430
25,6 Dec 2013 02:05:42.944,6 Dec 2013 02:20:22.238,879.293
26,6 Dec 2013 03:44:37.037,6 Dec 2013 03:58:30.084,833.047
27,6 Dec 2013 05:24:45.276,6 Dec 2013 05:36:17.374,692.098
28,6 Dec 2013 07:07:56.539,6 Dec 2013 07:19:49.014,712.475
29,6 Dec 2013 08:50:25.954,6 Dec 2013 09:06:27.288,961.334
30,6 Dec 2013 19:56:22.021,6 Dec 2013 20:02:41.977,379.956
31,6 Dec 2013 21:33:11.320,6 Dec 2013 21:42:29.234,557.914
32,6 Dec 2013 23:09:26.790,6 Dec 2013 23:21:18.558,711.767
33,7 Dec 2013 00:45:30.100,7 Dec 2013 00:59:41.292,851.193
34,7 Dec 2013 02:24:42.971,7 Dec 2013 02:40:58.098,975.127
35,7 Dec 2013 04:12:07.901,7 Dec 2013 04:26:35.055,867.154
36,7 Dec 2013 05:57:42.159,7 Dec 2013 06:13:48.199,966.040
37,7 Dec 2013 07:42:33.690,7 Dec 2013 07:55:17.418,763.728
38,7 Dec 2013 23:34:54.195,7 Dec 2013 23:49:37.760,883.564
39,8 Dec 2013 01:18:34.016,8 Dec 2013 01:34:28.161,954.145
40,8 Dec 2013 03:05:34.073,8 Dec 2013 03:20:52.017,917.943
41,8 Dec 2013 04:50:39.681,8 Dec 2013 05:06:50.175,970.494
42,8 Dec 2013 20:48:07.678,8 Dec 2013 20:56:29.809,502.131
43,8 Dec 2013 22:25:58.739,8 Dec 2013 22:42:08.196,969.457
44,9 Dec 2013 00:13:01.955,9 Dec 2013 00:26:10.105,788.151
45,9 Dec 2013 02:00:00.577,9 Dec 2013 02:14:27.397,866.820

"Access","Start Time (UTCG)","Stop Time (UTCG)","Duration (sec)"
1,3 Dec 2013 01:52:28.287,3 Dec 2013 02:07:25.708,897.420
2,3 Dec 2013 03:36:38.400,3 Dec 2013 03:52:30.422,952.022
3,3 Dec 2013 05:23:39.508,3 Dec 2013 05:38:59.877,920.369
4,3 Dec 2013 07:08:32.804,3 Dec 2013 07:24:37.715,964.910
5,3 Dec 2013 23:07:56.426,3 Dec 2013 23:13:19.626,323.199
6,4 Dec 2013 00:44:37.752,4 Dec 2013 01:00:51.236,973.484
7,4 Dec 2013 02:30:50.107,4 Dec 2013 02:45:31.666,881.559
8,4 Dec 2013 04:17:22.084,4 Dec 2013 04:33:00.038,937.954
9,4 Dec 2013 06:02:29.052,4 Dec 2013 06:16:50.610,861.558
10,4 Dec 2013 07:41:15.791,4 Dec 2013 07:52:08.167,652.376
11,4 Dec 2013 09:21:12.129,4 Dec 2013 09:26:11.463,299.334
12,4 Dec 2013 21:53:21.460,4 Dec 2013 22:08:22.918,901.457
13,4 Dec 2013 23:36:54.904,4 Dec 2013 23:51:03.649,848.745
14,5 Dec 2013 01:27:09.533,5 Dec 2013 01:35:21.193,491.660
15,5 Dec 2013 03:03:54.678,5 Dec 2013 03:17:07.421,792.743
16,5 Dec 2013 04:41:38.844,5 Dec 2013 04:56:22.232,883.388
17,5 Dec 2013 06:19:47.144,5 Dec 2013 06:34:57.512,910.368
18,5 Dec 2013 07:58:31.621,5 Dec 2013 08:13:52.311,920.690
19,5 Dec 2013 09:38:10.322,5 Dec 2013 09:53:39.064,928.742
20,5 Dec 2013 11:18:48.451,5 Dec 2013 11:34:29.487,941.036
21,5 Dec 2013 19:02:54.634,5 Dec 2013 19:13:53.965,659.331
22,5 Dec 2013 20:41:18.743,5 Dec 2013 20:56:26.310,907.567
23,5 Dec 2013 22:22:24.435,5 Dec 2013 22:37:11.190,886.755
24,6 Dec 2013 00:02:06.779,6 Dec 2013 00:16:57.318,890.539
25,6 Dec 2013 01:41:02.272,6 Dec 2013 01:55:46.430,884.158
26,6 Dec 2013 03:19:49.813,6 Dec 2013 03:33:59.948,850.135
27,6 Dec 2013 04:59:31.024,6 Dec 2013 05:11:53.313,742.289
28,6 Dec 2013 06:42:00.440,6 Dec 2013 06:51:59.470,599.030
29,6 Dec 2013 08:24:47.629,6 Dec 2013 08:40:39.303,951.674
30,6 Dec 2013 10:08:59.292,6 Dec 2013 10:19:26.918,627.626
31,6 Dec 2013 19:32:13.081,6 Dec 2013 19:37:23.761,310.680
32,6 Dec 2013 21:09:01.232,6 Dec 2013 21:17:40.347,519.115
33,6 Dec 2013 22:45:26.006,6 Dec 2013 22:56:39.145,673.139
34,7 Dec 2013 00:21:27.301,7 Dec 2013 00:35:07.900,820.599
35,7 Dec 2013 01:58:27.223,7 Dec 2013 02:14:46.468,979.245
36,7 Dec 2013 03:45:11.703,7 Dec 2013 03:59:54.045,882.341
37,7 Dec 2013 05:31:36.501,7 Dec 2013 05:47:13.937,937.435
38,7 Dec 2013 07:15:59.354,7 Dec 2013 07:30:52.915,893.562
39,7 Dec 2013 23:10:27.497,7 Dec 2013 23:22:51.554,744.057
40,8 Dec 2013 00:52:02.197,8 Dec 2013 01:08:17.115,974.919
41,8 Dec 2013 02:38:57.161,8 Dec 2013 02:54:01.288,904.127
42,8 Dec 2013 04:24:27.170,8 Dec 2013 04:40:48.363,981.193
43,8 Dec 2013 06:11:03.608,8 Dec 2013 06:21:19.132,615.523
44,8 Dec 2013 22:00:19.746,8 Dec 2013 22:16:15.595,955.849
45,8 Dec 2013 23:45:49.001,8 Dec 2013 23:59:52.594,843.593
46,9 Dec 2013 01:33:42.840,9 Dec 2013 01:47:09.618,806.777

"Access","Start Time (UTCG)","Stop Time (UTCG)","Duration (sec)"
1,3 Dec 2013 01:27:46.776,3 Dec 2013 01:40:35.872,769.096
2,3 Dec 2013 03:10:01.911,3 Dec 2013 03:26:16.317,974.406
3,3 Dec 2013 04:57:04.516,3 Dec 2013 05:12:09.566,905.049
4,3 Dec 2013 06:42:23.885,3 Dec 2013 06:58:43.720,979.835
5,3 Dec 2013 08:28:48.389,3 Dec 2013 08:38:22.243,573.854
6,4 Dec 2013 00:19:04.369,4 Dec 2013 00:34:46.123,941.754
7,4 Dec 2013 02:03:54.466,4 Dec 2013 02:19:07.537,913.072
8,4 Dec 2013 03:51:02.164,4 Dec 2013 04:06:04.130,901.965
9,4 Dec 2013 05:36:00.907,4 Dec 2013 05:52:05.488,964.581
10,4 Dec 2013 07:16:30.412,4 Dec 2013 07:28:25.859,715.447
11,4 Dec 2013 08:55:59.866,4 Dec 2013 09:02:50.509,410.643
12,4 Dec 2013 21:29:11.898,4 Dec 2013 21:42:10.236,778.338
13,4 Dec 2013 23:10:07.637,4 Dec 2013 23:25:29.441,921.804
14,5 Dec 2013 00:59:52.693,5 Dec 2013 01:08:45.002,532.309
15,5 Dec 2013 02:39:33.967,5 Dec 2013 02:52:02.041,748.073
16,5 Dec 2013 04:17:10.498,5 Dec 2013 04:31:40.237,869.739
17,5 Dec 2013 05:55:12.455,5 Dec 2013 06:10:18.665,906.210
18,5 Dec 2013 07:33:45.980,5 Dec 2013 07:49:04.605,918.625
19,5 Dec 2013 09:13:10.053,5 Dec 2013 09:28:36.598,926.545
20,5 Dec 2013 10:53:32.316,5 Dec 2013 11:09:11.716,939.400
21,5 Dec 2013 12:37:50.204,5 Dec 2013 12:44:35.400,405.196
22,5 Dec 2013 18:42:53.592,5 Dec 2013 18:44:47.039,113.447
23,5 Dec 2013 20:15:30.867,5 Dec 2013 20:31:16.504,945.637
24,5 Dec 2013 21:57:18.577,5 Dec 2013 22:12:04.887,886.310
25,5 Dec 2013 23:37:16.721,5 Dec 2013 23:52:06.701,889.980
26,6 Dec 2013 01:16:20.985,6 Dec 2013 01:31:08.440,887.455
27,6 Dec 2013 02:55:05.771,6 Dec 2013 03:09:28.710,862.939
28,6 Dec 2013 04:34:26.142,6 Dec 2013 04:47:27.006,780.864
29,6 Dec 2013 06:15:53.572,6 Dec 2013 06:24:52.246,538.675
30,6 Dec 2013 07:59:13.003,6 Dec 2013 08:14:15.849,902.846
31,6 Dec 2013 09:42:17.305,6 Dec 2013 09:56:04.312,827.007
32,6 Dec 2013 19:08:18.809,6 Dec 2013 19:11:43.355,204.547
33,6 Dec 2013 20:44:48.875,6 Dec 2013 20:52:47.237,478.362
34,6 Dec 2013 22:21:23.524,6 Dec 2013 22:31:58.027,634.503
35,6 Dec 2013 23:57:26.490,7 Dec 2013 00:10:32.917,786.428
36,7 Dec 2013 01:33:45.794,7 Dec 2013 01:48:42.433,896.640
37,7 Dec 2013 03:18:12.334,7 Dec 2013 03:33:26.433,914.099
38,7 Dec 2013 05:05:21.364,7 Dec 2013 05:20:23.887,902.524
39,7 Dec 2013 06:49:46.927,7 Dec 2013 07:05:43.269,956.343
40,7 Dec 2013 22:47:29.693,7 Dec 2013 22:54:55.315,445.622
41,8 Dec 2013 00:25:51.066,8 Dec 2013 00:42:09.359,978.293
42,8 Dec 2013 02:12:10.285,8 Dec 2013 02:27:18.354,908.068
43,8 Dec 2013 03:58:15.646,8 Dec 2013 04:14:23.871,968.226
44,8 Dec 2013 05:43:39.951,8 Dec 2013 05:57:20.880,820.928
45,8 Dec 2013 21:35:17.285,8 Dec 2013 21:50:13.396,896.111
46,8 Dec 2013 23:18:48.147,8 Dec 2013 23:33:50.875,902.728
47,9 Dec 2013 01:07:08.093,9 Dec 2013 01:19:52.318,764.225

