Raw and processed data/Altitude Variations/us_greatcircle_12sat_650km/Aircraft-B747LAX_Sydney-Transmitter-adsb_out6212-To-Satellite-650km_p1_1-Receiver-adsb_satrcvr2 Access.csv

"Access","Start Time (UTCG)","Stop Time (UTCG)","Duration (sec)"
1,3 Dec 2013 05:41:00.082,3 Dec 2013 05:56:48.650,948.569
2,3 Dec 2013 07:27:39.491,3 Dec 2013 07:39:29.754,710.263
3,3 Dec 2013 12:53:57.312,3 Dec 2013 13:07:53.357,836.045
4,3 Dec 2013 14:34:49.877,3 Dec 2013 14:49:26.245,876.368
5,3 Dec 2013 16:16:46.284,3 Dec 2013 16:29:29.826,763.542
6,3 Dec 2013 18:01:15.439,3 Dec 2013 18:08:15.383,419.944
7,4 Dec 2013 04:19:49.730,4 Dec 2013 04:30:08.521,618.791
8,4 Dec 2013 06:03:22.224,4 Dec 2013 06:19:32.955,970.731
9,4 Dec 2013 07:50:59.892,4 Dec 2013 08:00:30.586,570.693
10,4 Dec 2013 13:24:29.894,4 Dec 2013 13:32:41.764,491.870
11,4 Dec 2013 15:02:01.299,4 Dec 2013 15:16:55.436,894.137
12,5 Dec 2013 04:48:11.988,5 Dec 2013 05:00:50.734,758.746
13,5 Dec 2013 06:26:00.066,5 Dec 2013 06:42:17.140,977.074
14,5 Dec 2013 08:13:38.934,5 Dec 2013 08:22:14.686,515.752
15,5 Dec 2013 15:30:01.432,5 Dec 2013 15:45:33.523,932.091
16,6 Dec 2013 03:43:52.173,6 Dec 2013 03:54:31.626,639.453
17,6 Dec 2013 05:19:26.111,6 Dec 2013 05:34:28.747,902.636
18,6 Dec 2013 06:57:22.657,6 Dec 2013 07:11:19.752,837.096
19,6 Dec 2013 08:37:08.461,6 Dec 2013 08:45:36.297,507.836
20,6 Dec 2013 15:58:55.461,6 Dec 2013 16:14:00.694,905.233
21,7 Dec 2013 02:39:36.334,7 Dec 2013 02:48:36.498,540.164
22,7 Dec 2013 04:13:58.961,7 Dec 2013 04:28:50.078,891.117
23,7 Dec 2013 05:51:56.295,7 Dec 2013 06:05:39.636,823.342
24,7 Dec 2013 16:28:27.907,7 Dec 2013 16:42:08.817,820.910
25,7 Dec 2013 18:09:45.178,7 Dec 2013 18:19:52.993,607.816
26,8 Dec 2013 01:33:09.103,8 Dec 2013 01:44:12.732,663.629
27,8 Dec 2013 03:08:24.991,8 Dec 2013 03:23:14.336,889.345
28,8 Dec 2013 04:46:13.627,8 Dec 2013 05:00:29.571,855.944
29,8 Dec 2013 06:29:14.475,8 Dec 2013 06:33:10.083,235.608
30,8 Dec 2013 16:58:39.742,8 Dec 2013 17:09:32.844,653.102
31,8 Dec 2013 18:36:50.222,8 Dec 2013 18:50:27.853,817.631
32,9 Dec 2013 01:57:48.736,9 Dec 2013 02:12:27.354,878.618
33,9 Dec 2013 03:40:28.079,9 Dec 2013 03:55:03.414,875.335
34,9 Dec 2013 05:21:06.756,9 Dec 2013 05:31:10.472,603.716
35,9 Dec 2013 17:31:01.425,9 Dec 2013 17:34:19.120,197.695
36,9 Dec 2013 19:04:19.579,9 Dec 2013 19:19:41.726,922.147
37,10 Dec 2013 02:20:13.208,10 Dec 2013 02:35:06.107,892.899
38,10 Dec 2013 04:05:06.573,10 Dec 2013 04:19:49.750,883.177
39,10 Dec 2013 05:56:12.145,10 Dec 2013 05:58:06.556,114.411

"Access","Start Time (UTCG)","Stop Time (UTCG)","Duration (sec)"
1,3 Dec 2013 01:43:21.859,3 Dec 2013 01:46:07.437,165.578
2,3 Dec 2013 05:15:21.530,3 Dec 2013 05:29:52.790,871.259
3,3 Dec 2013 07:00:04.687,3 Dec 2013 07:14:36.566,871.880
4,3 Dec 2013 12:29:48.061,3 Dec 2013 12:40:29.645,641.584
5,3 Dec 2013 14:09:21.625,3 Dec 2013 14:24:23.832,902.207
6,3 Dec 2013 15:51:07.853,3 Dec 2013 16:04:31.562,803.709
7,3 Dec 2013 17:34:41.423,3 Dec 2013 17:43:52.760,551.337
8,4 Dec 2013 03:53:32.118,4 Dec 2013 04:02:04.763,512.645
9,4 Dec 2013 05:37:25.481,4 Dec 2013 05:52:54.415,928.934
10,4 Dec 2013 07:22:57.543,4 Dec 2013 07:36:26.164,808.621
11,4 Dec 2013 14:36:41.684,4 Dec 2013 14:52:19.335,937.651
12,5 Dec 2013 04:24:17.132,5 Dec 2013 04:35:28.978,671.846
13,5 Dec 2013 06:00:48.230,5 Dec 2013 06:15:47.624,899.394
14,5 Dec 2013 07:45:34.470,5 Dec 2013 07:58:39.199,784.729
15,5 Dec 2013 15:05:20.319,5 Dec 2013 15:20:18.352,898.034
16,5 Dec 2013 16:49:16.663,5 Dec 2013 16:54:52.926,336.263
17,6 Dec 2013 03:21:01.324,6 Dec 2013 03:28:24.243,442.919
18,6 Dec 2013 04:55:13.982,6 Dec 2013 05:09:51.833,877.851
19,6 Dec 2013 06:32:44.577,6 Dec 2013 06:47:20.379,875.802
20,6 Dec 2013 08:11:56.827,6 Dec 2013 08:22:20.996,624.170
21,6 Dec 2013 15:35:00.781,6 Dec 2013 15:48:06.418,785.638
22,6 Dec 2013 17:15:20.830,6 Dec 2013 17:26:36.919,676.089
23,7 Dec 2013 02:17:43.987,7 Dec 2013 02:21:56.165,252.178
24,7 Dec 2013 03:49:57.181,7 Dec 2013 04:04:10.300,853.119
25,7 Dec 2013 05:27:10.564,7 Dec 2013 05:41:44.716,874.152
26,7 Dec 2013 07:08:09.146,7 Dec 2013 07:15:15.953,426.807
27,7 Dec 2013 16:05:42.675,7 Dec 2013 16:15:19.777,577.103
28,7 Dec 2013 17:42:56.429,7 Dec 2013 17:56:50.981,834.552
29,8 Dec 2013 01:09:48.989,8 Dec 2013 01:19:05.380,556.391
30,8 Dec 2013 02:44:21.669,8 Dec 2013 02:58:38.858,857.189
31,8 Dec 2013 04:21:30.631,8 Dec 2013 04:36:22.552,891.921
32,8 Dec 2013 06:02:09.928,8 Dec 2013 06:11:16.636,546.708
33,8 Dec 2013 18:10:58.495,8 Dec 2013 18:26:15.475,916.980
34,9 Dec 2013 01:33:17.476,9 Dec 2013 01:45:16.033,718.557
35,9 Dec 2013 03:15:19.176,9 Dec 2013 03:30:44.094,924.918
36,9 Dec 2013 04:55:32.130,9 Dec 2013 05:07:26.093,713.962
37,9 Dec 2013 18:39:10.376,9 Dec 2013 18:54:43.049,932.673
38,10 Dec 2013 01:55:25.515,10 Dec 2013 02:07:51.046,745.531
39,10 Dec 2013 03:38:08.964,10 Dec 2013 03:53:57.214,948.250
40,10 Dec 2013 05:28:27.941,10 Dec 2013 05:37:44.673,556.731

"Access","Start Time (UTCG)","Stop Time (UTCG)","Duration (sec)"
1,3 Dec 2013 01:13:08.181,3 Dec 2013 01:22:48.937,580.755
2,3 Dec 2013 04:50:02.088,3 Dec 2013 05:02:15.530,733.441
3,3 Dec 2013 06:33:16.055,3 Dec 2013 06:49:08.146,952.091
4,3 Dec 2013 13:43:50.785,3 Dec 2013 13:59:34.322,943.537
5,3 Dec 2013 15:25:36.242,3 Dec 2013 15:39:30.895,834.653
6,3 Dec 2013 17:08:30.072,3 Dec 2013 17:19:13.124,643.052
7,4 Dec 2013 03:27:48.699,4 Dec 2013 03:34:35.814,407.115
8,4 Dec 2013 05:11:35.204,4 Dec 2013 05:25:46.111,850.907
9,4 Dec 2013 06:55:58.387,4 Dec 2013 07:11:22.091,923.704
10,4 Dec 2013 14:11:51.093,4 Dec 2013 14:26:55.759,904.666
11,4 Dec 2013 15:55:18.507,4 Dec 2013 16:02:33.605,435.097
12,5 Dec 2013 04:00:41.251,5 Dec 2013 04:09:42.350,541.099
13,5 Dec 2013 05:36:30.427,5 Dec 2013 05:50:50.740,860.313
14,5 Dec 2013 07:18:38.327,5 Dec 2013 07:33:49.393,911.066
15,5 Dec 2013 14:41:22.475,5 Dec 2013 14:54:07.422,764.946
16,5 Dec 2013 16:21:20.314,5 Dec 2013 16:33:31.430,731.116
17,6 Dec 2013 04:31:11.446,6 Dec 2013 04:45:02.715,831.269
18,6 Dec 2013 06:08:12.265,6 Dec 2013 06:23:12.257,899.992
19,6 Dec 2013 07:46:57.542,6 Dec 2013 07:58:51.124,713.583
20,6 Dec 2013 15:12:36.973,6 Dec 2013 15:20:37.519,480.546
21,6 Dec 2013 16:49:00.335,6 Dec 2013 17:03:21.760,861.425
22,7 Dec 2013 03:26:09.048,7 Dec 2013 03:39:18.129,789.082
23,7 Dec 2013 05:02:36.173,7 Dec 2013 05:17:37.344,901.171
24,7 Dec 2013 06:42:14.367,7 Dec 2013 06:52:37.123,622.757
25,7 Dec 2013 17:17:19.565,7 Dec 2013 17:32:40.476,920.911
26,8 Dec 2013 00:46:50.128,8 Dec 2013 00:53:39.014,408.886
27,8 Dec 2013 02:20:27.453,8 Dec 2013 02:33:57.275,809.822
28,8 Dec 2013 03:56:58.969,8 Dec 2013 04:12:06.788,907.819
29,8 Dec 2013 05:36:25.447,8 Dec 2013 05:48:04.694,699.248
30,8 Dec 2013 17:45:57.777,8 Dec 2013 18:01:23.902,926.125
31,9 Dec 2013 01:10:39.115,9 Dec 2013 01:16:16.332,337.217
32,9 Dec 2013 02:48:58.732,9 Dec 2013 03:05:16.975,978.243
33,9 Dec 2013 04:30:17.980,9 Dec 2013 04:43:26.729,788.748
34,9 Dec 2013 18:14:49.273,9 Dec 2013 18:29:14.220,864.947
35,9 Dec 2013 19:57:37.325,9 Dec 2013 20:07:42.234,604.910
36,10 Dec 2013 01:32:03.893,10 Dec 2013 01:39:03.880,419.987
37,10 Dec 2013 03:11:40.688,10 Dec 2013 03:27:56.767,976.080
38,10 Dec 2013 05:00:25.288,10 Dec 2013 05:11:34.096,668.808

"Access","Start Time (UTCG)","Stop Time (UTCG)","Duration (sec)"
1,3 Dec 2013 04:25:12.678,3 Dec 2013 04:33:37.034,504.356
2,3 Dec 2013 06:06:57.097,3 Dec 2013 06:23:12.257,975.159
3,3 Dec 2013 07:56:57.922,3 Dec 2013 08:03:00.733,362.811
4,3 Dec 2013 13:18:42.623,3 Dec 2013 13:34:08.585,925.962
5,3 Dec 2013 15:00:10.481,3 Dec 2013 15:14:28.837,858.357
6,3 Dec 2013 16:42:32.964,3 Dec 2013 16:54:24.338,711.375
7,3 Dec 2013 18:28:50.081,3 Dec 2013 18:31:43.735,173.653
8,4 Dec 2013 03:04:39.861,4 Dec 2013 03:07:40.321,180.460
9,4 Dec 2013 04:45:45.929,4 Dec 2013 04:58:08.687,742.758
10,4 Dec 2013 06:29:30.790,4 Dec 2013 06:45:42.434,971.644
11,4 Dec 2013 13:47:34.958,4 Dec 2013 14:00:36.999,782.041
12,4 Dec 2013 15:27:58.152,4 Dec 2013 15:40:36.153,758.001
13,5 Dec 2013 03:37:53.520,5 Dec 2013 03:43:00.849,307.329
14,5 Dec 2013 05:12:17.665,5 Dec 2013 05:25:56.520,818.854
15,5 Dec 2013 06:52:11.549,5 Dec 2013 07:08:18.984,967.435
16,5 Dec 2013 14:19:00.489,5 Dec 2013 14:26:05.968,425.480
17,5 Dec 2013 15:55:18.159,5 Dec 2013 16:10:01.339,883.180
18,6 Dec 2013 04:07:21.894,6 Dec 2013 04:19:58.190,756.296
19,6 Dec 2013 05:43:45.908,6 Dec 2013 05:58:55.227,909.319
20,6 Dec 2013 07:22:06.720,6 Dec 2013 07:35:10.218,783.498
21,6 Dec 2013 16:23:37.109,6 Dec 2013 16:39:04.143,927.034
22,7 Dec 2013 03:02:38.799,7 Dec 2013 03:14:09.940,691.141
23,7 Dec 2013 04:38:12.283,7 Dec 2013 04:53:18.964,906.681
24,7 Dec 2013 06:16:55.712,7 Dec 2013 06:29:19.170,743.458
25,7 Dec 2013 16:52:29.767,7 Dec 2013 17:07:46.534,916.767
26,8 Dec 2013 01:56:42.856,8 Dec 2013 02:09:09.018,746.162
27,8 Dec 2013 03:32:37.324,8 Dec 2013 03:47:43.770,906.447
28,8 Dec 2013 05:11:10.353,8 Dec 2013 05:24:25.244,794.891
29,8 Dec 2013 17:21:45.351,8 Dec 2013 17:35:55.540,850.189
30,8 Dec 2013 19:04:04.067,8 Dec 2013 19:13:31.555,567.488
31,9 Dec 2013 02:23:06.958,9 Dec 2013 02:39:01.555,954.597
32,9 Dec 2013 04:05:17.821,9 Dec 2013 04:19:18.197,840.376
33,9 Dec 2013 05:47:18.502,9 Dec 2013 05:54:23.984,425.482
34,9 Dec 2013 17:51:30.421,9 Dec 2013 18:03:01.344,690.922
35,9 Dec 2013 19:30:19.972,9 Dec 2013 19:44:08.773,828.801
36,10 Dec 2013 02:45:41.415,10 Dec 2013 03:01:42.566,961.150
37,10 Dec 2013 04:32:33.405,10 Dec 2013 04:45:39.732,786.328

"Access","Start Time (UTCG)","Stop Time (UTCG)","Duration (sec)"
1,3 Dec 2013 03:25:05.957,3 Dec 2013 03:38:32.228,806.271
2,3 Dec 2013 05:06:05.189,3 Dec 2013 05:17:36.582,691.393
3,3 Dec 2013 12:23:36.820,3 Dec 2013 12:39:34.906,958.087
4,3 Dec 2013 14:10:02.201,3 Dec 2013 14:23:32.438,810.236
5,3 Dec 2013 15:54:32.713,3 Dec 2013 15:57:52.157,199.443
6,4 Dec 2013 03:55:11.232,4 Dec 2013 04:04:55.520,584.287
7,4 Dec 2013 05:32:36.678,4 Dec 2013 05:47:22.206,885.528
8,4 Dec 2013 12:46:05.827,4 Dec 2013 13:02:14.129,968.302
9,4 Dec 2013 14:33:40.069,4 Dec 2013 14:45:37.288,717.219
10,4 Dec 2013 16:27:05.174,4 Dec 2013 16:30:06.282,181.108
11,4 Dec 2013 23:17:33.046,4 Dec 2013 23:23:26.679,353.633
12,5 Dec 2013 00:56:43.342,5 Dec 2013 01:09:13.241,749.898
13,5 Dec 2013 02:37:21.819,5 Dec 2013 02:52:22.633,900.814
14,5 Dec 2013 04:18:30.936,5 Dec 2013 04:34:13.682,942.747
15,5 Dec 2013 05:59:35.573,5 Dec 2013 06:15:14.944,939.371
16,5 Dec 2013 11:28:13.464,5 Dec 2013 11:34:43.492,390.028
17,5 Dec 2013 13:08:32.735,5 Dec 2013 13:24:47.715,974.980
18,5 Dec 2013 14:58:21.053,5 Dec 2013 15:05:47.668,446.615
19,5 Dec 2013 18:36:47.789,5 Dec 2013 18:46:07.401,559.612
20,5 Dec 2013 20:16:24.982,5 Dec 2013 20:31:11.593,886.611
21,5 Dec 2013 21:57:35.005,5 Dec 2013 22:13:02.018,927.013
22,5 Dec 2013 23:39:12.571,5 Dec 2013 23:55:01.148,948.577
23,6 Dec 2013 01:21:35.797,6 Dec 2013 01:36:35.517,899.720
24,6 Dec 2013 03:05:07.774,6 Dec 2013 03:17:35.599,747.824
25,6 Dec 2013 04:49:44.043,6 Dec 2013 04:58:15.845,511.801
26,6 Dec 2013 06:33:40.266,6 Dec 2013 06:39:38.107,357.841
27,6 Dec 2013 08:14:36.835,6 Dec 2013 08:22:30.892,474.058
28,6 Dec 2013 11:48:03.679,6 Dec 2013 11:59:33.354,689.675
29,6 Dec 2013 13:31:06.323,6 Dec 2013 13:47:13.318,966.995
30,6 Dec 2013 20:43:47.509,6 Dec 2013 20:59:16.216,928.707
31,6 Dec 2013 22:26:30.863,6 Dec 2013 22:37:40.106,669.243
32,7 Dec 2013 00:11:25.269,7 Dec 2013 00:14:47.375,202.106
33,7 Dec 2013 10:31:08.020,7 Dec 2013 10:35:02.245,234.225
34,7 Dec 2013 12:09:31.294,7 Dec 2013 12:23:16.501,825.208
35,7 Dec 2013 13:53:45.319,7 Dec 2013 14:09:37.262,951.943
36,7 Dec 2013 21:12:42.494,7 Dec 2013 21:26:08.512,806.019
37,7 Dec 2013 22:53:24.427,7 Dec 2013 23:05:16.589,712.162
38,8 Dec 2013 11:02:21.973,8 Dec 2013 11:11:43.301,561.328
39,8 Dec 2013 12:37:59.388,8 Dec 2013 12:52:36.643,877.255
40,8 Dec 2013 14:16:27.064,8 Dec 2013 14:32:15.881,948.816
41,8 Dec 2013 21:43:37.118,8 Dec 2013 21:52:24.009,526.891
42,8 Dec 2013 23:20:43.153,8 Dec 2013 23:35:00.762,857.609
43,9 Dec 2013 10:00:43.787,9 Dec 2013 10:03:24.870,161.083
44,9 Dec 2013 11:32:37.853,9 Dec 2013 11:46:51.395,853.541
45,9 Dec 2013 13:09:51.411,9 Dec 2013 13:24:35.224,883.813
46,9 Dec 2013 14:49:20.317,9 Dec 2013 14:59:19.494,599.177
47,9 Dec 2013 23:48:57.526,10 Dec 2013 00:04:16.568,919.042

"Access","Start Time (UTCG)","Stop Time (UTCG)","Duration (sec)"
1,3 Dec 2013 03:02:31.891,3 Dec 2013 03:11:43.669,551.778
2,3 Dec 2013 04:39:24.766,3 Dec 2013 04:53:52.579,867.814
3,3 Dec 2013 11:58:13.843,3 Dec 2013 12:12:59.763,885.920
4,3 Dec 2013 13:42:47.544,3 Dec 2013 13:57:54.343,906.798
5,3 Dec 2013 15:27:25.018,3 Dec 2013 15:35:16.500,471.482
6,4 Dec 2013 05:06:55.387,4 Dec 2013 05:22:34.265,938.878
7,4 Dec 2013 12:20:28.587,4 Dec 2013 12:35:41.698,913.111
8,4 Dec 2013 14:05:56.213,4 Dec 2013 14:20:01.979,845.765
9,4 Dec 2013 16:00:18.777,4 Dec 2013 16:02:01.343,102.566
10,4 Dec 2013 22:54:26.056,4 Dec 2013 22:55:05.427,39.371
11,5 Dec 2013 00:31:42.980,5 Dec 2013 00:43:07.085,684.105
12,5 Dec 2013 02:12:08.004,5 Dec 2013 02:26:44.366,876.362
13,5 Dec 2013 03:53:12.659,5 Dec 2013 04:08:51.274,938.615
14,5 Dec 2013 05:34:21.778,5 Dec 2013 05:50:03.211,941.433
15,5 Dec 2013 07:19:12.255,5 Dec 2013 07:29:34.080,621.825
16,5 Dec 2013 12:42:37.244,5 Dec 2013 12:58:26.704,949.460
17,5 Dec 2013 14:29:25.715,5 Dec 2013 14:41:27.418,721.703
18,5 Dec 2013 19:51:11.483,5 Dec 2013 20:05:50.263,878.780
19,5 Dec 2013 21:32:15.255,5 Dec 2013 21:47:31.902,916.648
20,5 Dec 2013 23:13:44.846,5 Dec 2013 23:29:32.751,947.905
21,6 Dec 2013 00:55:54.329,6 Dec 2013 01:11:15.180,920.852
22,6 Dec 2013 02:39:07.600,6 Dec 2013 02:52:23.444,795.844
23,6 Dec 2013 04:23:32.037,6 Dec 2013 04:33:05.621,573.584
24,6 Dec 2013 06:07:56.162,6 Dec 2013 06:14:07.275,371.114
25,6 Dec 2013 07:49:36.266,6 Dec 2013 07:56:46.806,430.540
26,6 Dec 2013 11:23:02.992,6 Dec 2013 11:30:47.073,464.082
27,6 Dec 2013 13:04:56.019,6 Dec 2013 13:21:07.537,971.517
28,6 Dec 2013 14:53:19.206,6 Dec 2013 15:02:00.719,521.512
29,6 Dec 2013 20:19:05.436,6 Dec 2013 20:33:09.725,844.289
30,6 Dec 2013 22:00:36.154,6 Dec 2013 22:12:54.594,738.439
31,6 Dec 2013 23:44:20.545,6 Dec 2013 23:51:13.101,412.556
32,7 Dec 2013 11:43:29.594,7 Dec 2013 11:55:37.810,728.216
33,7 Dec 2013 13:27:27.660,7 Dec 2013 13:43:44.808,977.147
34,7 Dec 2013 15:17:23.840,7 Dec 2013 15:21:59.911,276.071
35,7 Dec 2013 20:49:29.701,7 Dec 2013 20:58:36.202,546.500
36,7 Dec 2013 22:27:17.179,7 Dec 2013 22:41:51.709,874.530
37,8 Dec 2013 10:39:41.294,8 Dec 2013 10:45:03.644,322.350
38,8 Dec 2013 12:13:48.004,8 Dec 2013 12:27:46.961,838.957
39,8 Dec 2013 13:51:03.135,8 Dec 2013 14:06:28.563,925.428
40,8 Dec 2013 15:39:44.773,8 Dec 2013 15:43:53.166,248.393
41,8 Dec 2013 22:55:17.922,8 Dec 2013 23:10:45.279,927.357
42,9 Dec 2013 11:08:45.492,9 Dec 2013 11:21:54.749,789.257
43,9 Dec 2013 12:45:20.656,9 Dec 2013 13:00:25.121,904.465
44,9 Dec 2013 14:24:11.684,9 Dec 2013 14:35:59.723,708.039
45,9 Dec 2013 23:24:06.261,9 Dec 2013 23:39:24.520,918.259

"Access","Start Time (UTCG)","Stop Time (UTCG)","Duration (sec)"
1,3 Dec 2013 04:13:49.089,3 Dec 2013 04:29:20.517,931.428
2,3 Dec 2013 11:33:35.082,3 Dec 2013 11:45:47.121,732.039
3,3 Dec 2013 13:15:56.499,3 Dec 2013 13:31:54.279,957.780
4,3 Dec 2013 15:01:28.064,3 Dec 2013 15:11:38.286,610.222
5,4 Dec 2013 04:42:01.699,4 Dec 2013 04:57:20.061,918.362
6,4 Dec 2013 06:27:55.241,4 Dec 2013 06:34:23.068,387.827
7,4 Dec 2013 11:55:26.345,4 Dec 2013 12:08:33.508,787.163
8,4 Dec 2013 13:38:48.209,4 Dec 2013 13:54:18.569,930.360
9,4 Dec 2013 15:31:00.548,4 Dec 2013 15:36:32.489,331.941
10,4 Dec 2013 17:18:52.921,4 Dec 2013 17:22:27.416,214.495
11,5 Dec 2013 00:06:48.499,5 Dec 2013 00:16:50.230,601.731
12,5 Dec 2013 01:46:56.610,5 Dec 2013 02:01:00.659,844.050
13,5 Dec 2013 03:27:54.679,5 Dec 2013 03:43:25.559,930.880
14,5 Dec 2013 05:09:06.058,5 Dec 2013 05:24:49.525,943.467
15,5 Dec 2013 06:51:35.157,5 Dec 2013 07:05:15.450,820.292
16,5 Dec 2013 12:17:06.575,5 Dec 2013 12:31:34.243,867.668
17,5 Dec 2013 14:01:47.890,5 Dec 2013 14:16:18.564,870.674
18,5 Dec 2013 19:26:01.477,5 Dec 2013 19:40:32.448,870.972
19,5 Dec 2013 21:06:56.998,5 Dec 2013 21:22:03.007,906.008
20,5 Dec 2013 22:48:19.561,5 Dec 2013 23:04:03.082,943.521
21,6 Dec 2013 00:30:16.908,6 Dec 2013 00:45:52.596,935.687
22,6 Dec 2013 02:13:12.215,6 Dec 2013 02:27:09.530,837.315
23,6 Dec 2013 03:57:20.907,6 Dec 2013 04:07:56.111,635.204
24,6 Dec 2013 05:41:59.727,6 Dec 2013 05:48:44.556,404.829
25,6 Dec 2013 07:24:28.411,6 Dec 2013 07:31:01.005,392.594
26,6 Dec 2013 09:07:04.971,6 Dec 2013 09:12:47.102,342.131
27,6 Dec 2013 12:39:03.806,6 Dec 2013 12:54:32.482,928.676
28,6 Dec 2013 14:24:53.902,6 Dec 2013 14:37:55.256,781.353
29,6 Dec 2013 19:55:02.178,6 Dec 2013 20:05:54.754,652.576
30,6 Dec 2013 21:34:26.677,6 Dec 2013 21:49:03.147,876.470
31,6 Dec 2013 23:18:05.867,6 Dec 2013 23:26:54.684,528.817
32,7 Dec 2013 11:18:02.263,7 Dec 2013 11:27:50.750,588.487
33,7 Dec 2013 13:01:23.695,7 Dec 2013 13:17:23.213,959.518
34,7 Dec 2013 14:47:50.458,7 Dec 2013 14:59:30.718,700.260
35,7 Dec 2013 22:01:53.098,7 Dec 2013 22:17:26.862,933.764
36,8 Dec 2013 11:49:44.590,8 Dec 2013 12:02:45.203,780.613
37,8 Dec 2013 13:26:38.089,8 Dec 2013 13:41:49.457,911.369
38,8 Dec 2013 15:10:16.920,8 Dec 2013 15:21:50.694,693.774
39,8 Dec 2013 22:30:30.596,8 Dec 2013 22:45:42.184,911.589
40,9 Dec 2013 10:45:10.925,9 Dec 2013 10:56:39.227,688.302
41,9 Dec 2013 12:20:57.532,9 Dec 2013 12:36:04.847,907.316
42,9 Dec 2013 13:59:15.933,9 Dec 2013 14:12:23.724,787.791
43,9 Dec 2013 15:41:40.741,9 Dec 2013 15:43:45.822,125.081
44,9 Dec 2013 23:00:00.087,9 Dec 2013 23:13:45.791,825.704
45,10 Dec 2013 00:41:18.985,10 Dec 2013 00:51:14.234,595.249

"Access","Start Time (UTCG)","Stop Time (UTCG)","Duration (sec)"
1,3 Dec 2013 03:49:01.848,3 Dec 2013 04:04:14.796,912.947
2,3 Dec 2013 05:36:13.421,3 Dec 2013 05:38:13.470,120.049
3,3 Dec 2013 11:10:36.486,3 Dec 2013 11:16:54.554,378.067
4,3 Dec 2013 12:49:32.296,3 Dec 2013 13:05:50.023,977.727
5,3 Dec 2013 14:35:57.663,3 Dec 2013 14:47:40.543,702.880
6,4 Dec 2013 04:17:58.525,4 Dec 2013 04:31:35.371,816.846
7,4 Dec 2013 05:59:17.249,4 Dec 2013 06:11:35.715,738.465
8,4 Dec 2013 11:31:26.245,4 Dec 2013 11:40:13.784,527.538
9,4 Dec 2013 13:12:12.325,4 Dec 2013 13:28:24.072,971.747
10,4 Dec 2013 15:02:02.297,4 Dec 2013 15:11:06.751,544.454
11,4 Dec 2013 16:52:26.765,4 Dec 2013 16:58:34.368,367.603
12,4 Dec 2013 23:42:02.700,4 Dec 2013 23:50:19.380,496.680
13,5 Dec 2013 01:21:48.176,5 Dec 2013 01:35:10.636,802.461
14,5 Dec 2013 03:02:37.550,5 Dec 2013 03:17:56.168,918.618
15,5 Dec 2013 04:43:48.928,5 Dec 2013 04:59:33.042,944.115
16,5 Dec 2013 06:25:05.962,5 Dec 2013 06:40:25.076,919.114
17,5 Dec 2013 11:52:06.527,5 Dec 2013 12:03:55.504,708.977
18,5 Dec 2013 13:34:54.331,5 Dec 2013 13:50:44.207,949.876
19,5 Dec 2013 19:01:09.112,5 Dec 2013 19:14:09.267,780.155
20,5 Dec 2013 20:41:40.212,5 Dec 2013 20:56:36.021,895.809
21,5 Dec 2013 22:22:56.374,5 Dec 2013 22:38:32.635,936.261
22,6 Dec 2013 00:04:43.123,6 Dec 2013 00:20:27.859,944.736
23,6 Dec 2013 01:47:21.667,6 Dec 2013 02:01:53.604,871.937
24,6 Dec 2013 03:31:12.432,6 Dec 2013 03:42:46.323,693.891
25,6 Dec 2013 05:15:54.393,6 Dec 2013 05:23:28.175,453.782
26,6 Dec 2013 06:59:10.622,6 Dec 2013 07:05:16.871,366.249
27,6 Dec 2013 08:39:32.128,6 Dec 2013 08:48:10.877,518.749
28,6 Dec 2013 12:13:26.417,6 Dec 2013 12:27:23.663,837.246
29,6 Dec 2013 13:57:41.289,6 Dec 2013 14:12:50.872,909.583
30,6 Dec 2013 21:08:54.536,6 Dec 2013 21:24:33.211,938.675
31,6 Dec 2013 22:52:11.777,6 Dec 2013 23:02:21.259,609.483
32,7 Dec 2013 10:54:12.745,7 Dec 2013 11:01:50.378,457.633
33,7 Dec 2013 12:35:26.890,7 Dec 2013 12:50:33.353,906.463
34,7 Dec 2013 14:20:26.343,7 Dec 2013 14:34:56.969,870.627
35,7 Dec 2013 21:37:00.340,7 Dec 2013 21:52:14.161,913.821
36,7 Dec 2013 23:21:34.854,7 Dec 2013 23:26:19.310,284.456
37,8 Dec 2013 11:25:53.068,8 Dec 2013 11:37:26.982,693.914
38,8 Dec 2013 13:02:16.533,8 Dec 2013 13:17:16.869,900.337
39,8 Dec 2013 14:43:02.410,8 Dec 2013 14:57:28.446,866.036
40,8 Dec 2013 22:06:25.083,8 Dec 2013 22:19:47.411,802.329
41,8 Dec 2013 23:47:02.203,8 Dec 2013 23:58:11.728,669.524
42,9 Dec 2013 10:22:06.763,9 Dec 2013 10:30:52.678,525.915
43,9 Dec 2013 11:56:42.768,9 Dec 2013 12:11:33.987,891.219
44,9 Dec 2013 13:34:29.662,9 Dec 2013 13:48:35.004,845.342
45,9 Dec 2013 15:14:50.943,9 Dec 2013 15:22:13.902,442.959
46,9 Dec 2013 22:37:06.862,9 Dec 2013 22:46:53.040,586.178
47,10 Dec 2013 00:14:33.267,10 Dec 2013 00:28:21.963,828.696

"Access","Start Time (UTCG)","Stop Time (UTCG)","Duration (sec)"
1,3 Dec 2013 08:10:03.781,3 Dec 2013 08:22:21.824,738.043
2,3 Dec 2013 09:49:33.500,3 Dec 2013 10:01:52.745,739.246
3,3 Dec 2013 20:24:54.345,3 Dec 2013 20:37:19.268,744.923
4,3 Dec 2013 22:00:59.947,3 Dec 2013 22:16:06.600,906.653
5,3 Dec 2013 23:39:58.664,3 Dec 2013 23:51:41.632,702.969
6,4 Dec 2013 08:41:21.633,4 Dec 2013 08:49:03.706,462.073
7,4 Dec 2013 10:17:22.653,4 Dec 2013 10:31:47.727,865.074
8,4 Dec 2013 19:19:29.555,4 Dec 2013 19:31:58.337,748.782
9,4 Dec 2013 20:55:25.739,4 Dec 2013 21:10:33.829,908.090
10,4 Dec 2013 22:34:23.323,4 Dec 2013 22:46:43.858,740.535
11,5 Dec 2013 10:45:38.345,5 Dec 2013 11:01:03.349,925.004
12,5 Dec 2013 18:10:20.213,5 Dec 2013 18:20:22.424,602.211
13,5 Dec 2013 19:49:39.556,5 Dec 2013 20:04:52.450,912.895
14,5 Dec 2013 21:28:25.256,5 Dec 2013 21:41:55.503,810.247
15,6 Dec 2013 11:14:05.791,6 Dec 2013 11:29:30.373,924.582
16,6 Dec 2013 18:32:37.871,6 Dec 2013 18:42:43.182,605.311
17,6 Dec 2013 20:13:46.188,6 Dec 2013 20:29:56.307,970.119
18,6 Dec 2013 22:02:49.349,6 Dec 2013 22:13:33.316,643.968
19,7 Dec 2013 10:05:23.301,7 Dec 2013 10:12:32.009,428.708
20,7 Dec 2013 11:42:44.548,7 Dec 2013 11:56:46.664,842.116
21,7 Dec 2013 13:24:44.767,7 Dec 2013 13:36:46.064,721.297
22,7 Dec 2013 18:53:57.115,7 Dec 2013 19:05:47.491,710.375
23,7 Dec 2013 20:36:31.984,7 Dec 2013 20:52:21.488,949.504
24,7 Dec 2013 22:29:02.685,7 Dec 2013 22:33:19.436,256.752
25,8 Dec 2013 00:18:51.067,8 Dec 2013 00:23:04.131,253.064
26,8 Dec 2013 02:00:36.263,8 Dec 2013 02:06:13.536,337.273
27,8 Dec 2013 03:43:17.552,8 Dec 2013 03:48:18.869,301.317
28,8 Dec 2013 05:23:52.778,8 Dec 2013 05:33:20.702,567.924
29,8 Dec 2013 07:04:28.023,8 Dec 2013 07:17:50.416,802.393
30,8 Dec 2013 08:45:35.540,8 Dec 2013 09:00:59.301,923.761
31,8 Dec 2013 10:27:16.683,8 Dec 2013 10:43:04.020,947.338
32,8 Dec 2013 12:09:11.145,8 Dec 2013 12:24:29.334,918.189
33,8 Dec 2013 13:50:40.729,8 Dec 2013 14:05:26.034,885.305
34,8 Dec 2013 19:15:17.823,8 Dec 2013 19:29:03.893,826.071
35,8 Dec 2013 20:59:23.457,8 Dec 2013 21:14:27.805,904.348
36,9 Dec 2013 02:26:18.821,9 Dec 2013 02:39:17.570,778.749
37,9 Dec 2013 04:06:34.255,9 Dec 2013 04:22:16.163,941.909
38,9 Dec 2013 05:47:53.752,9 Dec 2013 06:03:32.869,939.116
39,9 Dec 2013 07:30:08.342,9 Dec 2013 07:44:40.266,871.924
40,9 Dec 2013 09:13:54.692,9 Dec 2013 09:25:05.914,671.221
41,9 Dec 2013 16:08:39.341,9 Dec 2013 16:12:19.205,219.864
42,9 Dec 2013 17:55:22.357,9 Dec 2013 17:58:49.328,206.971
43,9 Dec 2013 19:37:07.245,9 Dec 2013 19:52:11.938,904.693
44,9 Dec 2013 21:22:17.886,9 Dec 2013 21:36:19.624,841.738
45,10 Dec 2013 02:59:10.361,10 Dec 2013 03:00:50.512,100.151
46,10 Dec 2013 04:34:00.997,10 Dec 2013 04:49:33.186,932.188

"Access","Start Time (UTCG)","Stop Time (UTCG)","Duration (sec)"
1,3 Dec 2013 07:48:26.103,3 Dec 2013 07:53:57.803,331.700
2,3 Dec 2013 09:23:32.097,3 Dec 2013 09:38:19.067,886.970
3,3 Dec 2013 20:01:35.950,3 Dec 2013 20:11:55.647,619.697
4,3 Dec 2013 21:36:40.816,3 Dec 2013 21:51:42.952,902.136
5,3 Dec 2013 23:14:56.253,3 Dec 2013 23:28:09.245,792.993
6,4 Dec 2013 09:51:59.361,4 Dec 2013 10:07:26.820,927.459
7,4 Dec 2013 18:56:02.303,4 Dec 2013 19:06:55.466,653.162
8,4 Dec 2013 20:31:10.517,4 Dec 2013 20:46:06.938,896.421
9,4 Dec 2013 22:09:17.646,4 Dec 2013 22:23:00.533,822.888
10,5 Dec 2013 10:20:49.387,5 Dec 2013 10:36:05.085,915.698
11,5 Dec 2013 19:24:51.775,5 Dec 2013 19:40:25.936,934.162
12,5 Dec 2013 21:03:29.488,5 Dec 2013 21:17:48.654,859.166
13,5 Dec 2013 22:45:14.673,5 Dec 2013 22:52:41.400,446.727
14,6 Dec 2013 10:49:56.708,6 Dec 2013 11:03:55.764,839.056
15,6 Dec 2013 12:31:51.349,6 Dec 2013 12:42:38.658,647.309
16,6 Dec 2013 19:47:34.558,6 Dec 2013 20:03:48.368,973.810
17,6 Dec 2013 21:35:04.775,6 Dec 2013 21:47:50.918,766.144
18,7 Dec 2013 09:41:36.707,7 Dec 2013 09:45:44.342,247.636
19,7 Dec 2013 11:18:58.223,7 Dec 2013 11:30:19.990,681.767
20,7 Dec 2013 12:57:53.310,7 Dec 2013 13:12:29.875,876.565
21,7 Dec 2013 18:30:42.190,7 Dec 2013 18:36:25.527,343.337
22,7 Dec 2013 20:10:07.663,7 Dec 2013 20:26:23.168,975.505
23,7 Dec 2013 21:59:23.607,7 Dec 2013 22:08:47.156,563.549
24,8 Dec 2013 01:34:42.962,8 Dec 2013 01:41:14.325,391.363
25,8 Dec 2013 03:17:54.093,8 Dec 2013 03:22:21.813,267.720
26,8 Dec 2013 04:58:46.733,8 Dec 2013 05:07:03.306,496.573
27,8 Dec 2013 06:39:16.657,8 Dec 2013 06:51:50.493,753.836
28,8 Dec 2013 08:20:15.234,8 Dec 2013 08:35:19.130,903.896
29,8 Dec 2013 10:01:48.943,8 Dec 2013 10:17:37.383,948.440
30,8 Dec 2013 11:43:43.245,8 Dec 2013 11:59:10.735,927.490
31,8 Dec 2013 13:25:22.736,8 Dec 2013 13:40:14.981,892.246
32,8 Dec 2013 15:14:25.774,8 Dec 2013 15:17:45.994,200.220
33,8 Dec 2013 18:50:22.857,8 Dec 2013 19:01:04.093,641.236
34,8 Dec 2013 20:32:43.252,8 Dec 2013 20:48:47.799,964.548
35,9 Dec 2013 02:02:13.355,9 Dec 2013 02:11:14.026,540.671
36,9 Dec 2013 03:41:21.183,9 Dec 2013 03:56:59.729,938.546
37,9 Dec 2013 05:22:29.548,9 Dec 2013 05:38:13.182,943.634
38,9 Dec 2013 07:04:28.020,9 Dec 2013 07:19:26.113,898.093
39,9 Dec 2013 08:47:46.241,9 Dec 2013 09:00:05.355,739.114
40,9 Dec 2013 10:33:39.880,9 Dec 2013 10:39:18.155,338.274
41,9 Dec 2013 19:11:27.963,9 Dec 2013 19:24:51.259,803.297
42,9 Dec 2013 20:55:24.231,9 Dec 2013 21:11:03.437,939.206
43,10 Dec 2013 04:08:53.944,10 Dec 2013 04:24:25.570,931.626
44,10 Dec 2013 05:55:13.303,10 Dec 2013 05:57:00.065,106.762

"Access","Start Time (UTCG)","Stop Time (UTCG)","Duration (sec)"
1,3 Dec 2013 01:39:37.428,3 Dec 2013 01:44:48.116,310.688
2,3 Dec 2013 08:58:19.441,3 Dec 2013 09:13:49.539,930.098
3,3 Dec 2013 19:39:01.691,3 Dec 2013 19:45:49.693,408.002
4,3 Dec 2013 21:12:32.068,3 Dec 2013 21:27:08.239,876.171
5,3 Dec 2013 22:50:07.132,3 Dec 2013 23:04:20.806,853.675
6,4 Dec 2013 00:31:24.513,4 Dec 2013 00:37:15.020,350.507
7,4 Dec 2013 09:27:20.654,4 Dec 2013 09:42:22.776,902.122
8,4 Dec 2013 18:32:55.899,4 Dec 2013 18:41:35.193,519.294
9,4 Dec 2013 20:07:05.610,4 Dec 2013 20:21:32.339,866.729
10,4 Dec 2013 21:44:28.115,4 Dec 2013 21:59:02.182,874.067
11,4 Dec 2013 23:26:10.566,4 Dec 2013 23:32:36.024,385.459
12,5 Dec 2013 09:56:50.303,5 Dec 2013 10:10:26.555,816.252
13,5 Dec 2013 11:38:03.320,5 Dec 2013 11:48:41.827,638.507
14,5 Dec 2013 18:59:15.170,5 Dec 2013 19:14:43.818,928.648
15,5 Dec 2013 20:38:44.652,5 Dec 2013 20:53:34.770,890.119
16,5 Dec 2013 22:19:06.358,5 Dec 2013 22:29:32.925,626.567
17,6 Dec 2013 10:26:57.441,6 Dec 2013 10:37:28.365,630.923
18,6 Dec 2013 12:04:52.362,6 Dec 2013 12:19:00.694,848.332
19,6 Dec 2013 19:21:52.832,6 Dec 2013 19:37:24.172,931.340
20,6 Dec 2013 21:07:33.596,6 Dec 2013 21:21:51.232,857.636
21,6 Dec 2013 22:55:23.091,6 Dec 2013 23:00:53.477,330.386
22,7 Dec 2013 10:54:17.704,7 Dec 2013 11:04:28.840,611.136
23,7 Dec 2013 12:32:02.388,7 Dec 2013 12:47:40.767,938.379
24,7 Dec 2013 19:44:11.867,7 Dec 2013 20:00:05.143,953.276
25,7 Dec 2013 21:31:01.914,7 Dec 2013 21:43:33.931,752.017
26,8 Dec 2013 01:08:53.574,8 Dec 2013 01:16:20.629,447.055
27,8 Dec 2013 02:52:17.656,8 Dec 2013 02:56:42.616,264.960
28,8 Dec 2013 04:33:40.220,8 Dec 2013 04:40:44.914,424.694
29,8 Dec 2013 06:14:07.211,8 Dec 2013 06:25:45.286,698.075
30,8 Dec 2013 07:54:57.213,8 Dec 2013 08:09:34.499,877.286
31,8 Dec 2013 09:36:22.618,8 Dec 2013 09:52:07.987,945.369
32,8 Dec 2013 11:18:14.429,8 Dec 2013 11:33:50.429,935.999
33,8 Dec 2013 13:00:01.490,8 Dec 2013 13:15:01.540,900.050
34,8 Dec 2013 14:44:21.783,8 Dec 2013 14:54:53.637,631.855
35,8 Dec 2013 18:26:57.687,8 Dec 2013 18:31:01.895,244.209
36,8 Dec 2013 20:06:31.540,8 Dec 2013 20:22:43.322,971.782
37,8 Dec 2013 21:55:09.529,8 Dec 2013 22:04:10.162,540.633
38,9 Dec 2013 03:16:09.245,9 Dec 2013 03:31:45.439,936.194
39,9 Dec 2013 04:57:08.355,9 Dec 2013 05:12:53.455,945.100
40,9 Dec 2013 06:38:52.539,9 Dec 2013 06:54:09.847,917.308
41,9 Dec 2013 08:21:46.513,9 Dec 2013 08:35:00.407,793.895
42,9 Dec 2013 10:06:46.235,9 Dec 2013 10:14:47.275,481.040
43,9 Dec 2013 17:00:34.011,9 Dec 2013 17:03:54.858,200.847
44,9 Dec 2013 18:45:56.854,9 Dec 2013 18:56:52.583,655.729
45,9 Dec 2013 20:29:00.684,9 Dec 2013 20:45:15.547,974.863
46,10 Dec 2013 03:44:13.685,10 Dec 2013 03:58:28.811,855.126
47,10 Dec 2013 05:25:54.077,10 Dec 2013 05:37:08.192,674.115

"Access","Start Time (UTCG)","Stop Time (UTCG)","Duration (sec)"
1,3 Dec 2013 01:10:39.238,3 Dec 2013 01:22:28.339,709.101
2,3 Dec 2013 08:33:46.534,3 Dec 2013 08:48:33.911,887.378
3,3 Dec 2013 10:17:31.040,3 Dec 2013 10:23:21.396,350.356
4,3 Dec 2013 20:48:35.447,3 Dec 2013 21:02:21.280,825.833
5,3 Dec 2013 22:25:28.696,3 Dec 2013 22:40:19.416,890.721
6,4 Dec 2013 00:05:20.733,4 Dec 2013 00:14:51.075,570.342
7,4 Dec 2013 09:03:32.440,4 Dec 2013 09:16:30.343,777.903
8,4 Dec 2013 10:43:46.124,4 Dec 2013 10:55:09.344,683.221
9,4 Dec 2013 18:10:32.009,4 Dec 2013 18:15:35.903,303.894
10,4 Dec 2013 19:43:11.533,4 Dec 2013 19:56:49.818,818.285
11,4 Dec 2013 21:19:51.366,4 Dec 2013 21:34:52.605,901.239
12,4 Dec 2013 22:59:52.716,4 Dec 2013 23:10:04.114,611.398
13,5 Dec 2013 09:34:09.963,5 Dec 2013 09:43:40.242,570.279
14,5 Dec 2013 11:11:15.727,5 Dec 2013 11:25:22.587,846.860
15,5 Dec 2013 18:34:16.708,5 Dec 2013 18:47:59.131,822.423
16,5 Dec 2013 20:14:08.534,5 Dec 2013 20:29:15.650,907.116
17,5 Dec 2013 21:53:35.397,5 Dec 2013 22:05:52.266,736.869
18,6 Dec 2013 11:39:04.211,6 Dec 2013 11:54:31.839,927.628
19,6 Dec 2013 18:56:46.757,6 Dec 2013 19:10:31.852,825.095
20,6 Dec 2013 20:40:26.199,6 Dec 2013 20:55:55.258,929.059
21,6 Dec 2013 22:28:59.806,6 Dec 2013 22:37:28.161,508.354
22,7 Dec 2013 10:29:43.978,7 Dec 2013 10:38:39.759,535.781
23,7 Dec 2013 12:06:59.121,7 Dec 2013 12:22:27.350,928.229
24,7 Dec 2013 13:53:39.523,7 Dec 2013 13:59:33.953,354.430
25,7 Dec 2013 19:18:45.277,7 Dec 2013 19:33:19.094,873.817
26,7 Dec 2013 21:03:28.024,7 Dec 2013 21:18:04.521,876.497
27,8 Dec 2013 00:43:13.338,8 Dec 2013 00:51:30.647,497.309
28,8 Dec 2013 02:26:29.748,8 Dec 2013 02:31:21.379,291.632
29,8 Dec 2013 04:08:31.487,8 Dec 2013 04:14:28.584,357.097
30,8 Dec 2013 05:48:59.389,8 Dec 2013 05:59:35.118,635.730
31,8 Dec 2013 07:29:41.500,8 Dec 2013 07:43:45.033,843.533
32,8 Dec 2013 09:10:58.062,8 Dec 2013 09:26:35.441,937.380
33,8 Dec 2013 10:52:45.365,8 Dec 2013 11:08:28.266,942.901
34,8 Dec 2013 12:34:37.437,8 Dec 2013 12:49:46.285,908.848
35,8 Dec 2013 14:16:43.002,8 Dec 2013 14:30:22.773,819.770
36,8 Dec 2013 19:40:43.244,8 Dec 2013 19:56:11.312,928.067
37,8 Dec 2013 21:26:43.139,8 Dec 2013 21:39:41.015,777.876
38,9 Dec 2013 02:51:03.576,9 Dec 2013 03:06:03.142,899.566
39,9 Dec 2013 04:31:49.970,9 Dec 2013 04:47:34.251,944.281
40,9 Dec 2013 06:13:21.285,9 Dec 2013 06:28:51.932,930.647
41,9 Dec 2013 07:55:54.222,9 Dec 2013 08:09:51.855,837.633
42,9 Dec 2013 09:40:13.671,9 Dec 2013 09:50:00.769,587.098
43,9 Dec 2013 16:32:38.483,9 Dec 2013 16:38:47.475,368.992
44,9 Dec 2013 18:20:33.176,9 Dec 2013 18:28:12.887,459.712
45,9 Dec 2013 20:02:56.954,9 Dec 2013 20:18:58.853,961.899
46,9 Dec 2013 21:50:05.015,9 Dec 2013 22:00:48.942,643.928
47,10 Dec 2013 03:20:13.743,10 Dec 2013 03:31:25.064,671.321
48,10 Dec 2013 04:59:35.827,10 Dec 2013 05:13:52.640,856.813

