Raw and processed data/Inclination variations/us_greatcircle_12sat_90deg/Aircraft-B747LAX_Heathrow-Transmitter-adsb_out6-To-Satellite-700km_90deg_p1_1-Receiver-adsb_satrcvr2 Access.csv

"Access","Start Time (UTCG)","Stop Time (UTCG)","Duration (sec)"
1,3 Dec 2013 04:39:46.761,3 Dec 2013 04:45:10.982,324.221
2,3 Dec 2013 13:00:41.055,3 Dec 2013 13:15:46.326,905.271
3,3 Dec 2013 14:37:14.076,3 Dec 2013 14:50:25.316,791.240
4,3 Dec 2013 16:14:01.946,3 Dec 2013 16:19:45.579,343.633
5,3 Dec 2013 17:44:28.570,3 Dec 2013 17:54:07.057,578.487
6,3 Dec 2013 19:16:03.658,3 Dec 2013 19:31:23.805,920.148
7,3 Dec 2013 20:55:02.584,3 Dec 2013 21:09:43.548,880.964
8,3 Dec 2013 22:35:49.301,3 Dec 2013 22:50:33.439,884.138
9,4 Dec 2013 00:14:49.574,4 Dec 2013 00:29:46.222,896.648
10,4 Dec 2013 01:52:44.158,4 Dec 2013 02:07:20.946,876.788
11,4 Dec 2013 03:30:42.676,4 Dec 2013 03:43:32.077,769.402
12,4 Dec 2013 05:13:18.157,4 Dec 2013 05:15:04.584,106.426
13,4 Dec 2013 10:23:47.148,4 Dec 2013 10:37:42.603,835.454
14,4 Dec 2013 12:01:17.860,4 Dec 2013 12:16:06.618,888.758
15,4 Dec 2013 13:40:26.123,4 Dec 2013 13:45:50.921,324.798
16,4 Dec 2013 16:45:52.862,4 Dec 2013 16:56:33.790,640.928
17,4 Dec 2013 18:24:50.734,4 Dec 2013 18:37:37.981,767.248
18,4 Dec 2013 20:04:26.085,4 Dec 2013 20:16:33.978,727.893
19,4 Dec 2013 21:43:11.896,4 Dec 2013 21:53:20.808,608.912
20,4 Dec 2013 23:19:53.219,4 Dec 2013 23:29:04.277,551.058
21,5 Dec 2013 00:53:58.163,5 Dec 2013 01:05:33.661,695.498
22,5 Dec 2013 02:29:54.156,5 Dec 2013 02:46:14.926,980.770
23,5 Dec 2013 04:16:32.720,5 Dec 2013 04:26:26.373,593.652
24,5 Dec 2013 07:47:57.330,5 Dec 2013 08:01:53.581,836.251
25,5 Dec 2013 09:27:35.992,5 Dec 2013 09:42:58.326,922.333
26,5 Dec 2013 14:23:10.540,5 Dec 2013 14:30:28.315,437.775
27,5 Dec 2013 16:02:47.727,5 Dec 2013 16:09:38.857,411.130
28,6 Dec 2013 00:00:35.514,6 Dec 2013 00:15:08.573,873.059
29,6 Dec 2013 01:41:02.348,6 Dec 2013 01:56:09.998,907.649
30,6 Dec 2013 03:30:38.636,6 Dec 2013 03:37:16.229,397.592
31,6 Dec 2013 05:14:54.114,6 Dec 2013 05:27:06.141,732.027
32,6 Dec 2013 06:55:42.911,6 Dec 2013 07:11:24.425,941.514
33,6 Dec 2013 08:32:39.958,6 Dec 2013 08:48:18.327,938.370
34,6 Dec 2013 10:10:33.065,6 Dec 2013 10:26:29.019,955.953
35,6 Dec 2013 11:49:59.904,6 Dec 2013 12:06:11.577,971.673
36,6 Dec 2013 13:30:48.832,6 Dec 2013 13:47:03.469,974.637
37,6 Dec 2013 15:12:39.458,6 Dec 2013 15:27:42.691,903.232
38,6 Dec 2013 16:56:43.120,6 Dec 2013 17:02:34.214,351.095
39,6 Dec 2013 21:29:51.302,6 Dec 2013 21:43:16.550,805.248
40,6 Dec 2013 23:07:10.252,6 Dec 2013 23:22:39.764,929.512
41,7 Dec 2013 04:19:35.311,7 Dec 2013 04:27:00.819,445.508
42,7 Dec 2013 05:56:53.467,7 Dec 2013 06:05:48.809,535.342
43,7 Dec 2013 07:37:45.731,7 Dec 2013 07:42:52.900,307.168
44,7 Dec 2013 12:41:49.931,7 Dec 2013 12:52:54.043,664.112
45,7 Dec 2013 14:16:10.448,7 Dec 2013 14:31:14.769,904.321
46,7 Dec 2013 15:53:27.308,7 Dec 2013 16:01:48.510,501.202
47,7 Dec 2013 17:28:12.657,7 Dec 2013 17:31:23.265,190.608
48,7 Dec 2013 18:56:33.587,7 Dec 2013 19:09:26.057,772.471
49,7 Dec 2013 20:31:26.573,7 Dec 2013 20:46:54.458,927.885

"Access","Start Time (UTCG)","Stop Time (UTCG)","Duration (sec)"
1,3 Dec 2013 04:15:12.545,3 Dec 2013 04:20:39.899,327.354
2,3 Dec 2013 12:37:03.256,3 Dec 2013 12:50:45.370,822.114
3,3 Dec 2013 14:12:57.065,3 Dec 2013 14:27:25.211,868.146
4,3 Dec 2013 15:50:03.369,3 Dec 2013 15:57:33.314,449.944
5,3 Dec 2013 17:22:17.791,3 Dec 2013 17:29:52.808,455.018
6,3 Dec 2013 18:52:35.270,3 Dec 2013 19:07:07.071,871.801
7,3 Dec 2013 20:29:32.587,3 Dec 2013 20:44:22.136,889.549
8,3 Dec 2013 22:10:48.757,3 Dec 2013 22:25:28.609,879.852
9,3 Dec 2013 23:50:12.543,4 Dec 2013 00:05:08.100,895.557
10,4 Dec 2013 01:28:18.678,4 Dec 2013 01:43:05.081,886.403
11,4 Dec 2013 03:06:06.515,4 Dec 2013 03:19:38.540,812.025
12,4 Dec 2013 04:45:59.591,4 Dec 2013 04:53:48.306,468.715
13,4 Dec 2013 10:00:00.327,4 Dec 2013 10:11:14.787,674.459
14,4 Dec 2013 11:36:45.497,4 Dec 2013 11:52:21.455,935.958
15,4 Dec 2013 13:15:21.870,4 Dec 2013 13:24:18.815,536.945
16,4 Dec 2013 16:21:36.371,4 Dec 2013 16:30:50.094,553.723
17,4 Dec 2013 17:59:57.732,4 Dec 2013 18:12:34.319,756.587
18,4 Dec 2013 19:39:34.341,4 Dec 2013 19:52:02.308,747.966
19,4 Dec 2013 21:18:38.726,4 Dec 2013 21:29:19.670,640.945
20,4 Dec 2013 22:55:59.165,4 Dec 2013 23:05:06.720,547.554
21,5 Dec 2013 00:30:35.748,5 Dec 2013 00:41:21.618,645.870
22,5 Dec 2013 02:04:54.532,5 Dec 2013 02:20:43.141,948.609
23,5 Dec 2013 03:48:44.944,5 Dec 2013 04:01:40.053,775.109
24,5 Dec 2013 07:23:14.653,5 Dec 2013 07:34:55.074,700.421
25,5 Dec 2013 09:02:34.367,5 Dec 2013 09:18:37.087,962.720
26,5 Dec 2013 10:44:15.241,5 Dec 2013 10:51:24.394,429.153
27,5 Dec 2013 13:58:54.161,5 Dec 2013 14:05:16.193,382.031
28,5 Dec 2013 15:37:32.329,5 Dec 2013 15:45:08.658,456.330
29,5 Dec 2013 23:37:14.703,5 Dec 2013 23:49:21.563,726.860
30,6 Dec 2013 01:15:01.049,6 Dec 2013 01:31:02.500,961.451
31,6 Dec 2013 03:02:40.554,6 Dec 2013 03:11:40.424,539.870
32,6 Dec 2013 04:49:40.064,6 Dec 2013 04:59:25.462,585.399
33,6 Dec 2013 06:30:25.539,6 Dec 2013 06:46:38.838,973.299
34,6 Dec 2013 08:08:23.297,6 Dec 2013 08:23:59.099,935.802
35,6 Dec 2013 09:45:56.610,6 Dec 2013 10:01:47.728,951.117
36,6 Dec 2013 11:24:59.301,6 Dec 2013 11:41:07.768,968.467
37,6 Dec 2013 13:05:30.685,6 Dec 2013 13:21:47.260,976.575
38,6 Dec 2013 14:47:04.815,6 Dec 2013 15:02:41.271,936.456
39,6 Dec 2013 16:30:27.789,6 Dec 2013 16:41:21.145,653.356
40,6 Dec 2013 21:07:08.054,6 Dec 2013 21:18:03.902,655.848
41,6 Dec 2013 22:41:56.985,6 Dec 2013 22:57:56.986,960.001
42,7 Dec 2013 00:27:36.472,7 Dec 2013 00:35:43.672,487.201
43,7 Dec 2013 03:55:54.385,7 Dec 2013 04:01:43.131,348.746
44,7 Dec 2013 05:32:17.005,7 Dec 2013 05:41:18.234,541.228
45,7 Dec 2013 07:12:02.109,7 Dec 2013 07:18:50.251,408.143
46,7 Dec 2013 12:21:21.868,7 Dec 2013 12:24:32.817,190.949
47,7 Dec 2013 13:52:06.558,7 Dec 2013 14:07:33.664,927.106
48,7 Dec 2013 15:29:02.260,7 Dec 2013 15:39:43.809,641.550
49,7 Dec 2013 18:33:57.809,7 Dec 2013 18:44:56.513,658.704
50,7 Dec 2013 20:06:58.723,7 Dec 2013 20:22:40.019,941.296
51,7 Dec 2013 21:49:50.208,7 Dec 2013 21:57:24.215,454.007

"Access","Start Time (UTCG)","Stop Time (UTCG)","Duration (sec)"
1,3 Dec 2013 03:50:56.287,3 Dec 2013 03:55:50.084,293.797
2,3 Dec 2013 05:30:08.755,3 Dec 2013 05:33:05.624,176.869
3,3 Dec 2013 12:14:03.080,3 Dec 2013 12:24:46.192,643.112
4,3 Dec 2013 13:48:43.880,3 Dec 2013 14:04:00.562,916.682
5,3 Dec 2013 15:25:50.540,3 Dec 2013 15:35:23.844,573.304
6,3 Dec 2013 17:00:05.426,3 Dec 2013 17:05:52.687,347.261
7,3 Dec 2013 18:29:31.917,3 Dec 2013 18:42:47.321,795.404
8,3 Dec 2013 20:04:26.810,3 Dec 2013 20:19:37.444,910.633
9,3 Dec 2013 21:45:40.935,3 Dec 2013 22:00:17.988,877.053
10,3 Dec 2013 23:25:30.591,3 Dec 2013 23:40:23.369,892.778
11,4 Dec 2013 01:03:51.783,4 Dec 2013 01:18:44.252,892.469
12,4 Dec 2013 02:41:36.308,4 Dec 2013 02:55:38.074,841.766
13,4 Dec 2013 04:20:29.635,4 Dec 2013 04:30:45.707,616.072
14,4 Dec 2013 09:37:31.423,4 Dec 2013 09:42:49.433,318.010
15,4 Dec 2013 11:12:17.810,4 Dec 2013 11:28:04.972,947.162
16,4 Dec 2013 12:50:34.676,4 Dec 2013 13:02:06.161,691.484
17,4 Dec 2013 15:57:58.061,4 Dec 2013 16:04:40.601,402.541
18,4 Dec 2013 17:35:08.487,4 Dec 2013 17:47:22.986,734.499
19,4 Dec 2013 19:14:40.457,4 Dec 2013 19:27:22.241,761.784
20,4 Dec 2013 20:53:59.266,4 Dec 2013 21:05:12.202,672.937
21,4 Dec 2013 22:31:53.611,4 Dec 2013 22:41:11.871,558.260
22,5 Dec 2013 00:07:09.397,5 Dec 2013 00:17:11.962,602.565
23,5 Dec 2013 01:40:42.579,5 Dec 2013 01:54:50.201,847.622
24,5 Dec 2013 03:21:47.229,5 Dec 2013 03:36:41.350,894.121
25,5 Dec 2013 06:58:44.236,5 Dec 2013 07:07:00.114,495.878
26,5 Dec 2013 08:37:37.983,5 Dec 2013 08:53:40.055,962.073
27,5 Dec 2013 10:18:10.628,5 Dec 2013 10:29:38.761,688.133
28,5 Dec 2013 13:35:02.313,5 Dec 2013 13:39:48.991,286.679
29,5 Dec 2013 15:12:31.502,5 Dec 2013 15:20:24.814,473.313
30,5 Dec 2013 16:55:02.252,5 Dec 2013 16:56:48.983,106.730
31,5 Dec 2013 23:15:19.114,5 Dec 2013 23:22:40.406,441.292
32,6 Dec 2013 00:49:35.399,6 Dec 2013 01:05:51.896,976.496
33,6 Dec 2013 02:34:54.592,6 Dec 2013 02:46:25.058,690.467
34,6 Dec 2013 04:24:11.545,6 Dec 2013 04:31:25.535,433.990
35,6 Dec 2013 06:05:13.396,6 Dec 2013 06:20:44.181,930.784
36,6 Dec 2013 07:44:09.988,6 Dec 2013 07:59:44.290,934.302
37,6 Dec 2013 09:21:25.963,6 Dec 2013 09:37:12.296,946.333
38,6 Dec 2013 11:00:04.431,6 Dec 2013 11:16:09.183,964.752
39,6 Dec 2013 12:40:16.169,6 Dec 2013 12:56:32.309,976.140
40,6 Dec 2013 14:21:35.532,6 Dec 2013 14:37:32.585,957.054
41,6 Dec 2013 16:04:15.110,6 Dec 2013 16:17:09.186,774.076
42,6 Dec 2013 20:45:28.194,6 Dec 2013 20:52:18.517,410.324
43,6 Dec 2013 22:17:19.642,6 Dec 2013 22:33:09.340,949.699
44,6 Dec 2013 23:59:45.176,7 Dec 2013 00:11:42.784,717.608
45,7 Dec 2013 03:33:15.375,7 Dec 2013 03:35:20.969,125.594
46,7 Dec 2013 05:07:51.319,7 Dec 2013 05:16:41.816,530.497
47,7 Dec 2013 06:46:43.284,7 Dec 2013 06:54:35.583,472.299
48,7 Dec 2013 13:28:14.895,7 Dec 2013 13:43:22.700,907.805
49,7 Dec 2013 15:04:40.304,7 Dec 2013 15:17:18.118,757.814
50,7 Dec 2013 16:42:24.016,7 Dec 2013 16:45:10.728,166.712
51,7 Dec 2013 18:11:44.894,7 Dec 2013 18:20:25.907,521.013
52,7 Dec 2013 19:43:02.324,7 Dec 2013 19:58:19.016,916.692
53,7 Dec 2013 21:22:25.793,7 Dec 2013 21:34:39.860,734.067

"Access","Start Time (UTCG)","Stop Time (UTCG)","Duration (sec)"
1,3 Dec 2013 03:27:06.516,3 Dec 2013 03:30:30.906,204.390
2,3 Dec 2013 05:04:40.634,3 Dec 2013 05:09:23.724,283.090
3,3 Dec 2013 13:24:37.171,3 Dec 2013 13:40:08.853,931.682
4,3 Dec 2013 15:01:32.726,3 Dec 2013 15:13:03.526,690.800
5,3 Dec 2013 16:37:26.932,3 Dec 2013 16:42:25.608,298.676
6,3 Dec 2013 18:06:50.993,3 Dec 2013 18:18:26.544,695.552
7,3 Dec 2013 19:39:59.600,3 Dec 2013 19:55:35.144,935.544
8,3 Dec 2013 21:20:25.534,3 Dec 2013 21:35:02.575,877.041
9,3 Dec 2013 23:00:43.052,3 Dec 2013 23:15:31.808,888.756
10,4 Dec 2013 00:39:22.386,4 Dec 2013 00:54:18.116,895.730
11,4 Dec 2013 02:17:09.509,4 Dec 2013 02:31:32.003,862.494
12,4 Dec 2013 03:55:28.391,4 Dec 2013 04:07:16.149,707.758
13,4 Dec 2013 10:47:56.855,4 Dec 2013 11:03:14.203,917.348
14,4 Dec 2013 12:25:54.136,4 Dec 2013 12:39:21.549,807.414
15,4 Dec 2013 17:10:25.618,4 Dec 2013 17:22:03.378,697.760
16,4 Dec 2013 18:49:45.490,4 Dec 2013 19:02:34.026,768.535
17,4 Dec 2013 20:29:14.710,4 Dec 2013 20:40:57.198,702.488
18,4 Dec 2013 22:07:37.373,4 Dec 2013 22:17:17.430,580.057
19,4 Dec 2013 23:43:36.093,4 Dec 2013 23:53:05.944,569.852
20,5 Dec 2013 01:17:19.584,5 Dec 2013 01:29:46.744,747.160
21,5 Dec 2013 02:55:31.633,5 Dec 2013 03:11:33.217,961.584
22,5 Dec 2013 04:45:33.381,5 Dec 2013 04:50:40.551,307.171
23,5 Dec 2013 06:35:33.021,5 Dec 2013 06:36:59.895,86.874
24,5 Dec 2013 08:12:45.645,5 Dec 2013 08:28:06.604,920.959
25,5 Dec 2013 09:52:45.748,5 Dec 2013 10:06:41.414,835.666
26,5 Dec 2013 13:12:29.384,5 Dec 2013 13:13:14.059,44.675
27,5 Dec 2013 14:47:43.950,5 Dec 2013 14:55:30.923,466.973
28,5 Dec 2013 16:28:23.925,5 Dec 2013 16:33:46.857,322.932
29,6 Dec 2013 00:24:45.762,6 Dec 2013 00:40:35.425,949.663
30,6 Dec 2013 02:07:40.184,6 Dec 2013 02:21:16.611,816.428
31,6 Dec 2013 03:58:01.070,6 Dec 2013 04:03:45.985,344.915
32,6 Dec 2013 05:40:03.817,6 Dec 2013 05:54:13.419,849.602
33,6 Dec 2013 07:19:59.496,6 Dec 2013 07:35:33.080,933.584
34,6 Dec 2013 08:57:00.623,6 Dec 2013 09:12:42.582,941.959
35,6 Dec 2013 10:35:15.639,6 Dec 2013 10:51:16.199,960.560
36,6 Dec 2013 12:15:05.721,6 Dec 2013 12:31:20.041,974.320
37,6 Dec 2013 13:56:10.399,6 Dec 2013 14:12:19.234,968.835
38,6 Dec 2013 15:38:21.606,6 Dec 2013 15:52:33.562,851.955
39,6 Dec 2013 21:53:17.171,6 Dec 2013 22:08:16.521,899.350
40,6 Dec 2013 23:33:03.444,6 Dec 2013 23:47:16.428,852.984
41,7 Dec 2013 04:43:36.690,7 Dec 2013 04:51:57.368,500.678
42,7 Dec 2013 06:21:41.582,7 Dec 2013 06:30:14.585,513.003
43,7 Dec 2013 08:04:35.601,7 Dec 2013 08:06:04.055,88.454
44,7 Dec 2013 13:04:43.164,7 Dec 2013 13:18:35.341,832.177
45,7 Dec 2013 14:40:22.509,7 Dec 2013 14:54:29.005,846.496
46,7 Dec 2013 16:17:54.684,7 Dec 2013 16:23:35.851,341.167
47,7 Dec 2013 17:49:51.414,7 Dec 2013 17:55:54.736,363.322
48,7 Dec 2013 19:19:34.538,7 Dec 2013 19:33:53.883,859.345
49,7 Dec 2013 20:56:31.427,7 Dec 2013 21:10:57.827,866.401

"Access","Start Time (UTCG)","Stop Time (UTCG)","Duration (sec)"
1,3 Dec 2013 01:09:22.790,3 Dec 2013 01:22:13.291,770.501
2,3 Dec 2013 02:48:54.962,3 Dec 2013 03:03:28.871,873.909
3,3 Dec 2013 04:28:40.775,3 Dec 2013 04:43:02.074,861.299
4,3 Dec 2013 06:07:22.727,3 Dec 2013 06:20:46.588,803.861
5,3 Dec 2013 07:44:18.846,3 Dec 2013 07:57:17.101,778.255
6,3 Dec 2013 09:19:32.855,3 Dec 2013 09:33:38.464,845.609
7,3 Dec 2013 10:55:08.084,3 Dec 2013 11:11:28.836,980.752
8,3 Dec 2013 12:42:41.400,3 Dec 2013 12:51:00.498,499.098
9,3 Dec 2013 16:14:28.175,3 Dec 2013 16:27:30.474,782.299
10,3 Dec 2013 17:53:31.651,3 Dec 2013 18:09:10.169,938.519
11,3 Dec 2013 19:36:06.385,3 Dec 2013 19:39:00.998,174.613
12,3 Dec 2013 22:49:48.358,3 Dec 2013 22:52:33.290,164.932
13,4 Dec 2013 00:27:42.083,4 Dec 2013 00:33:11.233,329.150
14,4 Dec 2013 08:26:15.298,4 Dec 2013 08:40:28.298,853.000
15,4 Dec 2013 10:06:31.090,4 Dec 2013 10:21:50.274,919.184
16,4 Dec 2013 11:55:57.074,4 Dec 2013 12:03:00.977,423.903
17,4 Dec 2013 13:40:30.490,4 Dec 2013 13:52:32.464,721.975
18,4 Dec 2013 15:21:11.961,4 Dec 2013 15:37:27.469,975.508
19,4 Dec 2013 16:59:41.579,4 Dec 2013 17:14:28.137,886.558
20,4 Dec 2013 18:37:03.092,4 Dec 2013 18:52:17.242,914.150
21,4 Dec 2013 20:15:56.501,4 Dec 2013 20:31:38.446,941.945
22,4 Dec 2013 21:56:24.281,4 Dec 2013 22:11:56.665,932.384
23,4 Dec 2013 23:38:16.314,4 Dec 2013 23:51:43.171,806.857
24,5 Dec 2013 05:56:27.388,5 Dec 2013 06:08:58.859,751.471
25,5 Dec 2013 07:33:10.179,5 Dec 2013 07:49:00.169,949.990
26,5 Dec 2013 09:21:14.895,5 Dec 2013 09:26:55.413,340.517
27,5 Dec 2013 12:46:38.600,5 Dec 2013 12:56:29.119,590.518
28,5 Dec 2013 14:23:36.871,5 Dec 2013 14:35:08.188,691.317
29,5 Dec 2013 16:02:53.428,5 Dec 2013 16:13:20.018,626.590
30,5 Dec 2013 17:44:59.713,5 Dec 2013 17:52:14.684,434.971
31,5 Dec 2013 19:28:01.025,5 Dec 2013 19:34:20.362,379.338
32,5 Dec 2013 21:08:39.385,5 Dec 2013 21:20:31.518,712.133
33,5 Dec 2013 22:43:27.685,5 Dec 2013 22:58:23.491,895.807
34,6 Dec 2013 00:21:06.225,6 Dec 2013 00:28:16.321,430.096
35,6 Dec 2013 03:23:38.958,6 Dec 2013 03:35:56.418,737.460
36,6 Dec 2013 04:58:11.794,6 Dec 2013 05:13:51.599,939.805
37,6 Dec 2013 08:26:25.947,6 Dec 2013 08:30:09.137,223.189
38,6 Dec 2013 10:03:05.782,6 Dec 2013 10:11:53.500,527.719
39,6 Dec 2013 11:41:33.758,6 Dec 2013 11:49:40.177,486.419
40,6 Dec 2013 20:06:15.549,6 Dec 2013 20:21:37.963,922.415
41,6 Dec 2013 21:43:20.460,6 Dec 2013 21:56:16.412,775.953
42,6 Dec 2013 23:20:21.416,6 Dec 2013 23:25:28.584,307.168
43,7 Dec 2013 00:50:25.878,7 Dec 2013 01:00:05.875,579.997
44,7 Dec 2013 02:21:51.746,7 Dec 2013 02:37:37.673,945.927
45,7 Dec 2013 04:02:22.951,7 Dec 2013 04:18:36.178,973.227
46,7 Dec 2013 05:42:18.375,7 Dec 2013 05:58:16.899,958.524
47,7 Dec 2013 07:20:42.771,7 Dec 2013 07:36:22.699,939.929
48,7 Dec 2013 08:57:45.299,7 Dec 2013 09:13:18.388,933.089
49,7 Dec 2013 10:34:17.934,7 Dec 2013 10:49:31.002,913.068
50,7 Dec 2013 12:12:08.868,7 Dec 2013 12:24:54.242,765.374
51,7 Dec 2013 17:29:58.181,7 Dec 2013 17:45:08.447,910.267
52,7 Dec 2013 19:08:41.189,7 Dec 2013 19:22:32.924,831.735

"Access","Start Time (UTCG)","Stop Time (UTCG)","Duration (sec)"
1,3 Dec 2013 02:23:56.160,3 Dec 2013 02:38:19.606,863.446
2,3 Dec 2013 04:03:48.188,3 Dec 2013 04:18:18.913,870.725
3,3 Dec 2013 05:42:50.878,3 Dec 2013 05:56:29.873,818.995
4,3 Dec 2013 07:20:15.967,3 Dec 2013 07:33:12.413,776.446
5,3 Dec 2013 08:55:50.198,3 Dec 2013 09:09:32.333,822.135
6,3 Dec 2013 10:30:43.059,3 Dec 2013 10:45:57.614,914.555
7,3 Dec 2013 12:14:26.613,3 Dec 2013 12:26:36.928,730.314
8,3 Dec 2013 15:50:03.630,3 Dec 2013 16:00:10.531,606.900
9,3 Dec 2013 17:28:38.210,3 Dec 2013 17:44:41.599,963.388
10,3 Dec 2013 19:09:09.872,3 Dec 2013 19:18:37.862,567.990
11,4 Dec 2013 00:02:39.950,4 Dec 2013 00:08:31.722,351.772
12,4 Dec 2013 08:03:04.466,4 Dec 2013 08:14:26.657,682.191
13,4 Dec 2013 09:40:31.944,4 Dec 2013 09:56:39.836,967.893
14,4 Dec 2013 11:28:00.483,4 Dec 2013 11:37:25.812,565.329
15,4 Dec 2013 13:15:15.120,4 Dec 2013 13:24:52.334,577.213
16,4 Dec 2013 14:55:58.110,4 Dec 2013 15:12:07.452,969.343
17,4 Dec 2013 16:35:30.676,4 Dec 2013 16:50:16.152,885.477
18,4 Dec 2013 18:12:35.330,4 Dec 2013 18:27:40.689,905.359
19,4 Dec 2013 19:51:03.596,4 Dec 2013 20:06:40.790,937.194
20,4 Dec 2013 21:31:09.682,4 Dec 2013 21:46:50.343,940.661
21,4 Dec 2013 23:12:38.373,4 Dec 2013 23:26:57.696,859.322
22,5 Dec 2013 00:57:01.643,5 Dec 2013 01:03:43.565,401.922
23,5 Dec 2013 05:34:07.819,5 Dec 2013 05:43:23.729,555.910
24,5 Dec 2013 07:08:04.505,5 Dec 2013 07:24:09.172,964.666
25,5 Dec 2013 08:52:37.301,5 Dec 2013 09:02:57.965,620.664
26,5 Dec 2013 12:22:50.597,5 Dec 2013 12:31:27.432,516.835
27,5 Dec 2013 13:59:09.755,5 Dec 2013 14:10:34.840,685.084
28,5 Dec 2013 15:37:49.625,5 Dec 2013 15:48:45.361,655.736
29,5 Dec 2013 17:19:12.261,5 Dec 2013 17:27:22.842,490.581
30,5 Dec 2013 19:02:31.146,5 Dec 2013 19:08:14.898,343.752
31,5 Dec 2013 20:43:33.852,5 Dec 2013 20:53:59.120,625.268
32,5 Dec 2013 22:19:23.915,5 Dec 2013 22:34:48.182,924.267
33,5 Dec 2013 23:56:29.265,6 Dec 2013 00:06:28.257,598.993
34,6 Dec 2013 03:01:12.931,6 Dec 2013 03:11:18.355,605.424
35,6 Dec 2013 04:33:48.189,6 Dec 2013 04:49:29.530,941.341
36,6 Dec 2013 06:15:46.678,6 Dec 2013 06:25:27.329,580.650
37,6 Dec 2013 09:38:42.512,6 Dec 2013 09:46:57.747,495.235
38,6 Dec 2013 11:16:45.426,6 Dec 2013 11:25:30.241,524.815
39,6 Dec 2013 19:42:20.755,6 Dec 2013 19:56:38.751,857.996
40,6 Dec 2013 21:18:58.259,6 Dec 2013 21:33:16.986,858.728
41,6 Dec 2013 22:56:20.843,6 Dec 2013 23:03:18.494,417.651
42,7 Dec 2013 00:28:19.149,7 Dec 2013 00:35:50.031,450.882
43,7 Dec 2013 01:58:25.572,7 Dec 2013 02:12:59.420,873.848
44,7 Dec 2013 03:37:12.189,7 Dec 2013 03:53:27.549,975.360
45,7 Dec 2013 05:17:27.685,7 Dec 2013 05:33:30.650,962.965
46,7 Dec 2013 06:56:15.294,7 Dec 2013 07:11:59.365,944.071
47,7 Dec 2013 08:33:35.392,7 Dec 2013 08:49:08.922,933.530
48,7 Dec 2013 10:10:07.787,7 Dec 2013 10:25:32.267,924.480
49,7 Dec 2013 11:47:24.212,7 Dec 2013 12:00:53.055,808.844
50,7 Dec 2013 17:05:34.867,7 Dec 2013 17:19:12.013,817.146
51,7 Dec 2013 18:43:52.507,7 Dec 2013 18:59:03.183,910.676
52,7 Dec 2013 20:25:02.610,7 Dec 2013 20:28:15.028,192.418

"Access","Start Time (UTCG)","Stop Time (UTCG)","Duration (sec)"
1,3 Dec 2013 01:58:59.573,3 Dec 2013 02:13:04.274,844.701
2,3 Dec 2013 03:38:52.319,3 Dec 2013 03:53:28.813,876.494
3,3 Dec 2013 05:18:12.833,3 Dec 2013 05:32:07.298,834.465
4,3 Dec 2013 06:56:05.642,3 Dec 2013 07:09:06.600,780.959
5,3 Dec 2013 08:32:04.756,3 Dec 2013 08:45:26.657,801.900
6,3 Dec 2013 10:06:57.429,3 Dec 2013 10:21:49.788,892.358
7,3 Dec 2013 11:47:15.924,3 Dec 2013 12:01:47.986,872.061
8,3 Dec 2013 15:26:24.181,3 Dec 2013 15:31:18.170,293.989
9,3 Dec 2013 17:03:49.490,3 Dec 2013 17:19:37.561,948.071
10,3 Dec 2013 18:43:40.401,3 Dec 2013 18:56:15.864,755.462
11,3 Dec 2013 23:37:55.803,3 Dec 2013 23:43:35.134,339.331
12,4 Dec 2013 01:19:41.150,4 Dec 2013 01:20:28.645,47.494
13,4 Dec 2013 07:41:53.184,4 Dec 2013 07:46:56.107,302.923
14,4 Dec 2013 09:15:08.320,4 Dec 2013 09:31:25.306,976.987
15,4 Dec 2013 11:00:17.678,4 Dec 2013 11:12:09.333,711.655
16,4 Dec 2013 12:49:42.452,4 Dec 2013 12:56:56.015,433.563
17,4 Dec 2013 14:30:48.280,4 Dec 2013 14:46:11.927,923.647
18,4 Dec 2013 16:11:21.876,4 Dec 2013 16:26:09.629,887.753
19,4 Dec 2013 17:48:13.016,4 Dec 2013 18:03:10.266,897.250
20,4 Dec 2013 19:26:17.012,4 Dec 2013 19:41:47.681,930.669
21,4 Dec 2013 21:05:59.958,4 Dec 2013 21:21:44.278,944.320
22,4 Dec 2013 22:47:08.074,4 Dec 2013 23:02:02.687,894.614
23,5 Dec 2013 00:30:12.913,5 Dec 2013 00:40:22.293,609.380
24,5 Dec 2013 05:14:27.741,5 Dec 2013 05:15:41.429,73.689
25,5 Dec 2013 06:43:34.403,5 Dec 2013 06:59:13.473,939.071
26,5 Dec 2013 08:25:19.255,5 Dec 2013 08:38:27.590,788.335
27,5 Dec 2013 11:59:25.163,5 Dec 2013 12:06:01.796,396.634
28,5 Dec 2013 13:34:50.599,5 Dec 2013 13:45:58.758,668.159
29,5 Dec 2013 15:12:56.139,5 Dec 2013 15:24:12.396,676.257
30,5 Dec 2013 16:53:34.642,5 Dec 2013 17:02:37.672,543.030
31,5 Dec 2013 18:36:46.811,5 Dec 2013 18:42:34.500,347.689
32,5 Dec 2013 20:18:27.701,5 Dec 2013 20:27:21.041,533.340
33,5 Dec 2013 21:55:33.354,5 Dec 2013 22:10:43.243,909.889
34,5 Dec 2013 23:32:01.537,5 Dec 2013 23:44:12.947,731.410
35,6 Dec 2013 02:39:16.034,6 Dec 2013 02:46:34.103,438.069
36,6 Dec 2013 04:09:55.972,6 Dec 2013 04:25:02.111,906.139
37,6 Dec 2013 05:48:54.655,6 Dec 2013 06:02:03.667,789.012
38,6 Dec 2013 09:14:24.443,6 Dec 2013 09:21:46.766,442.323
39,6 Dec 2013 10:52:06.268,6 Dec 2013 11:01:08.790,542.522
40,6 Dec 2013 12:32:07.312,6 Dec 2013 12:37:03.604,296.291
41,6 Dec 2013 19:18:51.198,6 Dec 2013 19:30:49.008,717.810
42,6 Dec 2013 20:54:38.524,6 Dec 2013 21:09:52.456,913.932
43,6 Dec 2013 22:32:04.827,6 Dec 2013 22:41:11.600,546.773
44,7 Dec 2013 00:06:13.377,7 Dec 2013 00:11:45.130,331.753
45,7 Dec 2013 01:35:24.315,7 Dec 2013 01:48:43.403,799.087
46,7 Dec 2013 03:11:58.312,7 Dec 2013 03:28:14.624,976.312
47,7 Dec 2013 04:52:31.317,7 Dec 2013 05:08:38.236,966.918
48,7 Dec 2013 06:31:42.167,7 Dec 2013 06:47:30.970,948.803
49,7 Dec 2013 08:09:22.235,7 Dec 2013 08:24:56.825,934.590
50,7 Dec 2013 09:46:00.071,7 Dec 2013 10:01:30.215,930.144
51,7 Dec 2013 11:22:53.544,7 Dec 2013 11:37:13.543,859.999
52,7 Dec 2013 16:41:30.089,7 Dec 2013 16:52:18.751,648.662
53,7 Dec 2013 18:19:09.151,7 Dec 2013 18:34:59.641,950.490
54,7 Dec 2013 19:58:49.327,7 Dec 2013 20:07:35.646,526.320

"Access","Start Time (UTCG)","Stop Time (UTCG)","Duration (sec)"
1,3 Dec 2013 01:34:07.471,3 Dec 2013 01:47:42.520,815.049
2,3 Dec 2013 03:13:54.179,3 Dec 2013 03:28:32.024,877.846
3,3 Dec 2013 04:53:29.239,3 Dec 2013 05:07:38.163,848.924
4,3 Dec 2013 06:31:47.807,3 Dec 2013 06:44:58.427,790.621
5,3 Dec 2013 08:08:14.784,3 Dec 2013 08:21:21.642,786.858
6,3 Dec 2013 09:43:14.631,3 Dec 2013 09:57:44.538,869.908
7,3 Dec 2013 11:20:52.073,3 Dec 2013 11:36:44.804,952.731
8,3 Dec 2013 16:39:05.542,3 Dec 2013 16:53:55.714,890.172
9,3 Dec 2013 18:18:31.155,3 Dec 2013 18:33:02.854,871.699
10,3 Dec 2013 23:13:32.768,3 Dec 2013 23:18:20.728,287.960
11,4 Dec 2013 00:53:06.168,4 Dec 2013 00:57:27.327,261.160
12,4 Dec 2013 08:50:21.206,4 Dec 2013 09:06:03.372,942.166
13,4 Dec 2013 10:33:06.343,4 Dec 2013 10:46:59.157,832.814
14,4 Dec 2013 12:23:24.061,4 Dec 2013 12:29:24.722,360.661
15,4 Dec 2013 14:05:39.981,4 Dec 2013 14:19:40.324,840.343
16,4 Dec 2013 15:46:33.099,4 Dec 2013 16:02:07.763,934.664
17,4 Dec 2013 17:23:55.390,4 Dec 2013 17:38:46.095,890.706
18,4 Dec 2013 19:01:36.874,4 Dec 2013 19:16:59.685,922.811
19,4 Dec 2013 20:40:55.428,4 Dec 2013 20:56:39.915,944.487
20,4 Dec 2013 22:21:43.652,4 Dec 2013 22:37:01.484,917.832
21,5 Dec 2013 00:04:05.346,5 Dec 2013 00:16:14.258,728.913
22,5 Dec 2013 06:19:40.573,5 Dec 2013 06:34:11.431,870.858
23,5 Dec 2013 07:58:53.437,5 Dec 2013 08:13:46.734,893.297
24,5 Dec 2013 11:37:19.908,5 Dec 2013 11:39:13.059,113.152
25,5 Dec 2013 13:10:39.752,5 Dec 2013 13:21:17.872,638.120
26,5 Dec 2013 14:48:12.141,5 Dec 2013 14:59:40.317,688.176
27,5 Dec 2013 16:28:08.285,5 Dec 2013 16:37:57.148,588.864
28,5 Dec 2013 18:10:53.436,5 Dec 2013 18:17:16.674,383.238
29,5 Dec 2013 19:53:18.174,5 Dec 2013 20:00:45.443,447.269
30,5 Dec 2013 21:32:03.426,5 Dec 2013 21:46:02.967,839.541
31,5 Dec 2013 23:07:40.869,5 Dec 2013 23:21:31.447,830.579
32,6 Dec 2013 00:46:08.630,6 Dec 2013 00:49:23.744,195.114
33,6 Dec 2013 02:18:00.108,6 Dec 2013 02:21:28.770,208.663
34,6 Dec 2013 03:46:33.195,6 Dec 2013 04:00:30.876,837.681
35,6 Dec 2013 05:23:10.940,6 Dec 2013 05:38:05.228,894.288
36,6 Dec 2013 08:50:14.697,6 Dec 2013 08:56:15.440,360.742
37,6 Dec 2013 10:27:33.539,6 Dec 2013 10:36:36.700,543.161
38,6 Dec 2013 12:06:36.544,6 Dec 2013 12:13:35.197,418.653
39,6 Dec 2013 18:56:33.988,6 Dec 2013 19:03:18.417,404.430
40,6 Dec 2013 20:30:23.281,6 Dec 2013 20:46:00.524,937.243
41,6 Dec 2013 22:07:43.368,6 Dec 2013 22:18:53.291,669.923
42,6 Dec 2013 23:43:43.289,6 Dec 2013 23:48:10.943,267.653
43,7 Dec 2013 01:12:45.574,7 Dec 2013 01:24:24.810,699.236
44,7 Dec 2013 02:46:42.622,7 Dec 2013 03:02:57.897,975.275
45,7 Dec 2013 04:27:29.572,7 Dec 2013 04:43:39.923,970.351
46,7 Dec 2013 06:07:03.215,7 Dec 2013 06:22:56.947,953.732
47,7 Dec 2013 07:45:04.924,7 Dec 2013 08:00:41.621,936.698
48,7 Dec 2013 09:21:53.082,7 Dec 2013 09:37:25.488,932.406
49,7 Dec 2013 10:58:32.430,7 Dec 2013 11:13:25.319,892.889
50,7 Dec 2013 12:40:12.500,7 Dec 2013 12:48:55.886,523.386
51,7 Dec 2013 16:18:30.375,7 Dec 2013 16:23:35.096,304.721
52,7 Dec 2013 17:54:30.698,7 Dec 2013 18:10:22.239,951.541
53,7 Dec 2013 19:33:37.576,7 Dec 2013 19:45:26.350,708.774

"Access","Start Time (UTCG)","Stop Time (UTCG)","Duration (sec)"
1,3 Dec 2013 01:27:03.266,3 Dec 2013 01:39:51.207,767.941
2,3 Dec 2013 03:03:46.857,3 Dec 2013 03:17:22.120,815.262
3,3 Dec 2013 04:42:01.747,3 Dec 2013 04:56:28.724,866.977
4,3 Dec 2013 06:22:05.540,3 Dec 2013 06:36:20.179,854.639
5,3 Dec 2013 08:03:58.925,3 Dec 2013 08:15:15.781,676.856
6,3 Dec 2013 14:23:01.515,3 Dec 2013 14:34:25.144,683.629
7,3 Dec 2013 15:59:04.984,3 Dec 2013 16:15:08.401,963.417
8,3 Dec 2013 17:45:43.599,3 Dec 2013 17:54:18.293,514.695
9,3 Dec 2013 21:13:35.995,3 Dec 2013 21:25:37.633,721.639
10,3 Dec 2013 22:50:22.419,3 Dec 2013 23:03:53.052,810.633
11,4 Dec 2013 00:28:54.208,4 Dec 2013 00:42:12.735,798.527
12,4 Dec 2013 02:09:27.054,4 Dec 2013 02:21:46.835,739.781
13,4 Dec 2013 03:51:15.442,4 Dec 2013 04:03:40.522,745.080
14,4 Dec 2013 05:32:47.086,4 Dec 2013 05:47:34.364,887.278
15,4 Dec 2013 07:10:48.445,4 Dec 2013 07:25:31.081,882.635
16,4 Dec 2013 08:49:14.584,4 Dec 2013 08:54:14.310,299.726
17,4 Dec 2013 11:50:46.003,4 Dec 2013 12:02:12.841,686.839
18,4 Dec 2013 13:24:50.634,4 Dec 2013 13:40:39.230,948.596
19,4 Dec 2013 15:10:05.071,4 Dec 2013 15:15:47.983,342.911
20,4 Dec 2013 18:33:10.240,4 Dec 2013 18:38:18.710,308.470
21,4 Dec 2013 20:10:58.495,4 Dec 2013 20:17:02.137,363.641
22,5 Dec 2013 04:33:26.275,5 Dec 2013 04:48:38.986,912.711
23,5 Dec 2013 06:10:13.249,5 Dec 2013 06:23:21.364,788.116
24,5 Dec 2013 07:47:00.847,5 Dec 2013 07:52:46.944,346.097
25,5 Dec 2013 09:17:23.618,5 Dec 2013 09:27:12.063,588.446
26,5 Dec 2013 10:48:59.085,5 Dec 2013 11:04:19.716,920.631
27,5 Dec 2013 12:28:21.498,5 Dec 2013 12:44:18.083,956.585
28,5 Dec 2013 14:08:42.583,5 Dec 2013 14:24:31.167,948.584
29,5 Dec 2013 15:47:27.109,5 Dec 2013 16:03:08.781,941.671
30,5 Dec 2013 17:24:58.199,5 Dec 2013 17:40:23.129,924.929
31,5 Dec 2013 19:02:14.652,5 Dec 2013 19:16:34.792,860.140
32,5 Dec 2013 20:41:35.643,5 Dec 2013 20:50:34.976,539.333
33,6 Dec 2013 01:56:46.007,6 Dec 2013 02:11:22.682,876.675
34,6 Dec 2013 03:34:53.207,6 Dec 2013 03:49:18.239,865.032
35,6 Dec 2013 08:22:40.981,6 Dec 2013 08:30:57.019,496.038
36,6 Dec 2013 10:01:16.948,6 Dec 2013 10:11:43.774,626.826
37,6 Dec 2013 11:41:09.297,6 Dec 2013 11:49:40.769,511.472
38,6 Dec 2013 16:30:11.101,6 Dec 2013 16:35:57.967,346.866
39,6 Dec 2013 18:04:38.109,6 Dec 2013 18:20:58.153,980.044
40,6 Dec 2013 19:50:40.988,6 Dec 2013 20:01:31.754,650.766
41,6 Dec 2013 23:21:42.140,6 Dec 2013 23:36:17.353,875.213
42,7 Dec 2013 01:01:51.451,7 Dec 2013 01:16:52.631,901.180
43,7 Dec 2013 04:19:32.619,7 Dec 2013 04:27:33.459,480.841
44,7 Dec 2013 05:57:02.642,7 Dec 2013 06:07:28.963,626.320
45,7 Dec 2013 07:37:22.272,7 Dec 2013 07:46:26.700,544.428
46,7 Dec 2013 15:34:47.787,7 Dec 2013 15:49:42.356,894.569
47,7 Dec 2013 17:15:31.831,7 Dec 2013 17:30:20.514,888.683
48,7 Dec 2013 19:05:45.653,7 Dec 2013 19:11:02.255,316.602
49,7 Dec 2013 20:49:28.731,7 Dec 2013 21:01:35.293,726.561

"Access","Start Time (UTCG)","Stop Time (UTCG)","Duration (sec)"
1,3 Dec 2013 01:02:58.813,3 Dec 2013 01:15:47.069,768.255
2,3 Dec 2013 02:39:29.530,3 Dec 2013 02:52:48.874,799.343
3,3 Dec 2013 04:17:17.487,3 Dec 2013 04:31:35.465,857.977
4,3 Dec 2013 05:56:55.124,3 Dec 2013 06:11:22.131,867.007
5,3 Dec 2013 07:38:16.743,3 Dec 2013 07:50:47.180,750.438
6,3 Dec 2013 14:01:20.680,3 Dec 2013 14:08:12.183,411.503
7,3 Dec 2013 15:34:06.109,3 Dec 2013 15:50:09.960,963.852
8,3 Dec 2013 17:17:52.823,3 Dec 2013 17:29:40.501,707.678
9,3 Dec 2013 20:49:43.501,3 Dec 2013 21:00:50.489,666.988
10,3 Dec 2013 22:26:01.241,3 Dec 2013 22:39:22.315,801.074
11,4 Dec 2013 00:04:05.324,4 Dec 2013 00:17:33.240,807.915
12,4 Dec 2013 01:44:08.047,4 Dec 2013 01:56:42.767,754.720
13,4 Dec 2013 03:25:47.484,4 Dec 2013 03:37:56.663,729.179
14,4 Dec 2013 05:07:26.680,4 Dec 2013 05:21:33.246,846.566
15,4 Dec 2013 06:46:43.229,4 Dec 2013 07:02:03.215,919.985
16,4 Dec 2013 08:24:09.364,4 Dec 2013 08:33:00.329,530.965
17,4 Dec 2013 11:28:36.166,4 Dec 2013 11:37:20.880,524.714
18,4 Dec 2013 13:00:32.357,4 Dec 2013 13:16:09.456,937.099
19,4 Dec 2013 14:41:45.926,4 Dec 2013 14:53:06.464,680.538
20,4 Dec 2013 18:09:34.223,4 Dec 2013 18:12:32.436,178.212
21,4 Dec 2013 19:46:11.542,4 Dec 2013 19:52:45.639,394.097
22,5 Dec 2013 04:09:40.527,5 Dec 2013 04:23:37.838,837.311
23,5 Dec 2013 05:45:54.273,5 Dec 2013 06:00:20.522,866.249
24,5 Dec 2013 07:23:03.967,5 Dec 2013 07:30:32.328,448.361
25,5 Dec 2013 08:55:12.414,5 Dec 2013 09:02:58.812,466.397
26,5 Dec 2013 10:25:30.920,5 Dec 2013 10:40:06.222,875.302
27,5 Dec 2013 12:03:01.834,5 Dec 2013 12:19:03.251,961.417
28,5 Dec 2013 13:43:46.626,5 Dec 2013 13:59:36.242,949.616
29,5 Dec 2013 15:22:54.243,5 Dec 2013 15:38:38.347,944.104
30,5 Dec 2013 17:00:39.895,5 Dec 2013 17:16:10.667,930.772
31,5 Dec 2013 18:37:51.726,5 Dec 2013 18:52:38.469,886.743
32,5 Dec 2013 20:16:16.262,5 Dec 2013 20:27:32.493,676.231
33,6 Dec 2013 01:32:38.470,6 Dec 2013 01:45:12.276,753.805
34,6 Dec 2013 03:10:13.268,6 Dec 2013 03:25:39.894,926.626
35,6 Dec 2013 04:49:40.554,6 Dec 2013 04:56:41.930,421.377
36,6 Dec 2013 07:58:42.246,6 Dec 2013 08:05:05.999,383.753
37,6 Dec 2013 09:36:25.728,6 Dec 2013 09:46:48.122,622.394
38,6 Dec 2013 11:16:08.799,6 Dec 2013 11:25:29.018,560.219
39,6 Dec 2013 12:56:29.309,6 Dec 2013 13:00:40.995,251.687
40,6 Dec 2013 16:08:11.436,6 Dec 2013 16:10:39.983,148.547
41,6 Dec 2013 17:39:42.954,6 Dec 2013 17:55:27.391,944.437
42,6 Dec 2013 19:23:09.311,6 Dec 2013 19:36:32.789,803.479
43,6 Dec 2013 22:56:48.358,6 Dec 2013 23:09:32.795,764.436
44,7 Dec 2013 00:36:41.354,7 Dec 2013 00:52:38.666,957.312
45,7 Dec 2013 02:20:31.831,7 Dec 2013 02:23:18.534,166.703
46,7 Dec 2013 03:55:43.001,7 Dec 2013 04:02:30.872,407.871
47,7 Dec 2013 05:32:22.910,7 Dec 2013 05:42:32.347,609.437
48,7 Dec 2013 07:12:01.492,7 Dec 2013 07:21:54.482,592.990
49,7 Dec 2013 15:11:16.583,7 Dec 2013 15:24:09.048,772.465
50,7 Dec 2013 16:49:26.320,7 Dec 2013 17:05:17.217,950.898
51,7 Dec 2013 18:37:34.017,7 Dec 2013 18:45:35.172,481.155
52,7 Dec 2013 20:24:19.965,7 Dec 2013 20:33:48.306,568.341

"Access","Start Time (UTCG)","Stop Time (UTCG)","Duration (sec)"
1,3 Dec 2013 02:15:17.308,3 Dec 2013 02:28:22.314,785.007
2,3 Dec 2013 03:52:40.340,3 Dec 2013 04:06:46.106,845.767
3,3 Dec 2013 05:31:50.867,3 Dec 2013 05:46:23.217,872.351
4,3 Dec 2013 07:12:45.444,3 Dec 2013 07:26:05.507,800.063
5,3 Dec 2013 08:56:36.736,3 Dec 2013 09:02:46.242,369.506
6,3 Dec 2013 15:09:43.171,3 Dec 2013 15:25:06.168,922.996
7,3 Dec 2013 16:50:54.436,3 Dec 2013 17:04:53.940,839.504
8,3 Dec 2013 20:25:52.438,3 Dec 2013 20:35:49.930,597.493
9,3 Dec 2013 22:01:46.197,3 Dec 2013 22:14:50.764,784.567
10,3 Dec 2013 23:39:24.039,3 Dec 2013 23:52:57.425,813.386
11,4 Dec 2013 01:18:55.729,4 Dec 2013 01:31:46.487,770.758
12,4 Dec 2013 03:00:18.802,4 Dec 2013 03:12:23.000,724.198
13,4 Dec 2013 04:42:05.077,4 Dec 2013 04:55:31.702,806.626
14,4 Dec 2013 06:22:52.120,4 Dec 2013 06:38:05.820,913.701
15,4 Dec 2013 07:59:30.791,4 Dec 2013 08:11:01.306,690.515
16,4 Dec 2013 11:07:14.898,4 Dec 2013 11:12:04.606,289.708
17,4 Dec 2013 12:36:45.809,4 Dec 2013 12:51:35.007,889.198
18,4 Dec 2013 14:15:16.964,4 Dec 2013 14:29:15.183,838.219
19,4 Dec 2013 19:21:38.232,4 Dec 2013 19:28:13.878,395.645
20,4 Dec 2013 21:02:06.933,4 Dec 2013 21:04:03.874,116.941
21,5 Dec 2013 03:46:26.485,5 Dec 2013 03:57:41.853,675.368
22,5 Dec 2013 05:21:38.304,5 Dec 2013 05:36:55.035,916.731
23,5 Dec 2013 06:58:51.517,5 Dec 2013 07:08:21.497,569.981
24,5 Dec 2013 08:33:00.029,5 Dec 2013 08:38:58.878,358.850
25,5 Dec 2013 10:02:27.583,5 Dec 2013 10:15:48.960,801.377
26,5 Dec 2013 11:37:37.902,5 Dec 2013 11:53:45.356,967.454
27,5 Dec 2013 13:18:44.373,5 Dec 2013 13:34:35.357,950.984
28,5 Dec 2013 14:58:16.121,5 Dec 2013 15:14:02.152,946.031
29,5 Dec 2013 16:36:19.231,5 Dec 2013 16:51:54.409,935.177
30,5 Dec 2013 18:13:32.599,5 Dec 2013 18:28:37.258,904.659
31,5 Dec 2013 19:51:22.601,5 Dec 2013 20:04:05.525,762.924
32,6 Dec 2013 01:09:06.380,6 Dec 2013 01:17:47.268,520.887
33,6 Dec 2013 02:45:37.901,6 Dec 2013 03:01:29.386,951.485
34,6 Dec 2013 04:24:30.789,6 Dec 2013 04:34:54.956,624.166
35,6 Dec 2013 07:35:58.636,6 Dec 2013 07:38:04.639,126.002
36,6 Dec 2013 09:11:40.355,6 Dec 2013 09:21:42.649,602.295
37,6 Dec 2013 10:51:09.578,6 Dec 2013 11:01:04.918,595.341
38,6 Dec 2013 12:31:16.317,6 Dec 2013 12:37:20.661,364.345
39,6 Dec 2013 17:15:31.134,6 Dec 2013 17:29:37.295,846.161
40,6 Dec 2013 18:56:20.463,6 Dec 2013 19:11:28.077,907.614
41,6 Dec 2013 20:48:26.868,6 Dec 2013 20:50:39.893,133.026
42,6 Dec 2013 22:31:57.693,6 Dec 2013 22:42:03.429,605.736
43,7 Dec 2013 00:11:37.815,7 Dec 2013 00:27:47.913,970.099
44,7 Dec 2013 01:52:58.790,7 Dec 2013 02:03:02.005,603.215
45,7 Dec 2013 03:32:11.063,7 Dec 2013 03:37:24.022,312.959
46,7 Dec 2013 05:07:53.989,7 Dec 2013 05:17:33.918,579.929
47,7 Dec 2013 06:46:52.010,7 Dec 2013 06:57:11.967,619.957
48,7 Dec 2013 08:29:02.960,7 Dec 2013 08:34:26.243,323.283
49,7 Dec 2013 14:48:50.649,7 Dec 2013 14:58:01.593,550.944
50,7 Dec 2013 16:23:57.051,7 Dec 2013 16:40:11.366,974.315
51,7 Dec 2013 18:09:37.294,7 Dec 2013 18:20:26.482,649.188
52,7 Dec 2013 19:59:02.688,7 Dec 2013 20:05:35.247,392.559
53,7 Dec 2013 21:39:45.507,7 Dec 2013 21:55:18.078,932.571

"Access","Start Time (UTCG)","Stop Time (UTCG)","Duration (sec)"
1,3 Dec 2013 01:51:08.998,3 Dec 2013 02:04:02.972,773.974
2,3 Dec 2013 03:28:10.241,3 Dec 2013 03:42:01.420,831.179
3,3 Dec 2013 05:06:52.966,3 Dec 2013 05:21:24.991,872.025
4,3 Dec 2013 06:47:22.147,3 Dec 2013 07:01:15.440,833.293
5,3 Dec 2013 08:29:58.610,3 Dec 2013 08:39:22.987,564.378
6,3 Dec 2013 14:45:58.860,3 Dec 2013 14:59:53.797,834.937
7,3 Dec 2013 16:24:40.165,3 Dec 2013 16:40:02.937,922.772
8,3 Dec 2013 18:14:57.463,3 Dec 2013 18:18:17.718,200.254
9,3 Dec 2013 20:01:17.077,3 Dec 2013 20:08:00.011,402.933
10,3 Dec 2013 21:37:37.507,3 Dec 2013 21:50:16.636,759.129
11,3 Dec 2013 23:14:49.894,3 Dec 2013 23:28:24.366,814.471
12,4 Dec 2013 00:53:50.993,4 Dec 2013 01:06:56.832,785.839
13,4 Dec 2013 02:34:51.284,4 Dec 2013 02:46:59.898,728.615
14,4 Dec 2013 04:16:41.443,4 Dec 2013 04:29:33.061,771.618
15,4 Dec 2013 05:58:07.397,4 Dec 2013 06:13:32.080,924.682
16,4 Dec 2013 07:35:04.584,4 Dec 2013 07:48:30.632,806.048
17,4 Dec 2013 12:13:30.167,4 Dec 2013 12:26:56.395,806.228
18,4 Dec 2013 13:49:43.411,4 Dec 2013 14:05:02.525,919.114
19,4 Dec 2013 18:57:16.951,4 Dec 2013 19:03:26.444,369.493
20,4 Dec 2013 20:36:05.761,4 Dec 2013 20:40:58.741,292.980
21,5 Dec 2013 03:25:04.962,5 Dec 2013 03:29:27.686,262.724
22,5 Dec 2013 04:57:27.762,5 Dec 2013 05:13:02.390,934.628
23,5 Dec 2013 06:34:33.160,5 Dec 2013 06:46:00.294,687.134
24,5 Dec 2013 08:10:23.067,5 Dec 2013 08:15:30.138,307.070
25,5 Dec 2013 09:39:46.438,5 Dec 2013 09:51:30.095,703.658
26,5 Dec 2013 11:12:54.666,5 Dec 2013 11:28:26.745,932.079
27,5 Dec 2013 12:53:35.891,5 Dec 2013 13:09:29.061,953.171
28,5 Dec 2013 14:33:32.341,5 Dec 2013 14:49:19.821,947.479
29,5 Dec 2013 16:11:55.229,5 Dec 2013 16:27:33.950,938.721
30,5 Dec 2013 17:49:15.305,5 Dec 2013 18:04:32.008,916.703
31,5 Dec 2013 19:26:43.829,5 Dec 2013 19:40:24.690,820.861
32,5 Dec 2013 21:08:02.236,5 Dec 2013 21:12:31.440,269.204
33,6 Dec 2013 02:21:07.953,6 Dec 2013 02:36:45.109,937.156
34,6 Dec 2013 03:59:38.178,6 Dec 2013 04:12:24.088,765.910
35,6 Dec 2013 08:47:03.801,6 Dec 2013 08:56:26.516,562.716
36,6 Dec 2013 10:26:12.010,6 Dec 2013 10:36:29.558,617.548
37,6 Dec 2013 12:06:11.332,6 Dec 2013 12:13:38.737,447.405
38,6 Dec 2013 16:52:22.390,6 Dec 2013 17:03:07.977,645.587
39,6 Dec 2013 18:30:10.803,6 Dec 2013 18:46:17.152,966.349
40,6 Dec 2013 20:18:59.614,6 Dec 2013 20:26:22.708,443.094
41,6 Dec 2013 22:07:14.018,6 Dec 2013 22:13:44.077,390.059
42,6 Dec 2013 23:46:38.479,7 Dec 2013 00:02:21.313,942.833
43,7 Dec 2013 01:27:12.988,7 Dec 2013 01:40:25.044,792.057
44,7 Dec 2013 03:09:07.705,7 Dec 2013 03:12:02.243,174.538
45,7 Dec 2013 04:43:36.826,7 Dec 2013 04:52:34.257,537.431
46,7 Dec 2013 06:21:52.467,7 Dec 2013 06:32:22.692,630.224
47,7 Dec 2013 08:02:58.363,7 Dec 2013 08:10:42.425,464.062
48,7 Dec 2013 15:59:03.541,7 Dec 2013 16:15:00.864,957.324
49,7 Dec 2013 17:42:15.207,7 Dec 2013 17:55:22.932,787.725
50,7 Dec 2013 19:33:09.502,7 Dec 2013 19:37:35.108,265.606
51,7 Dec 2013 21:14:36.242,7 Dec 2013 21:28:45.656,849.414

