Raw and processed data/Inclination variations/us_greatcircle_12sat_90deg/Aircraft-B747LAX_Narita-Transmitter-adsb_out6211-To-Satellite-700km_90deg_p1_1-Receiver-adsb_satrcvr2 Access.csv

"Access","Start Time (UTCG)","Stop Time (UTCG)","Duration (sec)"
1,3 Dec 2013 04:31:27.182,3 Dec 2013 04:35:53.374,266.192
2,3 Dec 2013 06:01:51.588,3 Dec 2013 06:17:41.434,949.846
3,3 Dec 2013 14:44:19.071,3 Dec 2013 14:46:03.755,104.684
4,3 Dec 2013 16:20:46.139,3 Dec 2013 16:28:20.759,454.620
5,3 Dec 2013 18:00:01.513,3 Dec 2013 18:09:45.787,584.274
6,3 Dec 2013 19:39:58.878,3 Dec 2013 19:52:19.327,740.449
7,3 Dec 2013 21:17:26.365,3 Dec 2013 21:32:53.102,926.737
8,4 Dec 2013 03:27:41.143,4 Dec 2013 03:42:10.779,869.636
9,4 Dec 2013 05:06:12.913,4 Dec 2013 05:17:55.454,702.541
10,4 Dec 2013 18:41:43.197,4 Dec 2013 18:56:55.951,912.755
11,4 Dec 2013 20:20:35.559,4 Dec 2013 20:31:58.194,682.635
12,5 Dec 2013 00:56:39.425,5 Dec 2013 01:03:14.608,395.183
13,5 Dec 2013 02:30:47.658,5 Dec 2013 02:45:40.056,892.398
14,5 Dec 2013 04:10:26.770,5 Dec 2013 04:26:19.826,953.056
15,5 Dec 2013 05:49:58.846,5 Dec 2013 06:05:56.749,957.903
16,5 Dec 2013 07:28:49.247,5 Dec 2013 07:44:34.540,945.293
17,5 Dec 2013 09:07:04.004,5 Dec 2013 09:22:14.281,910.278
18,5 Dec 2013 10:45:28.624,5 Dec 2013 10:58:44.300,795.676
19,5 Dec 2013 16:07:35.841,5 Dec 2013 16:20:47.821,791.980
20,5 Dec 2013 17:46:30.046,5 Dec 2013 18:00:53.354,863.308
21,6 Dec 2013 08:11:12.740,6 Dec 2013 08:27:13.553,960.814
22,6 Dec 2013 09:57:38.423,6 Dec 2013 10:03:59.173,380.750
23,6 Dec 2013 13:38:04.077,6 Dec 2013 13:41:38.324,214.247
24,6 Dec 2013 15:13:59.418,6 Dec 2013 15:30:07.219,967.801
25,6 Dec 2013 16:54:21.124,6 Dec 2013 17:05:51.106,689.982
26,6 Dec 2013 18:32:12.482,6 Dec 2013 18:41:12.244,539.762
27,6 Dec 2013 20:10:34.241,6 Dec 2013 20:17:32.365,418.124
28,6 Dec 2013 21:51:21.354,6 Dec 2013 21:53:06.906,105.552
29,7 Dec 2013 05:39:25.088,7 Dec 2013 05:53:57.319,872.230
30,7 Dec 2013 07:19:10.499,7 Dec 2013 07:31:52.843,762.344
31,7 Dec 2013 14:18:25.820,7 Dec 2013 14:28:38.080,612.260
32,7 Dec 2013 15:55:41.034,7 Dec 2013 16:08:28.783,767.749
33,7 Dec 2013 17:34:25.531,7 Dec 2013 17:48:26.529,840.997
34,7 Dec 2013 19:14:09.646,7 Dec 2013 19:29:14.349,904.703
35,7 Dec 2013 20:54:34.414,7 Dec 2013 21:10:37.798,963.384
36,7 Dec 2013 22:33:32.017,7 Dec 2013 22:43:45.210,613.193
37,8 Dec 2013 03:07:24.996,8 Dec 2013 03:18:48.020,683.024
38,8 Dec 2013 04:41:53.027,8 Dec 2013 04:56:58.271,905.245
39,8 Dec 2013 18:20:16.708,8 Dec 2013 18:31:52.980,696.272
40,8 Dec 2013 19:56:39.344,8 Dec 2013 20:11:23.685,884.341
41,9 Dec 2013 02:05:36.356,9 Dec 2013 02:17:41.024,724.667

"Access","Start Time (UTCG)","Stop Time (UTCG)","Duration (sec)"
1,3 Dec 2013 05:37:46.163,3 Dec 2013 05:52:59.907,913.744
2,3 Dec 2013 07:19:09.465,3 Dec 2013 07:29:34.741,625.276
3,3 Dec 2013 15:56:11.932,3 Dec 2013 16:03:04.221,412.289
4,3 Dec 2013 17:35:06.687,3 Dec 2013 17:44:18.748,552.062
5,3 Dec 2013 19:14:57.690,3 Dec 2013 19:26:35.302,697.612
6,3 Dec 2013 20:53:17.700,3 Dec 2013 21:08:44.138,926.439
7,3 Dec 2013 22:31:52.651,3 Dec 2013 22:41:01.542,548.891
8,4 Dec 2013 03:04:52.649,4 Dec 2013 03:17:22.952,750.303
9,4 Dec 2013 04:40:18.045,4 Dec 2013 04:54:44.207,866.162
10,4 Dec 2013 18:17:50.406,4 Dec 2013 18:31:12.413,802.007
11,4 Dec 2013 19:55:24.338,4 Dec 2013 20:09:22.292,837.954
12,5 Dec 2013 02:06:00.477,5 Dec 2013 02:20:17.479,857.002
13,5 Dec 2013 03:45:30.316,5 Dec 2013 04:01:16.231,945.915
14,5 Dec 2013 05:25:09.115,5 Dec 2013 05:41:08.080,958.965
15,5 Dec 2013 07:04:10.876,5 Dec 2013 07:20:00.564,949.688
16,5 Dec 2013 08:42:31.902,5 Dec 2013 08:57:54.892,922.989
17,5 Dec 2013 10:20:47.161,5 Dec 2013 10:34:45.654,838.493
18,5 Dec 2013 15:44:07.556,5 Dec 2013 15:53:05.807,538.252
19,5 Dec 2013 17:21:19.813,5 Dec 2013 17:37:02.767,942.954
20,6 Dec 2013 07:46:56.877,6 Dec 2013 08:02:00.190,903.313
21,6 Dec 2013 09:28:53.987,6 Dec 2013 09:40:58.154,724.167
22,6 Dec 2013 14:49:00.460,6 Dec 2013 15:04:50.370,949.910
23,6 Dec 2013 16:29:55.725,6 Dec 2013 16:42:07.164,731.439
24,6 Dec 2013 18:07:43.092,6 Dec 2013 18:17:16.578,573.486
25,6 Dec 2013 19:45:53.202,6 Dec 2013 19:53:23.109,449.907
26,6 Dec 2013 21:25:29.475,6 Dec 2013 21:29:45.394,255.919
27,7 Dec 2013 05:16:28.816,7 Dec 2013 05:28:40.571,731.755
28,7 Dec 2013 06:52:57.935,7 Dec 2013 07:07:55.557,897.622
29,7 Dec 2013 13:54:30.210,7 Dec 2013 14:03:27.486,537.276
30,7 Dec 2013 15:31:12.106,7 Dec 2013 15:43:33.597,741.491
31,7 Dec 2013 17:09:37.911,7 Dec 2013 17:23:23.063,825.152
32,7 Dec 2013 18:49:09.265,7 Dec 2013 19:03:57.540,888.275
33,7 Dec 2013 20:29:24.829,7 Dec 2013 20:45:16.353,951.524
34,7 Dec 2013 22:08:28.509,7 Dec 2013 22:21:38.043,789.534
35,8 Dec 2013 02:46:05.672,8 Dec 2013 02:53:05.231,419.559
36,8 Dec 2013 04:17:12.678,8 Dec 2013 04:32:52.470,939.792
37,8 Dec 2013 17:59:07.404,8 Dec 2013 18:02:54.859,227.455
38,8 Dec 2013 19:32:02.445,8 Dec 2013 19:47:40.392,937.947
39,8 Dec 2013 21:14:59.744,8 Dec 2013 21:15:14.078,14.335
40,9 Dec 2013 01:42:31.262,9 Dec 2013 01:56:06.726,815.464

"Access","Start Time (UTCG)","Stop Time (UTCG)","Duration (sec)"
1,3 Dec 2013 05:14:25.106,3 Dec 2013 05:28:01.843,816.737
2,3 Dec 2013 06:52:17.999,3 Dec 2013 07:06:11.715,833.716
3,3 Dec 2013 15:31:48.011,3 Dec 2013 15:37:44.372,356.361
4,3 Dec 2013 17:10:15.090,3 Dec 2013 17:18:56.246,521.155
5,3 Dec 2013 18:49:57.557,3 Dec 2013 19:00:54.432,656.875
6,3 Dec 2013 20:29:33.059,3 Dec 2013 20:43:51.676,858.617
7,3 Dec 2013 22:06:38.447,3 Dec 2013 22:19:09.758,751.311
8,4 Dec 2013 02:43:00.050,4 Dec 2013 02:52:06.541,546.491
9,4 Dec 2013 04:15:23.385,4 Dec 2013 04:30:53.661,930.276
10,4 Dec 2013 17:54:51.567,4 Dec 2013 18:04:04.149,552.582
11,4 Dec 2013 19:30:34.584,4 Dec 2013 19:45:56.246,921.663
12,5 Dec 2013 01:41:20.239,5 Dec 2013 01:54:47.479,807.240
13,5 Dec 2013 03:20:34.161,5 Dec 2013 03:36:08.668,934.507
14,5 Dec 2013 05:00:16.870,5 Dec 2013 05:16:15.705,958.835
15,5 Dec 2013 06:39:29.779,5 Dec 2013 06:55:22.970,953.191
16,5 Dec 2013 08:17:59.223,5 Dec 2013 08:33:31.723,932.500
17,5 Dec 2013 09:56:10.373,5 Dec 2013 10:10:40.319,869.945
18,5 Dec 2013 11:39:40.130,5 Dec 2013 11:45:34.456,354.326
19,5 Dec 2013 16:56:27.121,5 Dec 2013 17:12:26.239,959.118
20,5 Dec 2013 18:39:02.515,5 Dec 2013 18:44:50.904,348.389
21,6 Dec 2013 07:23:35.099,6 Dec 2013 07:36:20.543,765.444
22,6 Dec 2013 09:02:03.784,6 Dec 2013 09:16:46.406,882.622
23,6 Dec 2013 14:24:22.040,6 Dec 2013 14:38:44.136,862.096
24,6 Dec 2013 16:05:07.918,6 Dec 2013 16:18:23.803,795.886
25,6 Dec 2013 17:43:14.853,6 Dec 2013 17:53:24.912,610.059
26,6 Dec 2013 19:21:16.706,6 Dec 2013 19:29:15.950,479.243
27,6 Dec 2013 21:00:18.093,6 Dec 2013 21:05:48.245,330.152
28,7 Dec 2013 04:54:50.720,7 Dec 2013 05:02:37.360,466.640
29,7 Dec 2013 06:27:42.209,7 Dec 2013 06:43:32.617,950.408
30,7 Dec 2013 13:30:53.389,7 Dec 2013 13:38:00.706,427.318
31,7 Dec 2013 15:06:49.151,7 Dec 2013 15:18:37.995,708.844
32,7 Dec 2013 16:44:54.372,7 Dec 2013 16:58:22.669,808.297
33,7 Dec 2013 18:24:11.569,7 Dec 2013 18:38:43.770,872.202
34,7 Dec 2013 20:04:17.536,7 Dec 2013 20:19:54.610,937.074
35,7 Dec 2013 21:43:50.644,7 Dec 2013 21:58:40.428,889.784
36,8 Dec 2013 03:53:13.984,8 Dec 2013 04:08:28.369,914.385
37,8 Dec 2013 05:34:24.434,8 Dec 2013 05:43:10.013,525.579
38,8 Dec 2013 19:07:41.388,8 Dec 2013 19:23:15.911,934.524
39,8 Dec 2013 20:46:55.116,8 Dec 2013 20:56:25.670,570.554
40,9 Dec 2013 01:20:14.514,9 Dec 2013 01:31:09.367,654.852

"Access","Start Time (UTCG)","Stop Time (UTCG)","Duration (sec)"
1,3 Dec 2013 04:51:59.408,3 Dec 2013 05:02:38.126,638.718
2,3 Dec 2013 06:26:40.012,3 Dec 2013 06:42:07.174,927.162
3,3 Dec 2013 15:07:40.547,3 Dec 2013 15:12:14.344,273.798
4,3 Dec 2013 16:45:27.790,3 Dec 2013 16:53:37.391,489.600
5,3 Dec 2013 18:24:58.682,3 Dec 2013 18:35:17.722,619.040
6,3 Dec 2013 20:05:01.096,3 Dec 2013 20:18:05.212,784.116
7,3 Dec 2013 21:41:53.148,3 Dec 2013 21:56:22.594,869.446
8,4 Dec 2013 03:51:12.359,4 Dec 2013 04:06:40.769,928.410
9,4 Dec 2013 05:34:45.685,4 Dec 2013 05:38:50.792,245.107
10,4 Dec 2013 19:06:00.545,4 Dec 2013 19:21:47.587,947.042
11,4 Dec 2013 20:46:37.834,4 Dec 2013 20:53:11.914,394.080
12,5 Dec 2013 01:17:42.513,5 Dec 2013 01:29:07.332,684.818
13,5 Dec 2013 02:55:39.474,5 Dec 2013 03:10:56.804,917.329
14,5 Dec 2013 04:35:22.550,5 Dec 2013 04:51:19.623,957.073
15,5 Dec 2013 06:14:45.774,5 Dec 2013 06:30:41.706,955.932
16,5 Dec 2013 07:53:25.206,5 Dec 2013 08:09:04.920,939.714
17,5 Dec 2013 09:31:36.453,5 Dec 2013 09:46:29.588,893.135
18,5 Dec 2013 11:10:37.984,5 Dec 2013 11:22:46.276,728.291
19,5 Dec 2013 16:31:50.635,5 Dec 2013 16:47:04.191,913.556
20,5 Dec 2013 18:12:07.657,5 Dec 2013 18:23:47.002,699.345
21,6 Dec 2013 07:01:44.325,6 Dec 2013 07:09:39.963,475.638
22,6 Dec 2013 08:36:14.404,6 Dec 2013 08:52:08.833,954.428
23,6 Dec 2013 14:00:15.059,6 Dec 2013 14:11:31.551,676.492
24,6 Dec 2013 15:39:18.954,6 Dec 2013 15:54:37.876,918.922
25,6 Dec 2013 17:18:47.535,6 Dec 2013 17:29:36.692,649.157
26,6 Dec 2013 18:56:43.456,6 Dec 2013 19:05:12.102,508.646
27,6 Dec 2013 20:35:21.607,6 Dec 2013 20:41:41.786,380.179
28,7 Dec 2013 06:03:11.789,7 Dec 2013 06:18:52.837,941.048
29,7 Dec 2013 07:47:04.367,7 Dec 2013 07:54:45.839,461.472
30,7 Dec 2013 13:08:02.094,7 Dec 2013 13:11:50.265,228.171
31,7 Dec 2013 14:42:33.168,7 Dec 2013 14:53:40.291,667.123
32,7 Dec 2013 16:20:15.281,7 Dec 2013 16:33:24.820,789.540
33,7 Dec 2013 17:59:16.872,7 Dec 2013 18:13:33.400,856.528
34,7 Dec 2013 19:39:12.463,7 Dec 2013 19:54:33.630,921.167
35,7 Dec 2013 21:19:31.788,7 Dec 2013 21:35:02.012,930.224
36,7 Dec 2013 22:59:47.771,7 Dec 2013 23:04:12.567,264.796
37,8 Dec 2013 03:29:56.058,8 Dec 2013 03:43:48.218,832.160
38,8 Dec 2013 05:07:24.589,8 Dec 2013 05:20:35.996,791.407
39,8 Dec 2013 18:43:40.801,8 Dec 2013 18:58:05.923,865.122
40,8 Dec 2013 20:21:33.287,8 Dec 2013 20:34:23.132,769.845
41,9 Dec 2013 00:59:22.052,9 Dec 2013 01:05:14.029,351.976

"Access","Start Time (UTCG)","Stop Time (UTCG)","Duration (sec)"
1,3 Dec 2013 03:08:48.391,3 Dec 2013 03:23:23.721,875.331
2,3 Dec 2013 04:46:48.069,3 Dec 2013 04:59:22.893,754.824
3,3 Dec 2013 09:24:03.836,3 Dec 2013 09:30:41.377,397.541
4,3 Dec 2013 10:55:10.644,3 Dec 2013 11:11:19.196,968.551
5,3 Dec 2013 12:36:01.414,3 Dec 2013 12:51:58.562,957.148
6,3 Dec 2013 14:16:35.898,3 Dec 2013 14:31:52.150,916.252
7,3 Dec 2013 15:56:23.060,3 Dec 2013 16:10:50.600,867.540
8,3 Dec 2013 17:35:38.622,3 Dec 2013 17:48:38.992,780.370
9,3 Dec 2013 19:15:39.312,3 Dec 2013 19:24:35.011,535.699
10,4 Dec 2013 00:34:21.484,4 Dec 2013 00:46:02.853,701.370
11,4 Dec 2013 02:12:15.392,4 Dec 2013 02:27:18.987,903.594
12,4 Dec 2013 13:29:45.047,4 Dec 2013 13:31:03.416,78.369
13,4 Dec 2013 15:03:18.473,4 Dec 2013 15:10:29.514,431.041
14,4 Dec 2013 16:36:53.979,4 Dec 2013 16:52:45.055,951.075
15,4 Dec 2013 18:21:51.383,4 Dec 2013 18:30:39.530,528.147
16,4 Dec 2013 23:39:26.587,4 Dec 2013 23:55:34.425,967.838
17,5 Dec 2013 14:06:08.574,5 Dec 2013 14:19:49.525,820.951
18,5 Dec 2013 15:44:46.223,5 Dec 2013 15:58:44.900,838.677
19,5 Dec 2013 21:08:52.173,5 Dec 2013 21:18:45.123,592.950
20,5 Dec 2013 22:44:24.939,5 Dec 2013 22:58:19.605,834.666
21,6 Dec 2013 00:21:44.852,6 Dec 2013 00:36:57.244,912.392
22,6 Dec 2013 02:00:10.627,6 Dec 2013 02:15:56.575,945.948
23,6 Dec 2013 03:39:35.937,6 Dec 2013 03:55:40.799,964.861
24,6 Dec 2013 05:19:56.360,6 Dec 2013 05:35:52.081,955.722
25,6 Dec 2013 07:00:43.028,6 Dec 2013 07:11:16.413,633.385
26,6 Dec 2013 11:35:02.157,6 Dec 2013 11:45:08.407,606.250
27,6 Dec 2013 13:08:38.134,6 Dec 2013 13:24:06.859,928.726
28,7 Dec 2013 02:48:14.574,7 Dec 2013 02:57:53.979,579.404
29,7 Dec 2013 04:23:23.104,7 Dec 2013 04:38:30.179,907.075
30,7 Dec 2013 10:33:00.424,7 Dec 2013 10:47:57.381,896.957
31,7 Dec 2013 12:11:55.095,7 Dec 2013 12:26:35.735,880.639
32,7 Dec 2013 13:53:58.503,7 Dec 2013 14:06:47.122,768.619
33,7 Dec 2013 15:35:05.748,7 Dec 2013 15:46:20.913,675.165
34,7 Dec 2013 17:15:32.861,7 Dec 2013 17:24:39.123,546.262
35,8 Dec 2013 01:48:22.099,8 Dec 2013 02:04:15.255,953.156
36,8 Dec 2013 03:29:45.238,8 Dec 2013 03:36:26.063,400.824
37,8 Dec 2013 09:46:43.720,8 Dec 2013 09:51:31.458,287.738
38,8 Dec 2013 11:23:03.307,8 Dec 2013 11:33:02.235,598.928
39,8 Dec 2013 13:00:31.756,8 Dec 2013 13:12:06.139,694.383
40,8 Dec 2013 14:37:21.250,8 Dec 2013 14:50:08.905,767.655
41,8 Dec 2013 16:13:23.172,8 Dec 2013 16:27:40.952,857.780
42,8 Dec 2013 17:53:32.195,8 Dec 2013 18:07:37.818,845.623
43,8 Dec 2013 23:15:11.529,8 Dec 2013 23:30:08.406,896.877
44,9 Dec 2013 00:55:52.853,9 Dec 2013 01:08:10.114,737.261

"Access","Start Time (UTCG)","Stop Time (UTCG)","Duration (sec)"
1,3 Dec 2013 02:45:19.446,3 Dec 2013 02:57:18.581,719.135
2,3 Dec 2013 04:21:52.232,3 Dec 2013 04:36:28.211,875.979
3,3 Dec 2013 10:30:42.008,3 Dec 2013 10:46:01.065,919.056
4,3 Dec 2013 12:10:48.068,3 Dec 2013 12:26:53.025,964.957
5,3 Dec 2013 13:51:31.298,3 Dec 2013 14:06:58.364,927.067
6,3 Dec 2013 15:31:30.635,3 Dec 2013 15:46:11.935,881.300
7,3 Dec 2013 17:10:50.046,3 Dec 2013 17:24:19.560,809.514
8,3 Dec 2013 18:50:25.387,3 Dec 2013 19:00:53.695,628.308
9,4 Dec 2013 00:12:06.145,4 Dec 2013 00:17:01.177,295.032
10,4 Dec 2013 01:47:18.810,4 Dec 2013 02:03:12.867,954.057
11,4 Dec 2013 14:39:51.086,4 Dec 2013 14:45:49.501,358.416
12,4 Dec 2013 16:12:51.140,4 Dec 2013 16:27:18.865,867.725
13,4 Dec 2013 17:53:53.451,4 Dec 2013 18:07:01.136,787.684
14,4 Dec 2013 23:14:35.279,4 Dec 2013 23:30:08.059,932.780
15,5 Dec 2013 00:56:26.456,5 Dec 2013 01:06:45.073,618.617
16,5 Dec 2013 13:43:40.083,5 Dec 2013 13:54:08.575,628.492
17,5 Dec 2013 15:18:55.454,5 Dec 2013 15:34:28.029,932.575
18,5 Dec 2013 20:45:44.742,5 Dec 2013 20:53:13.141,448.399
19,5 Dec 2013 22:20:17.902,5 Dec 2013 22:33:36.591,798.689
20,5 Dec 2013 23:57:18.228,6 Dec 2013 00:12:17.605,899.377
21,6 Dec 2013 01:35:28.434,6 Dec 2013 01:51:07.760,939.326
22,6 Dec 2013 03:14:39.314,6 Dec 2013 03:30:40.787,961.472
23,6 Dec 2013 04:54:46.042,6 Dec 2013 05:10:49.301,963.259
24,6 Dec 2013 06:35:42.409,6 Dec 2013 06:49:05.325,802.916
25,6 Dec 2013 11:14:44.655,6 Dec 2013 11:18:29.110,224.455
26,6 Dec 2013 12:44:08.348,6 Dec 2013 12:59:48.887,940.538
27,7 Dec 2013 03:58:56.300,7 Dec 2013 04:14:36.376,940.077
28,7 Dec 2013 05:39:05.810,7 Dec 2013 05:45:09.899,364.089
29,7 Dec 2013 10:09:58.256,7 Dec 2013 10:23:21.940,803.684
30,7 Dec 2013 11:46:20.804,7 Dec 2013 12:01:28.926,908.122
31,7 Dec 2013 13:28:31.777,7 Dec 2013 13:41:46.828,795.051
32,7 Dec 2013 15:09:54.706,7 Dec 2013 15:21:32.709,698.002
33,7 Dec 2013 16:50:25.803,7 Dec 2013 17:00:14.736,588.933
34,7 Dec 2013 18:31:46.561,7 Dec 2013 18:36:30.166,283.605
35,8 Dec 2013 01:23:55.645,8 Dec 2013 01:39:05.928,910.282
36,8 Dec 2013 03:03:25.731,8 Dec 2013 03:15:08.060,702.329
37,8 Dec 2013 10:58:42.971,8 Dec 2013 11:08:00.463,557.492
38,8 Dec 2013 12:36:11.533,8 Dec 2013 12:47:27.587,676.054
39,8 Dec 2013 14:13:14.070,8 Dec 2013 14:25:41.858,747.788
40,8 Dec 2013 15:49:25.418,8 Dec 2013 16:03:20.178,834.760
41,8 Dec 2013 17:27:19.457,8 Dec 2013 17:43:02.446,942.989
42,8 Dec 2013 22:50:54.819,8 Dec 2013 23:03:27.437,752.618
43,9 Dec 2013 00:30:07.126,9 Dec 2013 00:44:57.094,889.968

"Access","Start Time (UTCG)","Stop Time (UTCG)","Duration (sec)"
1,3 Dec 2013 02:23:37.218,3 Dec 2013 02:28:56.919,319.700
2,3 Dec 2013 03:57:13.896,3 Dec 2013 04:12:49.039,935.143
3,3 Dec 2013 10:07:32.554,3 Dec 2013 10:21:19.978,827.424
4,3 Dec 2013 11:45:34.434,3 Dec 2013 12:01:44.746,970.312
5,3 Dec 2013 13:26:23.713,3 Dec 2013 13:42:01.367,937.654
6,3 Dec 2013 15:06:35.497,3 Dec 2013 15:21:29.167,893.670
7,3 Dec 2013 16:46:01.971,3 Dec 2013 16:59:54.706,832.734
8,3 Dec 2013 18:25:23.772,3 Dec 2013 18:36:57.889,694.118
9,4 Dec 2013 01:22:37.977,4 Dec 2013 01:38:22.584,944.608
10,4 Dec 2013 03:03:27.003,4 Dec 2013 03:12:43.823,556.820
11,4 Dec 2013 14:16:23.049,4 Dec 2013 14:21:05.687,282.638
12,4 Dec 2013 15:49:51.442,4 Dec 2013 16:01:16.634,685.192
13,4 Dec 2013 17:27:21.590,4 Dec 2013 17:42:36.724,915.134
14,4 Dec 2013 22:50:04.614,4 Dec 2013 23:03:49.848,825.235
15,5 Dec 2013 00:30:09.359,5 Dec 2013 00:44:05.712,836.353
16,5 Dec 2013 13:23:58.631,5 Dec 2013 13:26:14.219,135.588
17,5 Dec 2013 14:53:54.777,5 Dec 2013 15:09:51.676,956.900
18,5 Dec 2013 21:56:18.141,5 Dec 2013 22:08:48.801,750.660
19,5 Dec 2013 23:32:55.787,5 Dec 2013 23:47:38.778,882.990
20,6 Dec 2013 01:10:50.034,6 Dec 2013 01:26:21.807,931.773
21,6 Dec 2013 02:49:46.155,6 Dec 2013 03:05:43.201,957.046
22,6 Dec 2013 04:29:39.293,6 Dec 2013 04:45:45.840,966.547
23,6 Dec 2013 06:10:29.369,6 Dec 2013 06:25:50.619,921.249
24,6 Dec 2013 12:20:19.802,6 Dec 2013 12:35:14.723,894.921
25,6 Dec 2013 14:00:19.160,6 Dec 2013 14:11:17.679,658.519
26,7 Dec 2013 03:34:47.052,7 Dec 2013 03:50:01.362,914.310
27,7 Dec 2013 05:13:10.330,7 Dec 2013 05:24:06.693,656.363
28,7 Dec 2013 09:47:44.875,7 Dec 2013 09:58:22.052,637.177
29,7 Dec 2013 11:21:05.297,7 Dec 2013 11:36:20.347,915.050
30,7 Dec 2013 13:03:01.709,7 Dec 2013 13:16:44.698,822.990
31,7 Dec 2013 14:44:40.038,7 Dec 2013 14:56:40.592,720.554
32,7 Dec 2013 16:25:20.099,7 Dec 2013 16:35:42.774,622.675
33,7 Dec 2013 18:06:04.511,7 Dec 2013 18:12:54.727,410.216
34,8 Dec 2013 00:59:52.557,8 Dec 2013 01:13:02.473,789.915
35,8 Dec 2013 02:38:03.662,8 Dec 2013 02:52:20.385,856.723
36,8 Dec 2013 10:34:28.050,8 Dec 2013 10:42:48.995,500.945
37,8 Dec 2013 12:11:49.285,8 Dec 2013 12:22:44.642,655.357
38,8 Dec 2013 13:49:03.392,8 Dec 2013 14:01:12.694,729.302
39,8 Dec 2013 15:25:26.361,8 Dec 2013 15:38:57.908,811.547
40,8 Dec 2013 17:01:57.217,8 Dec 2013 17:18:06.165,968.948
41,8 Dec 2013 22:27:35.502,8 Dec 2013 22:35:06.963,451.460
42,9 Dec 2013 00:04:50.238,9 Dec 2013 00:20:47.384,957.146

"Access","Start Time (UTCG)","Stop Time (UTCG)","Duration (sec)"
1,3 Dec 2013 03:32:51.283,3 Dec 2013 03:48:28.728,937.445
2,3 Dec 2013 05:12:14.041,3 Dec 2013 05:21:18.211,544.170
3,3 Dec 2013 09:45:10.020,3 Dec 2013 09:56:25.863,675.843
4,3 Dec 2013 11:20:21.572,3 Dec 2013 11:36:33.581,972.009
5,3 Dec 2013 13:01:13.550,3 Dec 2013 13:17:01.378,947.828
6,3 Dec 2013 14:41:37.306,3 Dec 2013 14:56:42.498,905.193
7,3 Dec 2013 16:21:13.272,3 Dec 2013 16:35:24.940,851.668
8,3 Dec 2013 18:00:29.191,3 Dec 2013 18:12:52.211,743.019
9,3 Dec 2013 19:41:18.034,3 Dec 2013 19:47:49.931,391.897
10,4 Dec 2013 00:58:14.959,4 Dec 2013 01:12:44.541,869.583
11,4 Dec 2013 02:37:31.917,4 Dec 2013 02:50:36.232,784.314
12,4 Dec 2013 13:52:56.383,4 Dec 2013 13:56:15.205,198.822
13,4 Dec 2013 15:26:45.130,4 Dec 2013 15:35:06.754,501.624
14,4 Dec 2013 17:01:44.629,4 Dec 2013 17:17:49.940,965.311
15,4 Dec 2013 22:26:10.708,4 Dec 2013 22:36:16.931,606.223
16,5 Dec 2013 00:04:36.245,5 Dec 2013 00:20:14.949,938.704
17,5 Dec 2013 14:29:38.321,5 Dec 2013 14:44:59.643,921.322
18,5 Dec 2013 16:11:48.692,5 Dec 2013 16:22:25.549,636.857
19,5 Dec 2013 21:32:28.053,5 Dec 2013 21:43:53.305,685.252
20,5 Dec 2013 23:08:37.855,5 Dec 2013 23:22:59.837,861.982
21,6 Dec 2013 00:46:15.488,6 Dec 2013 01:01:38.448,922.959
22,6 Dec 2013 02:24:56.561,6 Dec 2013 02:40:48.398,951.836
23,6 Dec 2013 04:04:35.940,6 Dec 2013 04:20:42.719,966.778
24,6 Dec 2013 05:45:10.603,6 Dec 2013 06:00:52.985,942.382
25,6 Dec 2013 07:26:50.700,6 Dec 2013 07:31:53.763,303.063
26,6 Dec 2013 11:57:14.175,6 Dec 2013 12:10:24.086,789.911
27,6 Dec 2013 13:33:54.732,6 Dec 2013 13:48:02.929,848.197
28,7 Dec 2013 03:11:03.623,7 Dec 2013 03:24:37.178,813.556
29,7 Dec 2013 04:48:06.024,7 Dec 2013 05:01:42.754,816.730
30,7 Dec 2013 09:26:58.817,7 Dec 2013 09:32:22.058,323.241
31,7 Dec 2013 10:56:42.944,7 Dec 2013 11:12:13.768,930.824
32,7 Dec 2013 12:37:29.132,7 Dec 2013 12:51:40.971,851.839
33,7 Dec 2013 14:19:21.334,7 Dec 2013 14:31:45.205,743.872
34,7 Dec 2013 16:00:13.877,7 Dec 2013 16:11:04.518,650.641
35,7 Dec 2013 17:40:44.109,7 Dec 2013 17:48:53.834,489.725
36,8 Dec 2013 00:36:42.008,8 Dec 2013 00:45:30.347,528.339
37,8 Dec 2013 02:13:04.811,8 Dec 2013 02:28:39.945,935.134
38,8 Dec 2013 10:10:23.815,8 Dec 2013 10:17:23.464,419.649
39,8 Dec 2013 11:47:26.073,8 Dec 2013 11:57:56.510,630.437
40,8 Dec 2013 13:24:49.209,8 Dec 2013 13:36:40.967,711.757
41,8 Dec 2013 15:01:25.187,8 Dec 2013 15:14:34.181,788.994
42,8 Dec 2013 16:37:20.992,8 Dec 2013 16:52:49.926,928.934
43,8 Dec 2013 18:20:55.102,8 Dec 2013 18:31:39.049,643.947
44,8 Dec 2013 23:39:52.151,8 Dec 2013 23:55:51.362,959.211
45,9 Dec 2013 01:22:53.726,9 Dec 2013 01:29:37.561,403.835

"Access","Start Time (UTCG)","Stop Time (UTCG)","Duration (sec)"
1,3 Dec 2013 01:02:29.552,3 Dec 2013 01:18:05.648,936.096
2,3 Dec 2013 02:46:28.464,3 Dec 2013 02:56:42.895,614.430
3,3 Dec 2013 08:05:04.639,3 Dec 2013 08:21:06.352,961.713
4,3 Dec 2013 09:48:30.895,3 Dec 2013 09:54:15.715,344.820
5,3 Dec 2013 22:32:51.804,3 Dec 2013 22:45:21.410,749.606
6,4 Dec 2013 00:10:22.740,4 Dec 2013 00:25:14.611,891.871
7,4 Dec 2013 05:34:19.436,4 Dec 2013 05:47:12.372,772.936
8,4 Dec 2013 07:11:07.972,4 Dec 2013 07:26:33.925,925.953
9,4 Dec 2013 08:48:25.972,4 Dec 2013 09:04:08.417,942.445
10,4 Dec 2013 10:26:34.111,4 Dec 2013 10:42:11.563,937.452
11,4 Dec 2013 12:05:39.290,4 Dec 2013 12:20:58.302,919.012
12,4 Dec 2013 13:45:51.949,4 Dec 2013 14:00:03.501,851.552
13,4 Dec 2013 15:27:52.151,4 Dec 2013 15:38:01.211,609.060
14,4 Dec 2013 20:02:53.077,4 Dec 2013 20:11:00.413,487.336
15,4 Dec 2013 21:35:17.472,4 Dec 2013 21:51:01.633,944.161
16,5 Dec 2013 11:16:44.078,5 Dec 2013 11:23:46.771,422.693
17,5 Dec 2013 12:50:19.475,5 Dec 2013 13:05:39.773,920.298
18,5 Dec 2013 19:00:21.960,5 Dec 2013 19:15:08.702,886.742
19,5 Dec 2013 20:39:33.728,5 Dec 2013 20:50:10.070,636.342
20,5 Dec 2013 22:25:14.311,5 Dec 2013 22:28:55.246,220.935
21,6 Dec 2013 10:14:54.373,6 Dec 2013 10:30:33.206,938.832
22,6 Dec 2013 11:54:49.024,6 Dec 2013 12:04:24.464,575.440
23,6 Dec 2013 18:07:35.665,6 Dec 2013 18:19:23.795,708.130
24,6 Dec 2013 19:45:59.503,6 Dec 2013 20:00:06.469,846.967
25,6 Dec 2013 21:24:32.552,6 Dec 2013 21:39:25.472,892.920
26,6 Dec 2013 23:02:26.488,6 Dec 2013 23:17:43.798,917.310
27,7 Dec 2013 00:39:40.585,7 Dec 2013 00:55:15.836,935.251
28,7 Dec 2013 02:18:36.690,7 Dec 2013 02:33:10.249,873.560
29,7 Dec 2013 07:41:14.317,7 Dec 2013 07:55:28.492,854.175
30,7 Dec 2013 09:21:02.336,7 Dec 2013 09:34:30.644,808.308
31,7 Dec 2013 23:45:26.272,8 Dec 2013 00:01:29.446,963.174
32,8 Dec 2013 05:11:45.169,8 Dec 2013 05:17:37.617,352.448
33,8 Dec 2013 06:48:41.261,8 Dec 2013 07:04:27.372,946.110
34,8 Dec 2013 08:26:08.481,8 Dec 2013 08:40:53.840,885.359
35,8 Dec 2013 10:03:51.809,8 Dec 2013 10:17:44.296,832.488
36,8 Dec 2013 11:42:20.582,8 Dec 2013 11:55:22.258,781.676
37,8 Dec 2013 13:22:02.363,8 Dec 2013 13:33:22.898,680.535
38,8 Dec 2013 15:04:24.597,8 Dec 2013 15:09:40.513,315.916
39,8 Dec 2013 21:12:39.739,8 Dec 2013 21:27:46.863,907.123
40,8 Dec 2013 22:53:39.542,8 Dec 2013 23:04:32.867,653.326

"Access","Start Time (UTCG)","Stop Time (UTCG)","Duration (sec)"
1,3 Dec 2013 02:18:55.987,3 Dec 2013 02:32:47.100,831.113
2,3 Dec 2013 07:40:22.237,3 Dec 2013 07:55:28.360,906.123
3,3 Dec 2013 09:21:12.943,3 Dec 2013 09:33:08.754,715.811
4,3 Dec 2013 22:11:07.657,3 Dec 2013 22:18:59.705,472.048
5,3 Dec 2013 23:44:49.377,4 Dec 2013 00:00:43.054,953.677
6,4 Dec 2013 05:11:00.581,4 Dec 2013 05:18:50.441,469.860
7,4 Dec 2013 06:46:57.065,4 Dec 2013 07:02:09.580,912.515
8,4 Dec 2013 08:24:01.798,4 Dec 2013 08:39:43.501,941.703
9,4 Dec 2013 10:01:57.108,4 Dec 2013 10:17:36.632,939.524
10,4 Dec 2013 11:40:47.137,4 Dec 2013 11:56:13.165,926.027
11,4 Dec 2013 13:20:41.529,4 Dec 2013 13:35:18.600,877.071
12,4 Dec 2013 15:02:04.972,4 Dec 2013 15:13:48.097,703.126
13,4 Dec 2013 21:10:59.281,4 Dec 2013 21:26:31.890,932.609
14,4 Dec 2013 22:54:02.809,4 Dec 2013 23:01:26.006,443.197
15,5 Dec 2013 12:26:02.039,5 Dec 2013 12:41:37.467,935.428
16,5 Dec 2013 14:05:14.365,5 Dec 2013 14:13:15.204,480.839
17,5 Dec 2013 18:37:25.146,5 Dec 2013 18:50:28.072,782.926
18,5 Dec 2013 20:13:20.705,5 Dec 2013 20:27:11.945,831.240
19,5 Dec 2013 21:58:50.685,5 Dec 2013 22:04:24.869,334.184
20,6 Dec 2013 09:50:43.011,6 Dec 2013 10:05:07.868,864.857
21,6 Dec 2013 11:29:14.247,6 Dec 2013 11:42:16.510,782.263
22,6 Dec 2013 17:43:15.014,6 Dec 2013 17:53:52.107,637.093
23,6 Dec 2013 19:21:19.412,6 Dec 2013 19:35:05.129,825.717
24,6 Dec 2013 20:59:56.998,6 Dec 2013 21:14:42.047,885.049
25,6 Dec 2013 22:38:02.418,6 Dec 2013 22:53:14.018,911.601
26,7 Dec 2013 00:15:24.321,7 Dec 2013 00:30:56.727,932.406
27,7 Dec 2013 01:52:33.567,7 Dec 2013 02:08:29.026,955.459
28,7 Dec 2013 07:17:15.297,7 Dec 2013 07:28:23.782,668.484
29,7 Dec 2013 08:55:36.183,7 Dec 2013 09:10:57.451,921.267
30,7 Dec 2013 23:20:57.290,7 Dec 2013 23:36:28.058,930.768
31,8 Dec 2013 01:04:02.305,8 Dec 2013 01:14:31.698,629.393
32,8 Dec 2013 06:23:35.559,8 Dec 2013 06:39:35.914,960.356
33,8 Dec 2013 08:01:47.822,8 Dec 2013 08:16:46.751,898.929
34,8 Dec 2013 09:39:22.548,8 Dec 2013 09:53:27.409,844.861
35,8 Dec 2013 11:17:37.805,8 Dec 2013 11:30:53.743,795.938
36,8 Dec 2013 12:56:57.956,8 Dec 2013 13:08:54.214,716.258
37,8 Dec 2013 14:38:15.599,8 Dec 2013 14:46:07.412,471.813
38,8 Dec 2013 20:49:23.386,8 Dec 2013 21:02:47.028,803.641
39,8 Dec 2013 22:26:57.493,8 Dec 2013 22:41:04.008,846.515

"Access","Start Time (UTCG)","Stop Time (UTCG)","Duration (sec)"
1,3 Dec 2013 01:52:37.461,3 Dec 2013 02:08:14.203,936.743
2,3 Dec 2013 07:16:02.567,3 Dec 2013 07:28:54.114,771.547
3,3 Dec 2013 08:55:23.299,3 Dec 2013 09:10:02.661,879.363
4,3 Dec 2013 23:20:02.647,3 Dec 2013 23:35:54.708,952.062
5,4 Dec 2013 01:05:12.112,4 Dec 2013 01:12:23.902,431.790
6,4 Dec 2013 06:22:50.562,4 Dec 2013 06:37:42.849,892.288
7,4 Dec 2013 07:59:40.659,4 Dec 2013 08:15:19.954,939.296
8,4 Dec 2013 09:37:23.514,4 Dec 2013 09:53:04.598,941.084
9,4 Dec 2013 11:15:58.976,4 Dec 2013 11:31:30.050,931.073
10,4 Dec 2013 12:55:36.238,4 Dec 2013 13:10:31.945,895.706
11,4 Dec 2013 14:36:31.847,4 Dec 2013 14:49:20.927,769.080
12,4 Dec 2013 20:47:23.066,4 Dec 2013 21:01:46.686,863.620
13,4 Dec 2013 22:26:18.352,4 Dec 2013 22:38:56.808,758.456
14,5 Dec 2013 12:02:04.980,5 Dec 2013 12:16:53.059,888.079
15,5 Dec 2013 13:39:46.618,5 Dec 2013 13:51:39.997,713.380
16,5 Dec 2013 18:15:19.249,5 Dec 2013 18:25:22.328,603.079
17,5 Dec 2013 19:48:17.464,5 Dec 2013 20:03:35.007,917.543
18,5 Dec 2013 21:32:32.071,5 Dec 2013 21:39:44.700,432.629
19,6 Dec 2013 09:27:05.086,6 Dec 2013 09:38:38.082,692.996
20,6 Dec 2013 11:04:10.620,6 Dec 2013 11:19:07.018,896.398
21,6 Dec 2013 17:19:09.924,6 Dec 2013 17:28:04.423,534.499
22,6 Dec 2013 18:56:40.823,6 Dec 2013 19:09:58.249,797.426
23,6 Dec 2013 20:35:19.204,6 Dec 2013 20:49:54.589,875.385
24,6 Dec 2013 22:13:35.430,6 Dec 2013 22:28:41.205,905.775
25,6 Dec 2013 23:51:06.979,7 Dec 2013 00:06:35.031,928.052
26,7 Dec 2013 01:28:13.092,7 Dec 2013 01:43:45.579,932.486
27,7 Dec 2013 03:15:17.512,7 Dec 2013 03:19:46.711,269.199
28,7 Dec 2013 06:55:19.613,7 Dec 2013 06:58:29.962,190.348
29,7 Dec 2013 08:30:31.694,7 Dec 2013 08:46:34.360,962.666
30,7 Dec 2013 22:57:16.744,7 Dec 2013 23:11:06.432,829.688
31,8 Dec 2013 00:36:45.390,8 Dec 2013 00:50:40.247,834.858
32,8 Dec 2013 05:58:51.530,8 Dec 2013 06:13:38.700,887.170
33,8 Dec 2013 07:37:29.166,8 Dec 2013 07:52:40.556,911.390
34,8 Dec 2013 09:14:55.728,8 Dec 2013 09:29:13.608,857.880
35,8 Dec 2013 10:52:59.036,8 Dec 2013 11:06:27.632,808.595
36,8 Dec 2013 12:32:00.079,8 Dec 2013 12:44:23.550,743.471
37,8 Dec 2013 14:12:37.387,8 Dec 2013 14:22:04.257,566.870
38,8 Dec 2013 20:27:04.381,8 Dec 2013 20:37:19.783,615.403
39,8 Dec 2013 22:01:24.997,8 Dec 2013 22:16:57.052,932.054

"Access","Start Time (UTCG)","Stop Time (UTCG)","Duration (sec)"
1,3 Dec 2013 01:27:10.498,3 Dec 2013 01:43:19.800,969.302
2,3 Dec 2013 06:52:33.388,3 Dec 2013 07:00:48.235,494.847
3,3 Dec 2013 08:30:04.335,3 Dec 2013 08:45:57.873,953.538
4,3 Dec 2013 22:56:00.925,3 Dec 2013 23:10:49.791,888.866
5,4 Dec 2013 00:36:54.790,4 Dec 2013 00:49:21.292,746.503
6,4 Dec 2013 05:58:41.171,4 Dec 2013 06:13:12.309,871.139
7,4 Dec 2013 07:35:22.640,4 Dec 2013 07:50:57.047,934.407
8,4 Dec 2013 09:12:53.180,4 Dec 2013 09:28:35.297,942.117
9,4 Dec 2013 10:51:14.685,4 Dec 2013 11:06:49.415,934.730
10,4 Dec 2013 12:30:35.592,4 Dec 2013 12:45:44.840,909.247
11,4 Dec 2013 14:11:08.278,4 Dec 2013 14:24:45.006,816.728
12,4 Dec 2013 15:54:17.892,4 Dec 2013 15:59:17.341,299.449
13,4 Dec 2013 20:24:33.992,4 Dec 2013 20:36:42.420,728.428
14,4 Dec 2013 22:00:19.766,4 Dec 2013 22:15:13.511,893.745
15,5 Dec 2013 11:38:41.181,5 Dec 2013 11:51:14.248,753.067
16,5 Dec 2013 13:14:53.575,5 Dec 2013 13:29:02.125,848.550
17,5 Dec 2013 17:54:57.029,5 Dec 2013 17:59:01.168,244.139
18,5 Dec 2013 19:23:59.874,5 Dec 2013 19:39:31.338,931.464
19,5 Dec 2013 21:06:15.571,5 Dec 2013 21:14:59.272,523.701
20,6 Dec 2013 09:05:31.055,6 Dec 2013 09:09:27.097,236.041
21,6 Dec 2013 10:39:24.771,6 Dec 2013 10:55:11.491,946.720
22,6 Dec 2013 16:55:36.912,6 Dec 2013 17:01:45.128,368.216
23,6 Dec 2013 18:32:05.454,6 Dec 2013 18:44:44.961,759.507
24,6 Dec 2013 20:10:39.771,6 Dec 2013 20:25:02.827,863.056
25,6 Dec 2013 21:49:05.447,6 Dec 2013 22:04:05.107,899.660
26,6 Dec 2013 23:26:47.879,6 Dec 2013 23:42:10.743,922.865
27,7 Dec 2013 01:03:56.543,7 Dec 2013 01:19:32.213,935.670
28,7 Dec 2013 02:45:44.476,7 Dec 2013 02:57:19.820,695.344
29,7 Dec 2013 08:05:43.846,7 Dec 2013 08:21:26.130,942.284
30,7 Dec 2013 09:47:10.600,7 Dec 2013 09:56:51.648,581.048
31,7 Dec 2013 22:34:42.536,7 Dec 2013 22:45:08.249,625.713
32,8 Dec 2013 00:10:40.416,8 Dec 2013 00:26:14.423,934.006
33,8 Dec 2013 05:34:37.328,8 Dec 2013 05:46:39.707,722.379
34,8 Dec 2013 07:13:12.700,8 Dec 2013 07:28:34.402,921.703
35,8 Dec 2013 08:50:31.097,8 Dec 2013 09:05:02.577,871.481
36,8 Dec 2013 10:28:23.844,8 Dec 2013 10:42:04.394,820.550
37,8 Dec 2013 12:07:07.831,8 Dec 2013 12:19:52.497,764.666
38,8 Dec 2013 13:47:14.687,8 Dec 2013 13:57:47.367,632.680
39,8 Dec 2013 20:07:01.236,8 Dec 2013 20:10:09.370,188.134
40,8 Dec 2013 21:36:40.964,8 Dec 2013 21:52:29.762,948.798

