Raw and processed data/Altitude Variations/us_greatcircle_3sat_550km/Aircraft-B747LAX_Heathrow-Transmitter-adsb_out6-To-Satellite-550km_p1_1-Receiver-adsb_satrcvr2 Access.csv

"Access","Start Time (UTCG)","Stop Time (UTCG)","Duration (sec)"
1,3 Dec 2013 01:16:58.925,3 Dec 2013 01:30:45.174,826.249
2,3 Dec 2013 02:52:58.754,3 Dec 2013 03:06:59.293,840.539
3,3 Dec 2013 04:28:20.544,3 Dec 2013 04:42:14.471,833.927
4,3 Dec 2013 06:03:40.332,3 Dec 2013 06:17:42.201,841.869
5,3 Dec 2013 07:40:13.506,3 Dec 2013 07:53:52.027,818.521
6,3 Dec 2013 09:19:15.072,3 Dec 2013 09:30:50.255,695.183
7,3 Dec 2013 10:59:44.926,3 Dec 2013 11:11:18.220,693.294
8,3 Dec 2013 12:37:26.067,3 Dec 2013 12:50:45.441,799.374
9,3 Dec 2013 20:16:00.665,3 Dec 2013 20:28:46.505,765.840
10,3 Dec 2013 21:53:34.760,3 Dec 2013 22:06:21.605,766.845
11,3 Dec 2013 23:30:28.351,3 Dec 2013 23:42:13.811,705.460
12,4 Dec 2013 01:05:42.883,4 Dec 2013 01:17:14.936,692.053
13,4 Dec 2013 02:39:40.608,4 Dec 2013 02:52:28.766,768.158
14,4 Dec 2013 04:14:01.825,4 Dec 2013 04:27:57.289,835.464
15,4 Dec 2013 05:50:53.296,4 Dec 2013 06:02:50.340,717.044
16,4 Dec 2013 07:34:03.725,4 Dec 2013 07:46:02.114,718.389
17,4 Dec 2013 09:14:48.024,4 Dec 2013 09:29:27.411,879.387
18,4 Dec 2013 10:56:10.349,4 Dec 2013 11:04:58.739,528.389
19,5 Dec 2013 02:29:06.040,5 Dec 2013 02:41:54.259,768.219
20,5 Dec 2013 04:10:10.945,5 Dec 2013 04:25:12.532,901.587
21,5 Dec 2013 05:53:04.364,5 Dec 2013 06:08:03.543,899.180
22,5 Dec 2013 07:35:13.297,5 Dec 2013 07:48:23.551,790.254
23,6 Dec 2013 00:53:43.278,6 Dec 2013 01:04:43.904,660.626
24,6 Dec 2013 02:33:11.514,6 Dec 2013 02:47:59.766,888.252
25,6 Dec 2013 04:15:34.900,6 Dec 2013 04:30:20.600,885.699
26,6 Dec 2013 05:58:59.014,6 Dec 2013 06:09:28.821,629.807
27,6 Dec 2013 23:14:57.953,6 Dec 2013 23:28:21.433,803.481
28,7 Dec 2013 00:55:31.717,7 Dec 2013 01:10:31.114,899.397
29,7 Dec 2013 02:37:39.521,7 Dec 2013 02:51:37.080,837.559
30,7 Dec 2013 04:12:59.316,7 Dec 2013 04:26:25.947,806.631
31,7 Dec 2013 05:48:05.146,7 Dec 2013 06:01:21.269,796.124
32,7 Dec 2013 07:23:37.330,7 Dec 2013 07:37:26.414,829.084
33,7 Dec 2013 09:00:35.613,7 Dec 2013 09:14:54.874,859.261
34,7 Dec 2013 10:39:16.219,7 Dec 2013 10:53:46.217,869.999
35,7 Dec 2013 12:19:00.371,7 Dec 2013 12:32:56.949,836.578
36,7 Dec 2013 19:58:01.439,7 Dec 2013 20:07:31.832,570.393
37,7 Dec 2013 21:34:04.506,7 Dec 2013 21:48:43.364,878.858

"Access","Start Time (UTCG)","Stop Time (UTCG)","Duration (sec)"
1,3 Dec 2013 10:07:49.651,3 Dec 2013 10:13:15.661,326.009
2,3 Dec 2013 11:42:18.027,3 Dec 2013 11:56:47.789,869.761
3,3 Dec 2013 13:24:49.064,3 Dec 2013 13:39:43.144,894.080
4,3 Dec 2013 15:07:30.362,3 Dec 2013 15:22:25.806,895.444
5,3 Dec 2013 16:49:45.455,3 Dec 2013 17:00:54.607,669.152
6,4 Dec 2013 10:06:18.607,4 Dec 2013 10:19:34.813,796.206
7,4 Dec 2013 11:47:24.335,4 Dec 2013 12:02:21.790,897.455
8,4 Dec 2013 13:29:57.171,4 Dec 2013 13:44:13.778,856.608
9,4 Dec 2013 15:15:37.997,4 Dec 2013 15:19:36.892,238.894
10,5 Dec 2013 08:28:20.411,5 Dec 2013 08:42:40.939,860.527
11,5 Dec 2013 10:10:01.788,5 Dec 2013 10:25:03.336,901.548
12,5 Dec 2013 11:51:08.306,5 Dec 2013 12:04:54.284,825.978
13,5 Dec 2013 13:26:24.192,5 Dec 2013 13:39:20.720,776.528
14,5 Dec 2013 15:01:28.267,5 Dec 2013 15:14:22.480,774.213
15,5 Dec 2013 16:37:10.260,5 Dec 2013 16:50:48.176,817.915
16,5 Dec 2013 18:14:25.328,5 Dec 2013 18:28:38.973,853.645
17,5 Dec 2013 19:53:18.672,5 Dec 2013 20:07:43.865,865.193
18,5 Dec 2013 21:33:14.190,5 Dec 2013 21:45:22.782,728.592
19,6 Dec 2013 05:09:46.883,6 Dec 2013 05:22:12.793,745.910
20,6 Dec 2013 06:48:32.629,6 Dec 2013 07:02:51.397,858.768
21,6 Dec 2013 08:25:50.406,6 Dec 2013 08:39:55.885,845.479
22,6 Dec 2013 10:01:36.434,6 Dec 2013 10:15:29.376,832.942
23,6 Dec 2013 11:36:46.578,6 Dec 2013 11:50:42.748,836.170
24,6 Dec 2013 13:12:26.769,6 Dec 2013 13:26:19.291,832.522
25,6 Dec 2013 14:50:13.886,6 Dec 2013 15:02:19.129,725.244
26,6 Dec 2013 16:32:20.221,6 Dec 2013 16:37:51.431,331.210
27,6 Dec 2013 18:09:33.329,6 Dec 2013 18:23:47.231,853.902
28,6 Dec 2013 19:49:33.574,6 Dec 2013 19:58:37.236,543.662
29,7 Dec 2013 03:27:58.725,7 Dec 2013 03:38:34.467,635.742
30,7 Dec 2013 05:05:32.829,7 Dec 2013 05:14:52.808,559.979
31,7 Dec 2013 06:41:33.830,7 Dec 2013 06:49:48.294,494.464
32,7 Dec 2013 08:15:18.956,7 Dec 2013 08:25:00.187,581.231
33,7 Dec 2013 09:48:11.751,7 Dec 2013 10:00:47.672,755.921
34,7 Dec 2013 11:22:30.419,7 Dec 2013 11:36:23.013,832.594
35,7 Dec 2013 13:03:06.446,7 Dec 2013 13:16:10.125,783.679
36,7 Dec 2013 14:46:09.751,7 Dec 2013 15:00:17.758,848.007
37,7 Dec 2013 16:27:02.292,7 Dec 2013 16:40:47.428,825.136

"Access","Start Time (UTCG)","Stop Time (UTCG)","Duration (sec)"
1,3 Dec 2013 16:35:59.578,3 Dec 2013 16:48:41.541,761.963
2,3 Dec 2013 18:16:06.748,3 Dec 2013 18:31:06.793,900.045
3,3 Dec 2013 19:58:47.287,3 Dec 2013 20:13:45.940,898.653
4,3 Dec 2013 21:36:24.655,3 Dec 2013 21:49:14.748,770.093
5,3 Dec 2013 23:11:30.787,3 Dec 2013 23:23:38.047,727.260
6,4 Dec 2013 00:46:42.753,4 Dec 2013 00:59:23.043,760.289
7,4 Dec 2013 02:23:06.088,4 Dec 2013 02:36:39.589,813.502
8,4 Dec 2013 04:01:12.930,4 Dec 2013 04:15:11.642,838.712
9,4 Dec 2013 05:40:52.000,4 Dec 2013 05:54:29.111,817.112
10,4 Dec 2013 13:20:43.489,4 Dec 2013 13:27:44.871,421.383
11,4 Dec 2013 14:55:25.638,4 Dec 2013 15:10:07.045,881.407
12,4 Dec 2013 16:35:18.483,4 Dec 2013 16:49:15.982,837.499
13,4 Dec 2013 18:11:21.769,4 Dec 2013 18:25:21.388,839.619
14,4 Dec 2013 19:46:42.016,4 Dec 2013 20:00:35.860,833.843
15,4 Dec 2013 21:22:02.761,4 Dec 2013 21:36:03.700,840.939
16,4 Dec 2013 22:58:46.488,4 Dec 2013 23:12:06.613,800.125
17,5 Dec 2013 00:38:21.715,5 Dec 2013 00:48:39.835,618.119
18,5 Dec 2013 02:18:19.740,5 Dec 2013 02:30:33.658,733.918
19,5 Dec 2013 03:56:29.338,5 Dec 2013 04:09:34.277,784.939
20,5 Dec 2013 11:35:09.858,5 Dec 2013 11:47:30.209,740.351
21,5 Dec 2013 13:13:11.620,5 Dec 2013 13:24:47.454,695.834
22,5 Dec 2013 14:49:57.065,5 Dec 2013 15:00:21.809,624.744
23,5 Dec 2013 16:24:52.305,5 Dec 2013 16:35:18.690,626.385
24,5 Dec 2013 17:58:22.672,5 Dec 2013 18:10:41.741,739.069
25,5 Dec 2013 19:32:23.819,5 Dec 2013 19:46:16.763,832.944
26,5 Dec 2013 21:09:02.300,5 Dec 2013 21:21:47.536,765.236
27,5 Dec 2013 22:53:04.372,5 Dec 2013 23:05:51.937,767.565
28,6 Dec 2013 00:34:04.292,6 Dec 2013 00:48:45.227,880.935
29,6 Dec 2013 02:16:02.488,6 Dec 2013 02:23:35.609,453.121
30,6 Dec 2013 17:49:12.331,6 Dec 2013 18:01:38.285,745.954
31,6 Dec 2013 19:29:58.808,6 Dec 2013 19:45:00.374,901.566
32,6 Dec 2013 21:12:45.053,6 Dec 2013 21:27:45.131,900.077
33,6 Dec 2013 22:55:02.608,6 Dec 2013 23:07:50.551,767.943
34,7 Dec 2013 16:13:31.603,7 Dec 2013 16:24:40.281,668.678
35,7 Dec 2013 17:53:00.598,7 Dec 2013 18:07:49.566,888.968
36,7 Dec 2013 19:35:24.769,7 Dec 2013 19:50:10.494,885.725
37,7 Dec 2013 21:18:55.029,7 Dec 2013 21:29:20.188,625.159

