Raw and processed data/Altitude Variations/us_greatcircle_12sat_750km/Aircraft-B747LAX_Narita-Transmitter-adsb_out6211-To-Satellite-750km_p1_1-Receiver-adsb_satrcvr2 Access.csv

"Access","Start Time (UTCG)","Stop Time (UTCG)","Duration (sec)"
1,3 Dec 2013 06:05:47.163,3 Dec 2013 06:18:26.530,759.367
2,3 Dec 2013 07:47:38.187,3 Dec 2013 08:04:51.310,1033.123
3,3 Dec 2013 09:38:24.683,3 Dec 2013 09:51:10.583,765.900
4,3 Dec 2013 11:23:57.518,3 Dec 2013 11:38:07.875,850.357
5,3 Dec 2013 13:03:31.709,3 Dec 2013 13:19:39.092,967.383
6,3 Dec 2013 14:43:32.664,3 Dec 2013 15:00:06.993,994.329
7,3 Dec 2013 16:24:02.580,3 Dec 2013 16:40:44.466,1001.887
8,3 Dec 2013 18:05:21.511,3 Dec 2013 18:22:11.364,1009.854
9,3 Dec 2013 19:47:43.314,3 Dec 2013 20:04:37.542,1014.228
10,3 Dec 2013 21:34:32.394,3 Dec 2013 21:40:56.032,383.638
11,4 Dec 2013 03:42:49.640,4 Dec 2013 03:53:27.199,637.559
12,4 Dec 2013 05:22:11.210,4 Dec 2013 05:39:01.808,1010.598
13,4 Dec 2013 07:07:15.188,4 Dec 2013 07:22:13.760,898.572
14,4 Dec 2013 08:49:11.444,4 Dec 2013 09:04:39.587,928.143
15,4 Dec 2013 10:30:17.282,4 Dec 2013 10:45:55.487,938.205
16,4 Dec 2013 12:11:13.906,4 Dec 2013 12:26:30.192,916.286
17,4 Dec 2013 13:52:58.530,4 Dec 2013 14:06:53.408,834.877
18,4 Dec 2013 15:36:48.000,4 Dec 2013 15:47:38.554,650.554
19,4 Dec 2013 17:21:24.950,4 Dec 2013 17:38:39.096,1034.146
20,4 Dec 2013 19:08:01.432,4 Dec 2013 19:18:32.727,631.296
21,5 Dec 2013 02:58:59.358,5 Dec 2013 03:10:01.145,661.787
22,5 Dec 2013 04:39:49.401,5 Dec 2013 04:52:45.709,776.307
23,5 Dec 2013 06:20:05.076,5 Dec 2013 06:34:02.385,837.309
24,5 Dec 2013 07:59:27.335,5 Dec 2013 08:14:32.423,905.089
25,5 Dec 2013 09:38:26.575,5 Dec 2013 09:54:39.818,973.243
26,5 Dec 2013 11:19:03.367,5 Dec 2013 11:36:28.489,1045.123
27,5 Dec 2013 13:09:18.803,5 Dec 2013 13:24:55.553,936.751
28,5 Dec 2013 14:56:58.933,5 Dec 2013 15:14:31.073,1052.140
29,5 Dec 2013 16:44:21.837,5 Dec 2013 16:57:01.192,759.355
30,6 Dec 2013 08:57:04.610,6 Dec 2013 09:14:34.252,1049.642
31,6 Dec 2013 10:45:16.028,6 Dec 2013 11:02:03.821,1007.793
32,6 Dec 2013 12:34:06.042,6 Dec 2013 12:51:31.958,1045.916
33,6 Dec 2013 14:21:39.358,6 Dec 2013 14:37:18.883,939.524
34,7 Dec 2013 06:35:08.238,7 Dec 2013 06:51:54.621,1006.383
35,7 Dec 2013 08:21:50.357,7 Dec 2013 08:38:11.761,981.404
36,7 Dec 2013 10:12:05.728,7 Dec 2013 10:27:32.485,926.757
37,7 Dec 2013 11:57:37.017,7 Dec 2013 12:14:02.278,985.260
38,7 Dec 2013 13:37:27.081,7 Dec 2013 13:53:29.828,962.747
39,7 Dec 2013 15:17:38.386,7 Dec 2013 15:32:34.356,895.969
40,7 Dec 2013 16:58:16.644,7 Dec 2013 17:12:14.110,837.467
41,7 Dec 2013 18:39:50.510,7 Dec 2013 18:52:47.704,777.194
42,7 Dec 2013 20:23:03.094,7 Dec 2013 20:33:44.631,641.537
43,8 Dec 2013 04:11:36.015,8 Dec 2013 04:27:50.367,974.352
44,8 Dec 2013 05:57:13.953,8 Dec 2013 06:12:04.897,890.944
45,8 Dec 2013 07:44:49.393,8 Dec 2013 07:56:36.744,707.352
46,8 Dec 2013 09:25:16.684,8 Dec 2013 09:39:42.263,865.579
47,8 Dec 2013 11:05:42.639,8 Dec 2013 11:21:07.314,924.675
48,8 Dec 2013 12:46:26.222,8 Dec 2013 13:02:01.359,935.137
49,8 Dec 2013 14:28:00.526,8 Dec 2013 14:43:16.136,915.610
50,8 Dec 2013 16:10:49.445,8 Dec 2013 16:25:30.216,880.771
51,8 Dec 2013 17:54:27.241,8 Dec 2013 18:11:04.047,996.806
52,9 Dec 2013 01:46:36.753,9 Dec 2013 02:01:48.776,912.022

"Access","Start Time (UTCG)","Stop Time (UTCG)","Duration (sec)"
1,3 Dec 2013 05:43:33.638,3 Dec 2013 05:49:47.689,374.051
2,3 Dec 2013 07:21:07.815,3 Dec 2013 07:38:33.205,1045.389
3,3 Dec 2013 09:10:16.482,3 Dec 2013 09:24:10.793,834.311
4,3 Dec 2013 10:59:12.597,3 Dec 2013 11:12:21.700,789.103
5,3 Dec 2013 12:38:34.948,3 Dec 2013 12:54:25.929,950.981
6,3 Dec 2013 14:18:30.304,3 Dec 2013 14:35:01.363,991.059
7,3 Dec 2013 15:58:51.343,3 Dec 2013 16:15:31.489,1000.146
8,3 Dec 2013 17:39:56.147,3 Dec 2013 17:56:43.979,1007.832
9,3 Dec 2013 19:22:01.813,3 Dec 2013 19:38:55.975,1014.162
10,3 Dec 2013 21:06:15.809,3 Dec 2013 21:19:03.533,767.724
11,4 Dec 2013 04:56:04.726,4 Dec 2013 05:13:12.421,1027.695
12,4 Dec 2013 06:41:34.255,4 Dec 2013 06:56:25.756,891.501
13,4 Dec 2013 08:23:48.492,4 Dec 2013 08:39:10.333,921.841
14,4 Dec 2013 10:05:03.511,4 Dec 2013 10:20:41.734,938.223
15,4 Dec 2013 11:45:57.819,4 Dec 2013 12:01:23.528,925.709
16,4 Dec 2013 13:27:24.023,4 Dec 2013 13:41:47.651,863.627
17,4 Dec 2013 15:10:33.805,4 Dec 2013 15:22:10.895,697.090
18,4 Dec 2013 16:55:19.592,4 Dec 2013 17:11:49.669,990.077
19,4 Dec 2013 18:40:36.174,4 Dec 2013 18:55:03.447,867.273
20,5 Dec 2013 02:33:49.671,5 Dec 2013 02:43:58.569,608.898
21,5 Dec 2013 04:14:38.197,5 Dec 2013 04:27:14.791,756.595
22,5 Dec 2013 05:55:06.299,5 Dec 2013 06:08:48.964,822.665
23,5 Dec 2013 07:34:40.893,5 Dec 2013 07:49:27.582,886.689
24,5 Dec 2013 09:13:40.725,5 Dec 2013 09:29:39.709,958.984
25,5 Dec 2013 10:53:04.550,5 Dec 2013 11:09:41.614,997.064
26,5 Dec 2013 12:41:46.089,5 Dec 2013 12:57:28.899,942.809
27,5 Dec 2013 14:30:21.610,5 Dec 2013 14:47:29.410,1027.799
28,5 Dec 2013 16:17:02.138,5 Dec 2013 16:32:31.954,929.816
29,6 Dec 2013 08:31:01.349,6 Dec 2013 08:47:41.534,1000.185
30,6 Dec 2013 10:17:50.532,6 Dec 2013 10:35:00.405,1029.873
31,6 Dec 2013 12:07:09.246,6 Dec 2013 12:24:11.377,1022.131
32,6 Dec 2013 13:54:34.202,6 Dec 2013 14:11:37.025,1022.822
33,7 Dec 2013 06:09:55.607,7 Dec 2013 06:25:04.778,909.171
34,7 Dec 2013 07:54:28.169,7 Dec 2013 08:11:32.488,1024.318
35,7 Dec 2013 09:44:46.884,7 Dec 2013 09:59:47.255,900.371
36,7 Dec 2013 11:32:44.022,7 Dec 2013 11:48:57.658,973.636
37,7 Dec 2013 13:12:27.178,7 Dec 2013 13:28:42.948,975.770
38,7 Dec 2013 14:52:33.721,7 Dec 2013 15:07:46.663,912.942
39,7 Dec 2013 16:33:03.264,7 Dec 2013 16:47:14.034,850.770
40,7 Dec 2013 18:14:19.767,7 Dec 2013 18:27:35.037,795.271
41,7 Dec 2013 19:57:02.207,7 Dec 2013 20:08:32.147,689.940
42,8 Dec 2013 03:47:04.177,8 Dec 2013 04:01:10.287,846.110
43,8 Dec 2013 05:29:46.953,8 Dec 2013 05:46:11.564,984.611
44,8 Dec 2013 07:19:42.448,8 Dec 2013 07:30:24.862,642.414
45,8 Dec 2013 09:00:10.258,8 Dec 2013 09:14:08.382,838.124
46,8 Dec 2013 10:40:35.579,8 Dec 2013 10:55:51.377,915.798
47,8 Dec 2013 12:21:11.955,8 Dec 2013 12:36:47.626,935.671
48,8 Dec 2013 14:02:30.404,8 Dec 2013 14:17:53.264,922.859
49,8 Dec 2013 15:45:00.264,8 Dec 2013 15:59:49.253,888.989
50,8 Dec 2013 17:28:20.415,8 Dec 2013 17:45:32.222,1031.808
51,9 Dec 2013 01:23:00.070,9 Dec 2013 01:34:57.717,717.646

"Access","Start Time (UTCG)","Stop Time (UTCG)","Duration (sec)"
1,3 Dec 2013 06:55:13.974,3 Dec 2013 07:12:09.565,1015.590
2,3 Dec 2013 08:42:17.620,3 Dec 2013 08:57:33.612,915.992
3,3 Dec 2013 10:33:52.565,3 Dec 2013 10:46:19.624,747.059
4,3 Dec 2013 12:13:39.907,3 Dec 2013 12:29:07.551,927.644
5,3 Dec 2013 13:53:29.434,3 Dec 2013 14:09:55.563,986.129
6,3 Dec 2013 15:33:42.856,3 Dec 2013 15:50:21.312,998.456
7,3 Dec 2013 17:14:34.685,3 Dec 2013 17:31:20.453,1005.768
8,3 Dec 2013 18:56:24.322,3 Dec 2013 19:13:17.547,1013.225
9,3 Dec 2013 20:39:33.255,3 Dec 2013 20:55:09.130,935.874
10,4 Dec 2013 04:30:41.964,4 Dec 2013 04:47:07.892,985.928
11,4 Dec 2013 06:15:47.694,4 Dec 2013 06:30:33.953,886.259
12,4 Dec 2013 07:58:21.820,4 Dec 2013 08:13:36.287,914.467
13,4 Dec 2013 09:39:48.367,4 Dec 2013 09:55:24.854,936.488
14,4 Dec 2013 11:20:43.625,4 Dec 2013 11:36:15.839,932.215
15,4 Dec 2013 13:01:55.895,4 Dec 2013 13:16:41.972,886.077
16,4 Dec 2013 14:44:31.957,4 Dec 2013 14:57:05.197,753.240
17,4 Dec 2013 16:29:15.100,4 Dec 2013 16:44:21.663,906.563
18,4 Dec 2013 18:13:55.850,4 Dec 2013 18:30:20.813,984.963
19,5 Dec 2013 02:08:46.188,5 Dec 2013 02:17:42.754,536.565
20,5 Dec 2013 03:49:25.361,5 Dec 2013 04:01:37.726,732.366
21,5 Dec 2013 05:30:03.935,5 Dec 2013 05:43:32.130,808.195
22,5 Dec 2013 07:09:52.073,5 Dec 2013 07:24:21.211,869.138
23,5 Dec 2013 08:48:56.283,5 Dec 2013 09:04:38.403,942.120
24,5 Dec 2013 10:28:07.241,5 Dec 2013 10:44:35.587,988.346
25,5 Dec 2013 12:14:05.384,5 Dec 2013 12:30:16.774,971.390
26,5 Dec 2013 14:03:35.689,5 Dec 2013 14:20:06.636,990.946
27,5 Dec 2013 15:50:11.635,5 Dec 2013 16:07:08.236,1016.601
28,6 Dec 2013 08:05:36.632,6 Dec 2013 08:20:31.591,894.959
29,6 Dec 2013 09:50:35.135,6 Dec 2013 10:08:07.365,1052.231
30,6 Dec 2013 11:40:01.484,6 Dec 2013 11:56:44.078,1002.594
31,6 Dec 2013 13:27:42.634,6 Dec 2013 13:45:20.844,1058.210
32,6 Dec 2013 15:18:23.399,6 Dec 2013 15:25:16.745,413.346
33,7 Dec 2013 05:45:42.793,7 Dec 2013 05:57:41.297,718.504
34,7 Dec 2013 07:27:30.450,7 Dec 2013 07:45:00.614,1050.164
35,7 Dec 2013 09:17:11.963,7 Dec 2013 09:32:15.948,903.985
36,7 Dec 2013 11:05:58.719,7 Dec 2013 11:22:57.405,1018.686
37,7 Dec 2013 12:47:28.640,7 Dec 2013 13:03:53.561,984.921
38,7 Dec 2013 14:27:30.366,7 Dec 2013 14:43:00.632,930.265
39,7 Dec 2013 16:07:52.751,7 Dec 2013 16:22:17.548,864.796
40,7 Dec 2013 17:48:54.295,7 Dec 2013 18:02:24.885,810.589
41,7 Dec 2013 19:31:10.771,7 Dec 2013 19:43:17.386,726.615
42,7 Dec 2013 21:16:00.367,7 Dec 2013 21:22:06.376,366.009
43,8 Dec 2013 03:23:52.875,8 Dec 2013 03:33:38.291,585.415
44,8 Dec 2013 05:03:02.384,8 Dec 2013 05:20:13.585,1031.202
45,8 Dec 2013 06:54:28.942,8 Dec 2013 07:03:59.551,570.610
46,8 Dec 2013 08:35:03.542,8 Dec 2013 08:48:27.054,803.512
47,8 Dec 2013 10:15:29.114,8 Dec 2013 10:30:32.601,903.487
48,8 Dec 2013 11:56:00.316,8 Dec 2013 12:11:34.560,934.244
49,8 Dec 2013 13:37:04.926,8 Dec 2013 13:52:33.560,928.634
50,8 Dec 2013 15:19:15.498,8 Dec 2013 15:34:13.592,898.094
51,8 Dec 2013 17:02:26.300,8 Dec 2013 17:19:17.884,1011.584
52,8 Dec 2013 18:47:59.849,8 Dec 2013 18:59:25.340,685.490
53,9 Dec 2013 01:02:24.976,9 Dec 2013 01:05:32.844,187.869

"Access","Start Time (UTCG)","Stop Time (UTCG)","Duration (sec)"
1,3 Dec 2013 06:30:02.146,3 Dec 2013 06:45:32.603,930.458
2,3 Dec 2013 08:14:42.492,3 Dec 2013 08:31:09.541,987.049
3,3 Dec 2013 10:06:21.852,3 Dec 2013 10:18:41.564,739.712
4,3 Dec 2013 11:48:47.134,3 Dec 2013 12:03:42.235,895.101
5,3 Dec 2013 13:28:29.912,3 Dec 2013 13:44:48.530,978.617
6,3 Dec 2013 15:08:36.745,3 Dec 2013 15:25:13.370,996.625
7,3 Dec 2013 16:49:16.915,3 Dec 2013 17:06:00.681,1003.767
8,3 Dec 2013 18:30:50.882,3 Dec 2013 18:47:42.595,1011.713
9,3 Dec 2013 20:13:28.781,3 Dec 2013 20:30:15.487,1006.706
10,4 Dec 2013 04:06:08.853,4 Dec 2013 04:20:40.695,871.843
11,4 Dec 2013 05:49:03.416,4 Dec 2013 06:04:39.063,935.647
12,4 Dec 2013 07:32:50.885,4 Dec 2013 07:47:57.387,906.502
13,4 Dec 2013 09:14:31.215,4 Dec 2013 09:30:04.297,933.082
14,4 Dec 2013 10:55:30.394,4 Dec 2013 11:11:06.669,936.275
15,4 Dec 2013 12:36:32.904,4 Dec 2013 12:51:36.235,903.331
16,4 Dec 2013 14:18:40.711,4 Dec 2013 14:31:59.286,798.576
17,4 Dec 2013 16:03:06.839,4 Dec 2013 16:16:15.763,788.923
18,4 Dec 2013 17:47:35.271,4 Dec 2013 18:04:50.139,1034.868
19,5 Dec 2013 01:43:55.548,5 Dec 2013 01:51:07.179,431.631
20,5 Dec 2013 03:24:11.938,5 Dec 2013 03:35:53.587,701.649
21,5 Dec 2013 05:04:58.170,5 Dec 2013 05:18:11.262,793.092
22,5 Dec 2013 06:45:00.264,5 Dec 2013 06:59:12.960,852.696
23,5 Dec 2013 08:24:12.161,5 Dec 2013 08:39:35.980,923.818
24,5 Dec 2013 10:03:15.008,5 Dec 2013 10:19:38.553,983.545
25,5 Dec 2013 11:46:27.776,5 Dec 2013 12:03:18.208,1010.432
26,5 Dec 2013 13:36:35.853,5 Dec 2013 13:52:31.584,955.731
27,5 Dec 2013 15:23:33.473,5 Dec 2013 15:41:05.651,1052.178
28,5 Dec 2013 17:13:16.323,5 Dec 2013 17:19:30.286,373.963
29,6 Dec 2013 07:41:11.787,6 Dec 2013 07:52:41.005,689.218
30,6 Dec 2013 09:23:37.775,6 Dec 2013 09:41:20.506,1062.730
31,6 Dec 2013 11:12:42.362,6 Dec 2013 11:29:19.237,996.874
32,6 Dec 2013 13:00:55.429,6 Dec 2013 13:18:37.316,1061.887
33,6 Dec 2013 14:49:15.419,6 Dec 2013 15:02:11.678,776.259
34,7 Dec 2013 05:24:13.067,7 Dec 2013 05:28:01.624,228.557
35,7 Dec 2013 07:01:02.305,7 Dec 2013 07:18:30.158,1047.853
36,7 Dec 2013 08:49:28.897,7 Dec 2013 09:05:04.508,935.611
37,7 Dec 2013 10:39:08.090,7 Dec 2013 10:55:19.889,971.799
38,7 Dec 2013 12:22:31.769,7 Dec 2013 12:39:00.439,988.670
39,7 Dec 2013 14:02:28.168,7 Dec 2013 14:18:15.354,947.186
40,7 Dec 2013 15:42:44.609,7 Dec 2013 15:57:24.456,879.848
41,7 Dec 2013 17:23:33.461,7 Dec 2013 17:37:17.792,824.331
42,7 Dec 2013 19:05:27.232,7 Dec 2013 19:18:02.146,754.914
43,7 Dec 2013 20:49:15.989,7 Dec 2013 20:58:52.091,576.101
44,8 Dec 2013 04:36:58.232,8 Dec 2013 04:54:08.136,1029.903
45,8 Dec 2013 06:25:27.036,8 Dec 2013 06:37:55.408,748.372
46,8 Dec 2013 08:09:56.541,8 Dec 2013 08:22:36.974,760.432
47,8 Dec 2013 09:50:22.905,8 Dec 2013 10:05:09.943,887.038
48,8 Dec 2013 11:30:50.720,8 Dec 2013 11:46:21.405,930.686
49,8 Dec 2013 13:11:43.694,8 Dec 2013 13:27:16.455,932.762
50,8 Dec 2013 14:53:35.536,8 Dec 2013 15:08:42.731,907.194
51,8 Dec 2013 16:36:42.316,8 Dec 2013 16:52:19.508,937.191
52,8 Dec 2013 18:20:53.832,8 Dec 2013 18:35:48.338,894.506
53,9 Dec 2013 02:11:18.360,9 Dec 2013 02:17:41.024,382.664

"Access","Start Time (UTCG)","Stop Time (UTCG)","Duration (sec)"
1,3 Dec 2013 01:24:25.057,3 Dec 2013 01:39:26.893,901.836
2,3 Dec 2013 03:08:45.113,3 Dec 2013 03:24:53.337,968.223
3,3 Dec 2013 11:00:55.452,3 Dec 2013 11:14:41.574,826.122
4,3 Dec 2013 12:42:47.017,3 Dec 2013 12:57:51.294,904.277
5,3 Dec 2013 14:24:05.486,3 Dec 2013 14:39:36.658,931.173
6,3 Dec 2013 16:04:28.845,3 Dec 2013 16:20:22.211,953.366
7,3 Dec 2013 17:44:10.743,3 Dec 2013 18:00:33.438,982.695
8,3 Dec 2013 19:24:01.918,3 Dec 2013 19:40:23.247,981.329
9,3 Dec 2013 21:09:08.336,3 Dec 2013 21:24:37.393,929.058
10,3 Dec 2013 22:58:25.280,3 Dec 2013 23:14:51.550,986.270
11,4 Dec 2013 00:44:44.173,4 Dec 2013 01:01:26.117,1001.944
12,4 Dec 2013 16:59:18.515,4 Dec 2013 17:15:02.980,944.465
13,4 Dec 2013 18:45:09.645,4 Dec 2013 19:02:34.605,1044.960
14,4 Dec 2013 20:34:37.225,4 Dec 2013 20:51:26.111,1008.886
15,4 Dec 2013 22:22:06.296,4 Dec 2013 22:39:34.576,1048.281
16,5 Dec 2013 14:39:28.013,5 Dec 2013 14:52:21.987,773.974
17,5 Dec 2013 16:22:08.158,5 Dec 2013 16:39:38.899,1050.741
18,5 Dec 2013 18:11:47.786,5 Dec 2013 18:27:20.869,933.083
19,5 Dec 2013 20:00:12.937,5 Dec 2013 20:17:38.281,1045.345
20,5 Dec 2013 21:43:24.750,5 Dec 2013 21:59:17.113,952.363
21,5 Dec 2013 23:23:42.743,5 Dec 2013 23:37:34.680,831.938
22,6 Dec 2013 01:04:23.322,6 Dec 2013 01:15:59.032,695.710
23,6 Dec 2013 02:45:47.775,6 Dec 2013 02:55:09.231,561.457
24,6 Dec 2013 04:29:19.017,6 Dec 2013 04:34:15.255,296.239
25,6 Dec 2013 12:17:47.988,6 Dec 2013 12:28:41.986,653.998
26,6 Dec 2013 13:57:56.595,6 Dec 2013 14:15:08.371,1031.776
27,6 Dec 2013 15:49:11.144,6 Dec 2013 15:59:41.353,630.208
28,6 Dec 2013 17:31:36.384,6 Dec 2013 17:44:48.747,792.363
29,6 Dec 2013 19:11:38.861,6 Dec 2013 19:26:55.866,917.004
30,6 Dec 2013 20:51:57.310,6 Dec 2013 21:07:54.906,957.596
31,6 Dec 2013 22:32:48.087,6 Dec 2013 22:48:54.894,966.806
32,7 Dec 2013 00:14:36.647,7 Dec 2013 00:30:40.555,963.908
33,7 Dec 2013 01:57:28.290,7 Dec 2013 02:14:22.497,1014.207
34,7 Dec 2013 03:43:13.743,7 Dec 2013 03:53:28.592,614.848
35,7 Dec 2013 09:55:12.169,7 Dec 2013 10:02:15.604,423.435
36,7 Dec 2013 11:31:56.112,7 Dec 2013 11:48:57.034,1020.922
37,7 Dec 2013 13:14:54.891,7 Dec 2013 13:31:42.852,1007.961
38,7 Dec 2013 14:56:48.860,7 Dec 2013 15:13:27.285,998.426
39,7 Dec 2013 16:37:48.609,7 Dec 2013 16:54:15.467,986.857
40,7 Dec 2013 18:18:30.358,7 Dec 2013 18:34:28.112,957.754
41,7 Dec 2013 19:59:59.139,7 Dec 2013 20:14:18.143,859.004
42,7 Dec 2013 21:45:24.128,7 Dec 2013 21:58:21.705,777.577
43,7 Dec 2013 23:31:43.554,7 Dec 2013 23:48:59.419,1035.865
44,8 Dec 2013 01:18:15.603,8 Dec 2013 01:30:38.308,742.705
45,8 Dec 2013 14:12:00.232,8 Dec 2013 14:21:02.015,541.783
46,8 Dec 2013 15:48:40.734,8 Dec 2013 16:02:18.233,817.499
47,8 Dec 2013 17:30:08.435,8 Dec 2013 17:47:52.143,1063.708
48,8 Dec 2013 19:19:27.719,8 Dec 2013 19:35:47.421,979.702
49,8 Dec 2013 21:07:49.613,8 Dec 2013 21:25:20.115,1050.502
50,8 Dec 2013 22:55:09.465,8 Dec 2013 23:09:31.952,862.487

"Access","Start Time (UTCG)","Stop Time (UTCG)","Duration (sec)"
1,3 Dec 2013 01:00:00.000,3 Dec 2013 01:11:18.352,678.352
2,3 Dec 2013 02:42:25.751,3 Dec 2013 02:59:33.867,1028.116
3,3 Dec 2013 10:35:55.744,3 Dec 2013 10:48:37.003,761.259
4,3 Dec 2013 12:17:20.637,3 Dec 2013 12:32:12.784,892.146
5,3 Dec 2013 13:58:50.741,3 Dec 2013 14:14:16.915,926.173
6,3 Dec 2013 15:39:28.086,3 Dec 2013 15:55:14.974,946.888
7,3 Dec 2013 17:19:16.951,3 Dec 2013 17:35:32.745,975.794
8,3 Dec 2013 18:58:59.306,3 Dec 2013 19:15:28.072,988.767
9,3 Dec 2013 20:41:21.623,3 Dec 2013 20:57:34.285,972.662
10,3 Dec 2013 22:31:33.043,3 Dec 2013 22:47:14.303,941.261
11,4 Dec 2013 00:18:07.598,4 Dec 2013 00:35:34.197,1046.599
12,4 Dec 2013 02:09:26.003,4 Dec 2013 02:11:29.903,123.900
13,4 Dec 2013 16:34:23.303,4 Dec 2013 16:47:29.310,786.007
14,4 Dec 2013 18:18:03.592,4 Dec 2013 18:35:45.067,1061.474
15,4 Dec 2013 20:07:22.355,4 Dec 2013 20:23:59.624,997.269
16,4 Dec 2013 21:55:19.718,4 Dec 2013 22:13:02.540,1062.822
17,4 Dec 2013 23:44:05.558,4 Dec 2013 23:55:20.413,674.855
18,5 Dec 2013 14:16:45.005,5 Dec 2013 14:23:40.769,415.765
19,5 Dec 2013 15:55:31.840,5 Dec 2013 16:13:04.788,1052.948
20,5 Dec 2013 17:44:11.482,5 Dec 2013 18:00:02.857,951.376
21,5 Dec 2013 19:33:23.618,5 Dec 2013 19:50:13.955,1010.336
22,5 Dec 2013 21:18:24.281,5 Dec 2013 21:34:35.920,971.639
23,5 Dec 2013 22:58:36.213,5 Dec 2013 23:13:02.145,865.932
24,6 Dec 2013 00:39:10.534,6 Dec 2013 00:51:19.244,728.711
25,6 Dec 2013 02:20:19.828,6 Dec 2013 02:30:17.660,597.832
26,6 Dec 2013 04:03:02.240,6 Dec 2013 04:09:40.782,398.542
27,6 Dec 2013 13:31:43.064,6 Dec 2013 13:48:59.169,1036.105
28,6 Dec 2013 15:20:29.585,6 Dec 2013 15:33:23.125,773.540
29,6 Dec 2013 17:06:39.495,6 Dec 2013 17:18:54.779,735.284
30,6 Dec 2013 18:46:36.823,6 Dec 2013 19:01:33.825,897.002
31,6 Dec 2013 20:26:50.661,6 Dec 2013 20:42:42.284,951.623
32,6 Dec 2013 22:07:30.863,6 Dec 2013 22:23:37.012,966.149
33,6 Dec 2013 23:49:03.174,7 Dec 2013 00:05:08.132,964.958
34,7 Dec 2013 01:31:41.275,7 Dec 2013 01:47:46.028,964.753
35,7 Dec 2013 03:15:54.938,7 Dec 2013 03:30:15.991,861.052
36,7 Dec 2013 11:06:13.301,7 Dec 2013 11:23:06.682,1013.381
37,7 Dec 2013 12:49:16.142,7 Dec 2013 13:06:06.866,1010.724
38,7 Dec 2013 14:31:26.294,7 Dec 2013 14:48:07.038,1000.744
39,7 Dec 2013 16:12:37.229,7 Dec 2013 16:29:07.647,990.418
40,7 Dec 2013 17:53:18.602,7 Dec 2013 18:09:27.186,968.584
41,7 Dec 2013 19:34:27.641,7 Dec 2013 19:49:23.135,895.494
42,7 Dec 2013 21:17:54.808,7 Dec 2013 21:30:24.781,749.973
43,7 Dec 2013 23:05:24.754,7 Dec 2013 23:21:57.488,992.733
44,8 Dec 2013 00:51:05.975,8 Dec 2013 01:06:27.931,921.955
45,8 Dec 2013 13:47:57.920,8 Dec 2013 13:55:31.414,453.493
46,8 Dec 2013 15:24:25.582,8 Dec 2013 15:37:04.331,758.749
47,8 Dec 2013 17:03:33.486,8 Dec 2013 17:21:01.489,1048.002
48,8 Dec 2013 18:51:55.711,8 Dec 2013 19:08:33.976,998.265
49,8 Dec 2013 20:41:02.360,8 Dec 2013 20:58:08.109,1025.749
50,8 Dec 2013 22:28:01.462,8 Dec 2013 22:44:24.500,983.039

"Access","Start Time (UTCG)","Stop Time (UTCG)","Duration (sec)"
1,3 Dec 2013 02:16:19.036,3 Dec 2013 02:33:32.273,1033.237
2,3 Dec 2013 04:03:06.521,3 Dec 2013 04:12:24.718,558.197
3,3 Dec 2013 10:14:00.791,3 Dec 2013 10:20:46.326,405.535
4,3 Dec 2013 11:51:52.689,3 Dec 2013 12:06:28.675,875.986
5,3 Dec 2013 13:33:32.540,3 Dec 2013 13:48:53.016,920.476
6,3 Dec 2013 15:14:24.098,3 Dec 2013 15:30:05.262,941.164
7,3 Dec 2013 16:54:22.605,3 Dec 2013 17:10:30.786,968.181
8,3 Dec 2013 18:34:00.766,3 Dec 2013 18:50:31.197,990.431
9,3 Dec 2013 20:14:25.364,3 Dec 2013 20:30:43.062,977.698
10,3 Dec 2013 22:04:22.553,3 Dec 2013 22:19:31.885,909.333
11,3 Dec 2013 23:51:36.559,4 Dec 2013 00:09:07.974,1051.415
12,4 Dec 2013 01:39:03.363,4 Dec 2013 01:50:43.940,700.577
13,4 Dec 2013 16:11:09.747,4 Dec 2013 16:18:30.130,440.383
14,4 Dec 2013 17:51:19.147,4 Dec 2013 18:08:58.020,1058.873
15,4 Dec 2013 19:39:57.885,4 Dec 2013 19:56:40.064,1002.178
16,4 Dec 2013 21:28:32.876,4 Dec 2013 21:46:06.105,1053.228
17,4 Dec 2013 23:16:11.315,4 Dec 2013 23:30:59.268,887.952
18,5 Dec 2013 15:29:27.308,5 Dec 2013 15:46:27.476,1020.168
19,5 Dec 2013 17:16:35.534,5 Dec 2013 17:33:02.358,986.824
20,5 Dec 2013 19:06:25.646,5 Dec 2013 19:22:36.041,970.395
21,5 Dec 2013 20:53:26.052,5 Dec 2013 21:09:49.768,983.716
22,5 Dec 2013 22:33:30.954,5 Dec 2013 22:48:29.105,898.151
23,6 Dec 2013 00:13:59.738,6 Dec 2013 00:26:42.355,762.617
24,6 Dec 2013 01:54:57.164,6 Dec 2013 02:05:28.368,631.203
25,6 Dec 2013 03:37:06.113,6 Dec 2013 03:44:53.580,467.466
26,6 Dec 2013 13:06:09.755,6 Dec 2013 13:22:40.026,990.272
27,6 Dec 2013 14:52:19.884,6 Dec 2013 15:07:16.113,896.229
28,6 Dec 2013 16:41:46.030,6 Dec 2013 16:52:47.207,661.177
29,6 Dec 2013 18:21:35.597,6 Dec 2013 18:36:06.336,870.739
30,6 Dec 2013 20:01:45.582,6 Dec 2013 20:17:28.928,943.347
31,6 Dec 2013 21:42:16.956,6 Dec 2013 21:58:21.499,964.543
32,6 Dec 2013 23:23:33.986,6 Dec 2013 23:39:39.977,965.991
33,7 Dec 2013 01:05:55.991,7 Dec 2013 01:21:59.352,963.362
34,7 Dec 2013 02:49:25.395,7 Dec 2013 03:05:46.336,980.941
35,7 Dec 2013 10:41:16.777,7 Dec 2013 10:56:59.641,942.864
36,7 Dec 2013 12:23:33.346,7 Dec 2013 12:40:27.096,1013.749
37,7 Dec 2013 14:05:59.908,7 Dec 2013 14:22:42.953,1003.045
38,7 Dec 2013 15:47:23.866,7 Dec 2013 16:03:57.260,993.395
39,7 Dec 2013 17:28:08.410,7 Dec 2013 17:44:24.918,976.508
40,7 Dec 2013 19:09:03.467,7 Dec 2013 19:24:26.206,922.739
41,7 Dec 2013 20:51:33.231,7 Dec 2013 21:03:58.584,745.352
42,7 Dec 2013 22:39:00.347,7 Dec 2013 22:54:24.833,924.485
43,8 Dec 2013 00:24:27.224,8 Dec 2013 00:41:18.983,1011.758
44,8 Dec 2013 13:24:01.033,8 Dec 2013 13:29:51.711,350.678
45,8 Dec 2013 15:00:14.117,8 Dec 2013 15:11:47.330,693.213
46,8 Dec 2013 16:37:27.996,8 Dec 2013 16:54:00.646,992.651
47,8 Dec 2013 18:24:25.872,8 Dec 2013 18:41:32.702,1026.830
48,8 Dec 2013 20:14:04.355,8 Dec 2013 20:30:42.248,997.894
49,8 Dec 2013 22:01:12.563,8 Dec 2013 22:18:34.093,1041.530

"Access","Start Time (UTCG)","Stop Time (UTCG)","Duration (sec)"
1,3 Dec 2013 01:50:19.829,3 Dec 2013 02:06:50.485,990.656
2,3 Dec 2013 03:35:27.775,3 Dec 2013 03:49:21.444,833.669
3,3 Dec 2013 11:26:23.963,3 Dec 2013 11:40:38.489,854.526
4,3 Dec 2013 13:08:11.167,3 Dec 2013 13:23:24.584,913.418
5,3 Dec 2013 14:49:16.609,3 Dec 2013 15:04:52.635,936.026
6,3 Dec 2013 16:29:26.817,3 Dec 2013 16:45:27.365,960.548
7,3 Dec 2013 18:09:04.976,3 Dec 2013 18:25:32.929,987.953
8,3 Dec 2013 19:49:10.048,3 Dec 2013 20:05:16.246,966.198
9,3 Dec 2013 21:36:52.453,3 Dec 2013 21:51:56.860,904.407
10,3 Dec 2013 23:25:04.441,3 Dec 2013 23:42:12.075,1027.634
11,4 Dec 2013 01:11:35.854,4 Dec 2013 01:26:35.983,900.129
12,4 Dec 2013 17:25:01.840,4 Dec 2013 17:42:06.993,1025.153
13,4 Dec 2013 19:12:30.602,4 Dec 2013 19:29:31.789,1021.186
14,4 Dec 2013 21:01:40.139,4 Dec 2013 21:18:51.344,1031.205
15,4 Dec 2013 22:48:59.798,4 Dec 2013 23:05:36.458,996.660
16,5 Dec 2013 15:04:01.162,5 Dec 2013 15:19:38.511,937.349
17,5 Dec 2013 16:49:11.415,5 Dec 2013 17:06:16.156,1024.741
18,5 Dec 2013 18:39:14.131,5 Dec 2013 18:54:54.593,940.461
19,5 Dec 2013 20:26:59.676,5 Dec 2013 20:44:42.231,1062.555
20,5 Dec 2013 22:08:27.069,5 Dec 2013 22:23:54.463,927.394
21,5 Dec 2013 23:48:50.554,6 Dec 2013 00:02:07.771,797.217
22,6 Dec 2013 01:29:38.625,6 Dec 2013 01:40:42.059,663.434
23,6 Dec 2013 03:11:22.487,6 Dec 2013 03:20:01.873,519.386
24,6 Dec 2013 04:56:53.913,6 Dec 2013 04:57:39.395,45.481
25,6 Dec 2013 12:41:23.715,6 Dec 2013 12:56:01.987,878.272
26,6 Dec 2013 14:24:48.718,6 Dec 2013 14:41:12.704,983.986
27,6 Dec 2013 16:16:58.827,6 Dec 2013 16:26:21.785,562.958
28,6 Dec 2013 17:56:35.328,6 Dec 2013 18:10:31.898,836.570
29,6 Dec 2013 19:36:41.732,6 Dec 2013 19:52:13.828,932.096
30,6 Dec 2013 21:17:05.924,6 Dec 2013 21:33:07.706,961.781
31,6 Dec 2013 22:58:09.024,6 Dec 2013 23:14:15.712,966.688
32,7 Dec 2013 00:40:14.330,7 Dec 2013 00:56:17.560,963.230
33,7 Dec 2013 02:23:19.225,7 Dec 2013 02:40:26.295,1027.070
34,7 Dec 2013 10:17:18.136,7 Dec 2013 10:30:20.177,782.041
35,7 Dec 2013 11:57:46.737,7 Dec 2013 12:14:43.741,1017.004
36,7 Dec 2013 13:40:29.479,7 Dec 2013 13:57:14.901,1005.422
37,7 Dec 2013 15:22:07.910,7 Dec 2013 15:38:43.928,996.017
38,7 Dec 2013 17:02:58.729,7 Dec 2013 17:19:21.112,982.383
39,7 Dec 2013 18:43:44.875,7 Dec 2013 18:59:27.792,942.917
40,7 Dec 2013 20:25:40.077,7 Dec 2013 20:39:10.431,810.354
41,7 Dec 2013 22:12:23.201,7 Dec 2013 22:26:28.294,845.093
42,7 Dec 2013 23:58:02.458,8 Dec 2013 00:15:27.516,1045.058
43,8 Dec 2013 01:47:11.586,8 Dec 2013 01:52:33.559,321.973
44,8 Dec 2013 13:00:19.022,8 Dec 2013 13:03:52.397,213.375
45,8 Dec 2013 14:36:05.763,8 Dec 2013 14:46:26.813,621.050
46,8 Dec 2013 16:13:00.293,8 Dec 2013 16:27:29.195,868.902
47,8 Dec 2013 17:57:07.669,8 Dec 2013 18:14:40.469,1052.801
48,8 Dec 2013 19:46:52.550,8 Dec 2013 20:03:12.178,979.628
49,8 Dec 2013 21:34:31.064,8 Dec 2013 21:52:10.689,1059.624
50,8 Dec 2013 23:23:05.157,8 Dec 2013 23:33:29.032,623.875

"Access","Start Time (UTCG)","Stop Time (UTCG)","Duration (sec)"
1,3 Dec 2013 01:03:31.234,3 Dec 2013 01:13:57.834,626.600
2,3 Dec 2013 02:45:37.157,3 Dec 2013 03:03:20.612,1063.455
3,3 Dec 2013 04:34:41.478,3 Dec 2013 04:51:15.978,994.500
4,3 Dec 2013 06:23:00.604,3 Dec 2013 06:40:38.018,1057.413
5,3 Dec 2013 08:10:46.216,3 Dec 2013 08:24:34.845,828.629
6,4 Dec 2013 00:23:45.626,4 Dec 2013 00:40:58.214,1032.588
7,4 Dec 2013 02:11:18.620,4 Dec 2013 02:27:50.182,991.562
8,4 Dec 2013 04:00:46.733,4 Dec 2013 04:17:29.974,1003.241
9,4 Dec 2013 05:48:14.117,4 Dec 2013 06:05:14.469,1020.352
10,4 Dec 2013 07:29:58.014,4 Dec 2013 07:42:51.282,773.267
11,4 Dec 2013 09:11:20.252,4 Dec 2013 09:19:34.106,493.854
12,4 Dec 2013 22:00:42.506,4 Dec 2013 22:17:26.348,1003.842
13,4 Dec 2013 23:47:21.032,5 Dec 2013 00:02:25.937,904.905
14,5 Dec 2013 01:38:22.757,5 Dec 2013 01:49:23.348,660.591
15,5 Dec 2013 03:17:42.986,5 Dec 2013 03:32:37.133,894.147
16,5 Dec 2013 04:57:40.319,5 Dec 2013 05:13:47.078,966.759
17,5 Dec 2013 06:38:01.248,5 Dec 2013 06:54:30.002,988.754
18,5 Dec 2013 08:19:03.942,5 Dec 2013 08:35:42.751,998.809
19,5 Dec 2013 10:01:06.708,5 Dec 2013 10:17:55.141,1008.432
20,5 Dec 2013 11:44:27.245,5 Dec 2013 12:00:28.291,961.046
21,5 Dec 2013 19:35:58.828,5 Dec 2013 19:52:05.793,966.965
22,5 Dec 2013 21:19:22.469,5 Dec 2013 21:35:33.990,971.521
23,5 Dec 2013 23:01:58.802,5 Dec 2013 23:18:08.725,969.923
24,6 Dec 2013 00:43:28.989,6 Dec 2013 00:59:38.266,969.277
25,6 Dec 2013 02:24:22.974,6 Dec 2013 02:40:16.634,953.660
26,6 Dec 2013 04:05:31.288,6 Dec 2013 04:20:28.873,897.585
27,6 Dec 2013 05:48:12.289,6 Dec 2013 06:00:23.030,730.741
28,6 Dec 2013 07:34:06.634,6 Dec 2013 07:49:21.043,914.409
29,6 Dec 2013 09:19:09.977,6 Dec 2013 09:35:49.272,999.296
30,6 Dec 2013 18:58:09.636,6 Dec 2013 19:03:41.949,332.313
31,6 Dec 2013 20:37:13.693,6 Dec 2013 20:46:37.932,564.239
32,6 Dec 2013 22:16:02.713,6 Dec 2013 22:27:51.248,708.535
33,6 Dec 2013 23:54:12.427,7 Dec 2013 00:08:28.526,856.099
34,7 Dec 2013 01:32:33.411,7 Dec 2013 01:48:42.447,969.036
35,7 Dec 2013 03:19:11.757,7 Dec 2013 03:35:55.142,1003.385
36,7 Dec 2013 05:08:48.792,7 Dec 2013 05:25:23.718,994.926
37,7 Dec 2013 06:55:41.190,7 Dec 2013 07:12:51.051,1029.861
38,7 Dec 2013 23:11:59.226,7 Dec 2013 23:25:57.446,838.220
39,8 Dec 2013 00:56:02.716,8 Dec 2013 01:13:39.218,1056.501
40,8 Dec 2013 02:45:26.022,8 Dec 2013 03:02:00.162,994.140
41,8 Dec 2013 04:33:20.167,8 Dec 2013 04:51:03.494,1063.327
42,8 Dec 2013 06:22:49.701,8 Dec 2013 06:33:02.040,612.339
43,8 Dec 2013 20:51:58.831,8 Dec 2013 21:02:55.995,657.164
44,8 Dec 2013 22:32:51.186,8 Dec 2013 22:50:20.074,1048.888
45,9 Dec 2013 00:22:33.963,9 Dec 2013 00:37:04.689,870.726
46,9 Dec 2013 02:11:48.139,9 Dec 2013 02:17:41.024,352.884

"Access","Start Time (UTCG)","Stop Time (UTCG)","Duration (sec)"
1,3 Dec 2013 02:19:06.186,3 Dec 2013 02:36:30.928,1044.742
2,3 Dec 2013 04:07:13.169,3 Dec 2013 04:24:02.751,1009.582
3,3 Dec 2013 05:56:11.775,3 Dec 2013 06:13:29.505,1037.730
4,3 Dec 2013 07:43:27.008,3 Dec 2013 07:59:32.772,965.764
5,3 Dec 2013 23:58:06.295,4 Dec 2013 00:14:09.880,963.585
6,4 Dec 2013 01:43:53.051,4 Dec 2013 02:00:57.560,1024.509
7,4 Dec 2013 03:33:41.103,4 Dec 2013 03:49:53.784,972.680
8,4 Dec 2013 05:21:18.440,4 Dec 2013 05:38:58.584,1060.144
9,4 Dec 2013 07:04:45.381,4 Dec 2013 07:18:33.996,828.616
10,4 Dec 2013 08:45:53.795,4 Dec 2013 08:55:26.387,572.591
11,4 Dec 2013 10:28:48.632,4 Dec 2013 10:31:14.943,146.311
12,4 Dec 2013 21:35:43.219,4 Dec 2013 21:50:49.246,906.028
13,4 Dec 2013 23:19:47.251,4 Dec 2013 23:36:12.136,984.885
14,5 Dec 2013 01:12:08.085,5 Dec 2013 01:22:45.677,637.592
15,5 Dec 2013 02:52:47.464,5 Dec 2013 03:07:05.616,858.152
16,5 Dec 2013 04:32:39.092,5 Dec 2013 04:48:35.006,955.913
17,5 Dec 2013 06:12:53.022,5 Dec 2013 06:29:18.199,985.177
18,5 Dec 2013 07:53:43.100,5 Dec 2013 08:10:19.708,996.609
19,5 Dec 2013 09:35:30.078,5 Dec 2013 09:52:15.762,1005.685
20,5 Dec 2013 11:18:20.461,5 Dec 2013 11:35:20.917,1020.455
21,5 Dec 2013 19:11:41.776,5 Dec 2013 19:25:33.860,832.084
22,5 Dec 2013 20:53:31.573,5 Dec 2013 21:09:46.299,974.726
23,5 Dec 2013 22:36:26.671,5 Dec 2013 22:52:36.077,969.406
24,6 Dec 2013 00:18:11.323,6 Dec 2013 00:34:21.638,970.315
25,6 Dec 2013 01:59:10.514,6 Dec 2013 02:15:10.382,959.868
26,6 Dec 2013 03:40:09.174,6 Dec 2013 03:55:27.278,918.105
27,6 Dec 2013 05:22:17.435,6 Dec 2013 05:35:27.279,789.844
28,6 Dec 2013 07:07:43.274,6 Dec 2013 07:21:19.369,816.095
29,6 Dec 2013 08:52:47.537,6 Dec 2013 09:10:07.964,1040.427
30,6 Dec 2013 18:33:55.168,6 Dec 2013 18:37:06.463,191.295
31,6 Dec 2013 20:12:25.058,6 Dec 2013 20:21:08.446,523.388
32,6 Dec 2013 21:51:25.075,6 Dec 2013 22:02:37.597,672.522
33,6 Dec 2013 23:29:41.532,6 Dec 2013 23:43:21.334,819.802
34,7 Dec 2013 01:07:53.343,7 Dec 2013 01:23:41.578,948.235
35,7 Dec 2013 02:51:43.715,7 Dec 2013 03:09:00.115,1036.400
36,7 Dec 2013 04:41:42.457,7 Dec 2013 04:57:51.067,968.610
37,7 Dec 2013 06:29:01.376,7 Dec 2013 06:46:37.978,1056.602
38,7 Dec 2013 08:18:02.621,7 Dec 2013 08:26:37.058,514.437
39,7 Dec 2013 22:48:12.508,7 Dec 2013 22:57:42.855,570.346
40,8 Dec 2013 00:29:14.278,8 Dec 2013 00:46:54.888,1060.609
41,8 Dec 2013 02:18:02.861,8 Dec 2013 02:34:37.670,994.809
42,8 Dec 2013 04:06:32.096,8 Dec 2013 04:24:08.641,1056.545
43,8 Dec 2013 05:54:32.628,8 Dec 2013 06:08:52.194,859.566
44,8 Dec 2013 22:06:31.502,8 Dec 2013 22:23:53.252,1041.750
45,8 Dec 2013 23:54:43.457,9 Dec 2013 00:10:02.117,918.660
46,9 Dec 2013 01:44:55.582,9 Dec 2013 02:00:13.594,918.012

"Access","Start Time (UTCG)","Stop Time (UTCG)","Duration (sec)"
1,3 Dec 2013 01:53:05.499,3 Dec 2013 02:09:31.861,986.363
2,3 Dec 2013 03:39:47.205,3 Dec 2013 03:57:01.161,1033.955
3,3 Dec 2013 05:29:13.712,3 Dec 2013 05:46:06.958,1013.245
4,3 Dec 2013 07:16:31.186,3 Dec 2013 07:33:45.682,1034.496
5,3 Dec 2013 23:33:14.166,3 Dec 2013 23:46:59.061,824.895
6,4 Dec 2013 01:16:44.675,4 Dec 2013 01:34:15.103,1050.429
7,4 Dec 2013 03:06:21.961,4 Dec 2013 03:22:19.857,957.896
8,4 Dec 2013 04:54:29.855,4 Dec 2013 05:12:09.470,1059.615
9,4 Dec 2013 06:39:35.428,4 Dec 2013 06:54:12.650,877.222
10,4 Dec 2013 08:20:31.836,4 Dec 2013 08:31:16.833,644.997
11,4 Dec 2013 10:02:36.686,4 Dec 2013 10:07:38.375,301.688
12,4 Dec 2013 21:11:46.724,4 Dec 2013 21:23:37.408,710.684
13,4 Dec 2013 22:52:48.576,4 Dec 2013 23:10:00.982,1032.406
14,5 Dec 2013 00:43:49.340,5 Dec 2013 00:55:30.576,701.236
15,5 Dec 2013 02:27:54.501,5 Dec 2013 02:41:24.817,810.316
16,5 Dec 2013 04:07:39.092,5 Dec 2013 04:23:20.228,941.135
17,5 Dec 2013 05:47:47.025,5 Dec 2013 06:04:07.681,980.656
18,5 Dec 2013 07:28:25.912,5 Dec 2013 07:45:00.195,994.283
19,5 Dec 2013 09:09:57.366,5 Dec 2013 09:26:40.603,1003.237
20,5 Dec 2013 10:52:30.990,5 Dec 2013 11:09:28.515,1017.525
21,5 Dec 2013 12:38:41.193,5 Dec 2013 12:47:22.296,521.102
22,5 Dec 2013 18:48:52.418,5 Dec 2013 18:58:01.767,549.349
23,5 Dec 2013 20:27:04.052,5 Dec 2013 20:43:58.064,1014.012
24,5 Dec 2013 22:10:50.014,5 Dec 2013 22:26:59.243,969.229
25,5 Dec 2013 23:52:50.730,6 Dec 2013 00:09:01.363,970.634
26,6 Dec 2013 01:33:57.893,6 Dec 2013 01:50:02.195,964.302
27,6 Dec 2013 03:14:51.233,6 Dec 2013 03:30:24.806,933.574
28,6 Dec 2013 04:56:33.733,6 Dec 2013 05:10:29.179,835.446
29,6 Dec 2013 06:41:01.402,6 Dec 2013 06:52:58.507,717.105
30,6 Dec 2013 08:26:33.099,6 Dec 2013 08:43:48.106,1035.007
31,6 Dec 2013 10:13:05.211,6 Dec 2013 10:24:36.519,691.308
32,6 Dec 2013 19:47:35.971,6 Dec 2013 19:55:31.572,475.601
33,6 Dec 2013 21:26:44.302,6 Dec 2013 21:37:21.366,637.064
34,6 Dec 2013 23:05:10.233,6 Dec 2013 23:18:12.812,782.579
35,7 Dec 2013 00:43:17.229,7 Dec 2013 00:58:38.795,921.565
36,7 Dec 2013 02:24:31.939,7 Dec 2013 02:42:11.339,1059.400
37,7 Dec 2013 04:14:20.722,7 Dec 2013 04:30:20.895,960.172
38,7 Dec 2013 06:02:23.362,7 Dec 2013 06:19:55.284,1051.922
39,7 Dec 2013 07:49:44.125,7 Dec 2013 08:03:17.219,813.094
40,8 Dec 2013 00:02:52.568,8 Dec 2013 00:20:09.272,1036.704
41,8 Dec 2013 01:50:35.214,8 Dec 2013 02:07:26.764,1011.551
42,8 Dec 2013 03:39:39.899,8 Dec 2013 03:56:54.616,1034.717
43,8 Dec 2013 05:27:10.049,8 Dec 2013 05:43:33.117,983.069
44,8 Dec 2013 21:40:48.127,8 Dec 2013 21:57:19.368,991.242
45,8 Dec 2013 23:27:02.607,8 Dec 2013 23:43:18.318,975.711
46,9 Dec 2013 01:17:47.471,9 Dec 2013 01:32:17.386,869.915

"Access","Start Time (UTCG)","Stop Time (UTCG)","Duration (sec)"
1,3 Dec 2013 01:27:44.772,3 Dec 2013 01:42:10.896,866.125
2,3 Dec 2013 03:12:32.723,3 Dec 2013 03:30:08.686,1055.963
3,3 Dec 2013 05:02:03.414,3 Dec 2013 05:18:39.421,996.007
4,3 Dec 2013 06:49:45.056,3 Dec 2013 07:07:25.319,1060.263
5,3 Dec 2013 08:39:06.833,3 Dec 2013 08:48:15.433,548.600
6,3 Dec 2013 23:09:46.268,3 Dec 2013 23:18:48.120,541.852
7,4 Dec 2013 00:50:00.439,4 Dec 2013 01:07:37.358,1056.919
8,4 Dec 2013 02:38:51.806,4 Dec 2013 02:54:57.251,965.445
9,4 Dec 2013 04:27:41.310,4 Dec 2013 04:44:58.018,1036.708
10,4 Dec 2013 06:14:28.211,4 Dec 2013 06:29:46.414,918.202
11,4 Dec 2013 07:55:13.411,4 Dec 2013 08:07:05.319,711.908
12,4 Dec 2013 09:36:53.095,4 Dec 2013 09:43:39.215,406.120
13,4 Dec 2013 20:50:47.286,4 Dec 2013 20:53:58.179,190.893
14,4 Dec 2013 22:26:26.318,4 Dec 2013 22:43:47.505,1041.187
15,5 Dec 2013 00:15:25.748,5 Dec 2013 00:28:48.751,803.004
16,5 Dec 2013 02:03:05.437,5 Dec 2013 02:15:32.037,746.601
17,5 Dec 2013 03:42:40.335,5 Dec 2013 03:58:01.431,921.096
18,5 Dec 2013 05:22:42.888,5 Dec 2013 05:38:57.619,974.730
19,5 Dec 2013 07:03:12.080,5 Dec 2013 07:19:43.795,991.715
20,5 Dec 2013 08:44:28.659,5 Dec 2013 09:01:09.641,1000.982
21,5 Dec 2013 10:26:47.086,5 Dec 2013 10:43:38.630,1011.544
22,5 Dec 2013 12:11:01.826,5 Dec 2013 12:24:41.570,819.744
23,5 Dec 2013 20:01:08.986,5 Dec 2013 20:18:10.814,1021.828
24,5 Dec 2013 21:45:08.637,5 Dec 2013 22:01:18.443,969.806
25,5 Dec 2013 23:27:26.697,5 Dec 2013 23:43:37.123,970.426
26,6 Dec 2013 01:08:44.300,6 Dec 2013 01:24:51.639,967.339
27,6 Dec 2013 02:49:36.206,6 Dec 2013 03:05:21.337,945.131
28,6 Dec 2013 04:30:58.955,6 Dec 2013 04:45:29.569,870.614
29,6 Dec 2013 06:14:21.283,6 Dec 2013 06:25:14.846,653.563
30,6 Dec 2013 08:00:21.136,6 Dec 2013 08:16:51.985,990.849
31,6 Dec 2013 09:45:49.102,6 Dec 2013 10:00:45.423,896.321
32,6 Dec 2013 19:22:49.050,6 Dec 2013 19:29:44.525,415.475
33,6 Dec 2013 21:02:00.387,6 Dec 2013 21:12:01.807,601.421
34,6 Dec 2013 22:40:37.568,6 Dec 2013 22:53:02.856,745.289
35,7 Dec 2013 00:18:43.960,7 Dec 2013 00:33:34.380,890.421
36,7 Dec 2013 01:57:42.306,7 Dec 2013 02:15:22.817,1060.511
37,7 Dec 2013 03:46:47.549,7 Dec 2013 04:03:01.331,973.783
38,7 Dec 2013 05:35:40.990,7 Dec 2013 05:52:48.257,1027.267
39,7 Dec 2013 07:22:30.796,7 Dec 2013 07:38:28.264,957.468
40,7 Dec 2013 23:37:03.810,7 Dec 2013 23:53:14.518,970.708
41,8 Dec 2013 01:23:12.123,8 Dec 2013 01:40:28.242,1036.119
42,8 Dec 2013 03:12:38.764,8 Dec 2013 03:29:28.751,1009.986
43,8 Dec 2013 05:00:10.186,8 Dec 2013 05:17:33.562,1043.376
44,8 Dec 2013 21:15:49.411,8 Dec 2013 21:30:28.273,878.863
45,8 Dec 2013 22:59:42.918,8 Dec 2013 23:16:46.448,1023.530
46,9 Dec 2013 00:50:19.262,9 Dec 2013 01:04:30.635,851.373

