Raw and processed data/Altitude Variations/us_greatcircle_12sat_750km/Aircraft-B747LAX_Sydney-Transmitter-adsb_out6212-To-Satellite-750km_p1_1-Receiver-adsb_satrcvr2 Access.csv

"Access","Start Time (UTCG)","Stop Time (UTCG)","Duration (sec)"
1,3 Dec 2013 04:03:37.778,3 Dec 2013 04:09:47.842,370.065
2,3 Dec 2013 05:46:51.269,3 Dec 2013 06:04:14.595,1043.326
3,3 Dec 2013 07:36:31.822,3 Dec 2013 07:48:48.369,736.547
4,3 Dec 2013 13:08:52.338,3 Dec 2013 13:25:16.238,983.900
5,3 Dec 2013 14:52:23.672,3 Dec 2013 15:08:10.960,947.287
6,3 Dec 2013 16:36:49.569,3 Dec 2013 16:50:27.678,818.108
7,3 Dec 2013 18:24:07.476,3 Dec 2013 18:31:15.100,427.624
8,4 Dec 2013 03:11:09.937,4 Dec 2013 03:18:42.409,452.472
9,4 Dec 2013 04:56:26.686,4 Dec 2013 05:11:14.459,887.773
10,4 Dec 2013 06:42:57.596,4 Dec 2013 07:00:14.752,1037.156
11,4 Dec 2013 14:09:11.711,4 Dec 2013 14:25:29.455,977.743
12,4 Dec 2013 15:54:20.807,4 Dec 2013 16:03:50.389,569.582
13,5 Dec 2013 04:15:01.401,5 Dec 2013 04:27:03.319,721.918
14,5 Dec 2013 05:53:33.880,5 Dec 2013 06:09:30.961,957.080
15,5 Dec 2013 07:39:51.934,5 Dec 2013 07:55:02.986,911.053
16,5 Dec 2013 15:09:43.935,5 Dec 2013 15:26:12.782,988.847
17,5 Dec 2013 16:56:41.932,5 Dec 2013 17:01:51.878,309.946
18,6 Dec 2013 03:39:36.392,6 Dec 2013 03:51:15.927,699.535
19,6 Dec 2013 05:17:10.762,6 Dec 2013 05:33:26.350,975.588
20,6 Dec 2013 06:57:07.675,6 Dec 2013 07:12:28.053,920.378
21,6 Dec 2013 08:38:41.376,6 Dec 2013 08:49:05.207,623.831
22,6 Dec 2013 16:10:23.075,6 Dec 2013 16:27:06.137,1003.062
23,7 Dec 2013 03:03:14.437,7 Dec 2013 03:16:04.461,770.024
24,7 Dec 2013 04:40:54.233,7 Dec 2013 04:57:16.186,981.953
25,7 Dec 2013 06:21:40.444,7 Dec 2013 06:35:21.780,821.336
26,7 Dec 2013 17:11:09.361,7 Dec 2013 17:27:55.519,1006.158
27,8 Dec 2013 00:50:02.278,8 Dec 2013 00:58:46.390,524.112
28,8 Dec 2013 02:25:59.089,8 Dec 2013 02:40:51.654,892.565
29,8 Dec 2013 04:04:39.926,8 Dec 2013 04:21:01.768,981.842
30,8 Dec 2013 05:46:19.429,8 Dec 2013 05:58:58.110,758.680
31,8 Dec 2013 18:11:59.557,8 Dec 2013 18:28:36.487,996.931
32,9 Dec 2013 01:43:44.429,9 Dec 2013 01:58:21.770,877.341
33,9 Dec 2013 03:28:29.794,9 Dec 2013 03:44:38.183,968.389
34,9 Dec 2013 05:10:35.665,9 Dec 2013 05:23:18.854,763.188
35,9 Dec 2013 17:35:11.426,9 Dec 2013 17:43:24.463,493.037
36,9 Dec 2013 19:12:41.196,9 Dec 2013 19:29:08.888,987.692
37,10 Dec 2013 02:38:19.761,10 Dec 2013 02:55:23.823,1024.061
38,10 Dec 2013 04:26:49.386,10 Dec 2013 04:42:05.932,916.546

"Access","Start Time (UTCG)","Stop Time (UTCG)","Duration (sec)"
1,3 Dec 2013 01:42:29.117,3 Dec 2013 01:49:06.978,397.860
2,3 Dec 2013 05:20:30.851,3 Dec 2013 05:36:52.174,981.323
3,3 Dec 2013 07:08:05.637,3 Dec 2013 07:23:28.206,922.569
4,3 Dec 2013 12:43:40.273,3 Dec 2013 12:58:07.237,866.964
5,3 Dec 2013 14:26:31.629,3 Dec 2013 14:42:34.486,962.856
6,3 Dec 2013 16:10:32.774,3 Dec 2013 16:24:56.699,863.925
7,3 Dec 2013 17:56:47.218,3 Dec 2013 18:06:24.753,577.535
8,4 Dec 2013 02:47:22.411,4 Dec 2013 02:51:12.111,229.699
9,4 Dec 2013 04:29:51.656,4 Dec 2013 04:42:49.084,777.428
10,4 Dec 2013 06:16:04.877,4 Dec 2013 06:33:44.020,1059.144
11,4 Dec 2013 08:07:47.756,4 Dec 2013 08:15:20.066,452.310
12,4 Dec 2013 13:44:23.552,4 Dec 2013 13:58:32.721,849.169
13,4 Dec 2013 15:26:48.305,4 Dec 2013 15:41:00.815,852.509
14,5 Dec 2013 03:50:56.919,5 Dec 2013 04:00:38.200,581.280
15,5 Dec 2013 05:28:45.310,5 Dec 2013 05:44:11.687,926.377
16,5 Dec 2013 07:12:31.111,5 Dec 2013 07:29:25.061,1013.950
17,5 Dec 2013 14:45:02.547,5 Dec 2013 14:59:41.430,878.883
18,5 Dec 2013 16:27:44.142,5 Dec 2013 16:40:32.539,768.396
19,6 Dec 2013 03:16:14.770,6 Dec 2013 03:24:35.569,500.800
20,6 Dec 2013 04:52:28.336,6 Dec 2013 05:08:16.523,948.188
21,6 Dec 2013 06:31:59.847,6 Dec 2013 06:47:55.931,956.084
22,6 Dec 2013 08:13:06.255,6 Dec 2013 08:25:11.438,725.183
23,6 Dec 2013 15:45:32.817,6 Dec 2013 16:01:03.995,931.179
24,6 Dec 2013 17:29:42.172,6 Dec 2013 17:39:54.579,612.407
25,7 Dec 2013 02:39:37.493,7 Dec 2013 02:50:03.533,626.040
26,7 Dec 2013 04:16:09.692,7 Dec 2013 04:32:16.216,966.524
27,7 Dec 2013 05:56:11.010,7 Dec 2013 06:11:10.481,899.471
28,7 Dec 2013 07:41:58.579,7 Dec 2013 07:43:47.319,108.740
29,7 Dec 2013 16:46:00.766,7 Dec 2013 17:02:16.903,976.137
30,7 Dec 2013 18:33:15.430,7 Dec 2013 18:38:32.678,317.247
31,8 Dec 2013 02:01:42.054,8 Dec 2013 02:15:33.849,831.796
32,8 Dec 2013 03:39:45.771,8 Dec 2013 03:56:08.542,982.770
33,8 Dec 2013 05:20:30.503,8 Dec 2013 05:34:49.625,859.121
34,8 Dec 2013 17:46:28.514,8 Dec 2013 18:03:10.814,1002.300
35,9 Dec 2013 01:19:23.285,9 Dec 2013 01:29:54.680,631.395
36,9 Dec 2013 03:01:58.070,9 Dec 2013 03:19:37.294,1059.224
37,9 Dec 2013 04:44:44.685,9 Dec 2013 04:58:50.811,846.126
38,9 Dec 2013 18:46:48.770,9 Dec 2013 19:03:43.536,1014.765
39,10 Dec 2013 02:12:29.717,10 Dec 2013 02:28:00.146,930.429
40,10 Dec 2013 03:58:57.864,10 Dec 2013 04:15:35.552,997.688
41,10 Dec 2013 05:52:02.931,10 Dec 2013 05:58:06.556,363.625

"Access","Start Time (UTCG)","Stop Time (UTCG)","Duration (sec)"
1,3 Dec 2013 01:12:36.075,3 Dec 2013 01:24:10.999,694.924
2,3 Dec 2013 04:54:26.709,3 Dec 2013 05:08:51.730,865.022
3,3 Dec 2013 06:40:31.479,3 Dec 2013 06:57:31.016,1019.537
4,3 Dec 2013 12:19:10.203,3 Dec 2013 12:29:38.181,627.977
5,3 Dec 2013 14:00:23.598,3 Dec 2013 14:17:00.257,996.659
6,3 Dec 2013 15:44:23.559,3 Dec 2013 15:59:22.903,899.344
7,3 Dec 2013 17:29:53.309,3 Dec 2013 17:41:14.708,681.400
8,4 Dec 2013 04:02:58.717,4 Dec 2013 04:14:11.734,673.017
9,4 Dec 2013 05:49:26.426,4 Dec 2013 06:06:43.926,1037.500
10,4 Dec 2013 07:38:11.596,4 Dec 2013 07:51:31.747,800.151
11,4 Dec 2013 13:20:44.365,4 Dec 2013 13:29:58.984,554.619
12,4 Dec 2013 15:00:23.770,4 Dec 2013 15:16:42.235,978.465
13,5 Dec 2013 03:27:43.742,5 Dec 2013 03:33:14.150,330.408
14,5 Dec 2013 05:04:01.951,5 Dec 2013 05:18:42.911,880.960
15,5 Dec 2013 06:45:33.948,5 Dec 2013 07:03:10.162,1056.214
16,5 Dec 2013 14:21:31.795,5 Dec 2013 14:31:44.181,612.386
17,5 Dec 2013 16:01:00.378,5 Dec 2013 16:16:42.876,942.498
18,6 Dec 2013 04:27:55.601,6 Dec 2013 04:42:54.237,898.637
19,6 Dec 2013 06:06:57.474,6 Dec 2013 06:23:15.196,977.722
20,6 Dec 2013 07:47:40.161,6 Dec 2013 08:01:06.320,806.160
21,6 Dec 2013 15:21:42.114,6 Dec 2013 15:33:58.185,736.071
22,6 Dec 2013 17:02:11.118,6 Dec 2013 17:16:49.139,878.020
23,7 Dec 2013 02:16:53.018,7 Dec 2013 02:23:13.608,380.590
24,7 Dec 2013 03:51:36.580,7 Dec 2013 04:07:05.462,928.883
25,7 Dec 2013 05:30:54.607,7 Dec 2013 05:46:44.240,949.633
26,7 Dec 2013 07:13:44.420,7 Dec 2013 07:22:30.747,526.326
27,7 Dec 2013 16:21:43.701,7 Dec 2013 16:35:51.383,847.681
28,7 Dec 2013 18:03:54.890,7 Dec 2013 18:16:55.522,780.632
29,8 Dec 2013 01:37:35.280,8 Dec 2013 01:50:08.843,753.564
30,8 Dec 2013 03:15:01.095,8 Dec 2013 03:31:08.867,967.771
31,8 Dec 2013 04:55:00.373,8 Dec 2013 05:10:24.455,924.082
32,8 Dec 2013 06:40:11.931,8 Dec 2013 06:45:05.420,293.490
33,8 Dec 2013 17:21:45.998,8 Dec 2013 17:37:08.745,922.748
34,8 Dec 2013 19:05:58.799,8 Dec 2013 19:17:09.454,670.656
35,9 Dec 2013 02:35:19.258,9 Dec 2013 02:52:50.256,1050.997
36,9 Dec 2013 04:19:09.118,9 Dec 2013 04:34:12.732,903.615
37,9 Dec 2013 06:03:45.592,9 Dec 2013 06:11:06.207,440.615
38,9 Dec 2013 18:21:44.214,9 Dec 2013 18:37:49.505,965.291
39,9 Dec 2013 20:07:41.425,9 Dec 2013 20:17:53.292,611.868
40,10 Dec 2013 01:47:27.000,10 Dec 2013 01:59:48.046,741.046
41,10 Dec 2013 03:31:35.711,10 Dec 2013 03:49:02.666,1046.955
42,10 Dec 2013 05:23:39.381,10 Dec 2013 05:35:31.765,712.384

"Access","Start Time (UTCG)","Stop Time (UTCG)","Duration (sec)"
1,3 Dec 2013 04:28:41.590,3 Dec 2013 04:40:00.756,679.166
2,3 Dec 2013 06:13:29.819,3 Dec 2013 06:31:06.310,1056.490
3,3 Dec 2013 08:07:04.411,3 Dec 2013 08:12:29.531,325.121
4,3 Dec 2013 13:34:27.650,3 Dec 2013 13:51:31.559,1023.909
5,3 Dec 2013 15:18:20.797,3 Dec 2013 15:33:47.355,926.559
6,3 Dec 2013 17:03:15.565,3 Dec 2013 17:15:54.397,758.831
7,3 Dec 2013 18:52:54.458,3 Dec 2013 18:54:46.289,111.831
8,4 Dec 2013 03:35:39.073,4 Dec 2013 03:45:49.365,610.293
9,4 Dec 2013 05:22:55.718,4 Dec 2013 05:39:14.084,978.366
10,4 Dec 2013 07:10:13.928,4 Dec 2013 07:26:13.981,960.053
11,4 Dec 2013 14:34:33.734,4 Dec 2013 14:51:29.778,1016.044
12,5 Dec 2013 04:39:25.988,5 Dec 2013 04:53:01.701,815.713
13,5 Dec 2013 06:18:48.735,5 Dec 2013 06:36:24.699,1055.965
14,5 Dec 2013 08:08:01.765,5 Dec 2013 08:19:44.220,702.455
15,5 Dec 2013 15:35:04.554,5 Dec 2013 15:51:51.738,1007.183
16,6 Dec 2013 04:03:36.010,6 Dec 2013 04:17:16.237,820.227
17,6 Dec 2013 05:42:00.877,6 Dec 2013 05:58:25.548,984.672
18,6 Dec 2013 07:22:20.974,6 Dec 2013 07:36:51.606,870.632
19,6 Dec 2013 09:08:52.571,6 Dec 2013 09:09:40.807,48.236
20,6 Dec 2013 16:35:54.988,6 Dec 2013 16:52:22.266,987.277
21,7 Dec 2013 03:27:16.889,7 Dec 2013 03:41:42.593,865.703
22,7 Dec 2013 05:05:49.251,7 Dec 2013 05:22:05.690,976.438
23,7 Dec 2013 06:47:27.475,7 Dec 2013 06:59:12.882,705.407
24,7 Dec 2013 15:59:01.823,7 Dec 2013 16:07:56.879,535.056
25,7 Dec 2013 17:37:03.081,7 Dec 2013 17:52:52.838,949.757
26,8 Dec 2013 01:13:40.577,8 Dec 2013 01:24:34.582,654.005
27,8 Dec 2013 02:50:25.540,8 Dec 2013 03:06:03.210,937.670
28,8 Dec 2013 04:29:44.334,8 Dec 2013 04:45:47.601,963.267
29,8 Dec 2013 06:12:38.096,8 Dec 2013 06:22:38.637,600.540
30,8 Dec 2013 16:58:10.195,8 Dec 2013 17:10:13.296,723.101
31,8 Dec 2013 18:38:20.972,8 Dec 2013 18:53:24.156,903.183
32,9 Dec 2013 02:09:12.016,9 Dec 2013 02:25:49.515,997.499
33,9 Dec 2013 03:53:45.009,9 Dec 2013 04:09:27.893,942.884
34,9 Dec 2013 05:36:49.436,9 Dec 2013 05:47:30.238,640.802
35,9 Dec 2013 17:57:36.135,9 Dec 2013 18:11:18.087,821.952
36,9 Dec 2013 19:39:27.788,9 Dec 2013 19:54:01.492,873.704
37,10 Dec 2013 01:24:43.528,10 Dec 2013 01:29:06.109,262.581
38,10 Dec 2013 03:04:42.934,10 Dec 2013 03:22:21.104,1058.170
39,10 Dec 2013 04:55:07.044,10 Dec 2013 05:08:41.103,814.059

"Access","Start Time (UTCG)","Stop Time (UTCG)","Duration (sec)"
1,3 Dec 2013 03:27:32.546,3 Dec 2013 03:42:41.565,909.019
2,3 Dec 2013 05:11:20.223,3 Dec 2013 05:23:31.164,730.941
3,3 Dec 2013 11:00:12.669,3 Dec 2013 11:02:10.416,117.747
4,3 Dec 2013 12:38:36.027,3 Dec 2013 12:56:13.418,1057.391
5,3 Dec 2013 14:27:34.343,3 Dec 2013 14:41:09.016,814.673
6,4 Dec 2013 04:27:18.350,4 Dec 2013 04:43:07.973,949.623
7,4 Dec 2013 06:12:28.123,4 Dec 2013 06:24:26.073,717.950
8,4 Dec 2013 11:49:44.014,4 Dec 2013 12:03:44.343,840.328
9,4 Dec 2013 13:35:07.239,4 Dec 2013 13:52:11.428,1024.189
10,4 Dec 2013 15:28:57.803,4 Dec 2013 15:37:38.080,520.277
11,4 Dec 2013 17:19:14.092,4 Dec 2013 17:25:56.879,402.787
12,4 Dec 2013 22:36:29.806,4 Dec 2013 22:39:23.205,173.399
13,5 Dec 2013 00:16:56.142,5 Dec 2013 00:29:09.046,732.905
14,5 Dec 2013 01:59:34.370,5 Dec 2013 02:15:16.234,941.864
15,5 Dec 2013 03:42:52.108,5 Dec 2013 03:59:46.407,1014.299
16,5 Dec 2013 05:26:16.241,5 Dec 2013 05:43:17.121,1020.880
17,5 Dec 2013 07:12:28.590,5 Dec 2013 07:25:31.936,783.346
18,5 Dec 2013 12:44:02.391,5 Dec 2013 13:01:16.961,1034.570
19,5 Dec 2013 14:33:19.903,5 Dec 2013 14:46:42.487,802.584
20,5 Dec 2013 18:20:43.572,5 Dec 2013 18:28:26.651,463.079
21,5 Dec 2013 20:02:01.621,5 Dec 2013 20:18:02.138,960.517
22,5 Dec 2013 21:45:24.236,5 Dec 2013 22:02:04.470,1000.233
23,5 Dec 2013 23:29:14.057,5 Dec 2013 23:46:22.414,1028.357
24,6 Dec 2013 01:13:46.621,6 Dec 2013 01:30:19.052,992.430
25,6 Dec 2013 02:59:24.508,6 Dec 2013 03:13:44.128,859.620
26,6 Dec 2013 04:46:01.529,6 Dec 2013 04:56:56.348,654.819
27,6 Dec 2013 06:32:01.352,6 Dec 2013 06:40:49.923,528.571
28,6 Dec 2013 08:15:31.084,6 Dec 2013 08:25:40.752,609.668
29,6 Dec 2013 11:54:09.931,6 Dec 2013 12:07:55.040,825.110
30,6 Dec 2013 13:40:00.945,6 Dec 2013 13:57:20.582,1039.637
31,6 Dec 2013 21:01:45.778,6 Dec 2013 21:18:47.455,1021.677
32,6 Dec 2013 22:46:52.214,6 Dec 2013 22:59:13.094,740.880
33,7 Dec 2013 00:34:15.984,7 Dec 2013 00:38:39.776,263.792
34,7 Dec 2013 11:04:15.879,7 Dec 2013 11:14:39.801,623.922
35,7 Dec 2013 12:49:09.851,7 Dec 2013 13:06:10.346,1020.495
36,7 Dec 2013 14:37:09.688,7 Dec 2013 14:51:53.653,883.966
37,7 Dec 2013 22:01:58.605,7 Dec 2013 22:18:51.249,1012.645
38,8 Dec 2013 10:31:24.577,8 Dec 2013 10:36:45.333,320.755
39,8 Dec 2013 12:07:13.920,8 Dec 2013 12:22:12.207,898.288
40,8 Dec 2013 13:46:29.852,8 Dec 2013 14:02:58.481,988.629
41,8 Dec 2013 15:35:36.417,8 Dec 2013 15:44:30.538,534.121
42,8 Dec 2013 23:02:35.855,8 Dec 2013 23:19:13.731,997.876
43,9 Dec 2013 09:57:10.536,9 Dec 2013 10:00:40.223,209.687
44,9 Dec 2013 11:31:02.712,9 Dec 2013 11:46:21.867,919.155
45,9 Dec 2013 13:10:14.441,9 Dec 2013 13:26:19.563,965.123
46,9 Dec 2013 14:51:32.149,9 Dec 2013 15:03:24.636,712.487
47,9 Dec 2013 22:26:34.867,9 Dec 2013 22:33:22.055,407.188
48,10 Dec 2013 00:03:34.102,10 Dec 2013 00:19:41.504,967.402

"Access","Start Time (UTCG)","Stop Time (UTCG)","Duration (sec)"
1,3 Dec 2013 03:04:05.575,3 Dec 2013 03:15:40.003,694.429
2,3 Dec 2013 04:43:54.261,3 Dec 2013 04:59:22.165,927.904
3,3 Dec 2013 12:12:17.469,3 Dec 2013 12:29:15.979,1018.510
4,3 Dec 2013 14:00:23.818,3 Dec 2013 14:16:15.885,952.067
5,3 Dec 2013 15:46:27.828,3 Dec 2013 15:54:09.161,461.334
6,4 Dec 2013 04:03:19.564,4 Dec 2013 04:16:26.967,787.403
7,4 Dec 2013 05:44:40.224,4 Dec 2013 05:59:57.619,917.394
8,4 Dec 2013 11:25:17.981,4 Dec 2013 11:34:34.847,556.866
9,4 Dec 2013 13:08:00.710,4 Dec 2013 13:25:37.817,1057.107
10,4 Dec 2013 14:59:45.734,4 Dec 2013 15:11:10.226,684.491
11,4 Dec 2013 16:52:35.006,4 Dec 2013 17:01:05.062,510.056
12,4 Dec 2013 23:51:27.463,5 Dec 2013 00:02:13.950,646.488
13,5 Dec 2013 01:33:49.868,5 Dec 2013 01:48:55.716,905.848
14,5 Dec 2013 03:17:00.682,5 Dec 2013 03:33:45.385,1004.704
15,5 Dec 2013 05:00:26.620,5 Dec 2013 05:17:29.056,1022.436
16,5 Dec 2013 06:44:42.310,5 Dec 2013 07:00:22.280,939.969
17,5 Dec 2013 12:17:53.784,5 Dec 2013 12:33:50.638,956.854
18,5 Dec 2013 14:05:04.807,5 Dec 2013 14:20:54.779,949.972
19,5 Dec 2013 19:36:15.503,5 Dec 2013 19:52:09.054,953.551
20,5 Dec 2013 21:19:31.191,5 Dec 2013 21:36:00.628,989.437
21,5 Dec 2013 23:03:13.496,5 Dec 2013 23:20:18.865,1025.369
22,6 Dec 2013 00:47:33.127,6 Dec 2013 01:04:22.952,1009.825
23,6 Dec 2013 02:32:53.225,6 Dec 2013 02:47:55.312,902.087
24,6 Dec 2013 04:19:19.981,6 Dec 2013 04:31:07.191,707.210
25,6 Dec 2013 06:05:43.608,6 Dec 2013 06:14:44.052,540.444
26,6 Dec 2013 07:49:51.730,6 Dec 2013 07:59:28.368,576.639
27,6 Dec 2013 09:40:33.130,6 Dec 2013 09:41:52.418,79.288
28,6 Dec 2013 11:28:14.415,6 Dec 2013 11:38:54.711,640.296
29,6 Dec 2013 13:13:08.927,6 Dec 2013 13:30:46.521,1057.594
30,6 Dec 2013 15:04:48.769,6 Dec 2013 15:13:21.504,512.734
31,6 Dec 2013 20:36:11.699,6 Dec 2013 20:52:42.571,990.872
32,6 Dec 2013 22:20:44.023,6 Dec 2013 22:33:53.507,789.484
33,7 Dec 2013 00:06:36.501,7 Dec 2013 00:14:27.144,470.643
34,7 Dec 2013 10:39:56.232,7 Dec 2013 10:48:04.221,487.989
35,7 Dec 2013 12:22:35.952,7 Dec 2013 12:38:30.071,954.119
36,7 Dec 2013 14:09:35.962,7 Dec 2013 14:26:17.812,1001.849
37,7 Dec 2013 21:36:33.817,7 Dec 2013 21:53:03.435,989.618
38,7 Dec 2013 23:22:38.054,7 Dec 2013 23:29:59.755,441.701
39,8 Dec 2013 11:42:41.099,8 Dec 2013 11:56:34.225,833.126
40,8 Dec 2013 13:21:34.409,8 Dec 2013 13:37:58.513,984.104
41,8 Dec 2013 15:06:45.668,8 Dec 2013 15:20:39.882,834.214
42,8 Dec 2013 22:37:08.069,8 Dec 2013 22:53:47.917,999.848
43,9 Dec 2013 11:06:41.206,9 Dec 2013 11:20:51.090,849.884
44,9 Dec 2013 12:45:14.236,9 Dec 2013 13:01:36.106,981.870
45,9 Dec 2013 14:25:59.181,9 Dec 2013 14:39:27.043,807.862
46,9 Dec 2013 23:37:50.924,9 Dec 2013 23:54:37.695,1006.772

"Access","Start Time (UTCG)","Stop Time (UTCG)","Duration (sec)"
1,3 Dec 2013 04:17:37.378,3 Dec 2013 04:34:22.489,1005.111
2,3 Dec 2013 11:46:34.384,3 Dec 2013 12:01:53.889,919.505
3,3 Dec 2013 13:32:41.498,3 Dec 2013 13:49:36.101,1014.603
4,3 Dec 2013 15:19:41.178,3 Dec 2013 15:30:09.984,628.806
5,4 Dec 2013 03:41:22.876,4 Dec 2013 03:48:07.654,404.778
6,4 Dec 2013 05:18:03.130,4 Dec 2013 05:34:47.583,1004.453
7,4 Dec 2013 12:41:23.493,4 Dec 2013 12:58:48.590,1045.097
8,4 Dec 2013 14:30:58.260,4 Dec 2013 14:44:52.604,834.343
9,4 Dec 2013 16:25:50.991,4 Dec 2013 16:33:00.600,429.610
10,4 Dec 2013 23:26:06.283,4 Dec 2013 23:35:05.315,539.032
11,5 Dec 2013 01:08:08.274,5 Dec 2013 01:22:28.425,860.151
12,5 Dec 2013 02:51:10.245,5 Dec 2013 03:07:40.377,990.133
13,5 Dec 2013 04:34:35.669,5 Dec 2013 04:51:37.996,1022.327
14,5 Dec 2013 06:17:55.315,5 Dec 2013 06:34:49.827,1014.512
15,5 Dec 2013 11:52:12.884,5 Dec 2013 12:05:40.005,807.121
16,5 Dec 2013 13:37:33.778,5 Dec 2013 13:54:44.148,1030.370
17,5 Dec 2013 19:10:37.944,5 Dec 2013 19:26:00.461,922.517
18,5 Dec 2013 20:53:39.674,5 Dec 2013 21:09:58.492,978.819
19,5 Dec 2013 22:37:15.200,5 Dec 2013 22:54:14.290,1019.090
20,6 Dec 2013 00:21:23.470,6 Dec 2013 00:38:24.730,1021.259
21,6 Dec 2013 02:06:26.467,6 Dec 2013 02:22:05.061,938.594
22,6 Dec 2013 03:52:38.865,6 Dec 2013 04:05:19.386,760.520
23,6 Dec 2013 05:39:16.134,6 Dec 2013 05:48:43.575,567.441
24,6 Dec 2013 07:24:04.666,6 Dec 2013 07:33:14.170,549.504
25,6 Dec 2013 09:09:14.840,6 Dec 2013 09:17:22.686,487.846
26,6 Dec 2013 11:02:38.139,6 Dec 2013 11:08:55.018,376.878
27,6 Dec 2013 12:46:35.853,6 Dec 2013 13:03:43.818,1027.965
28,6 Dec 2013 14:35:21.349,6 Dec 2013 14:48:57.560,816.211
29,6 Dec 2013 20:11:02.868,6 Dec 2013 20:25:44.634,881.766
30,6 Dec 2013 21:54:09.746,6 Dec 2013 22:08:31.332,861.586
31,6 Dec 2013 23:39:43.095,6 Dec 2013 23:49:35.064,591.969
32,7 Dec 2013 10:16:25.396,7 Dec 2013 10:20:29.507,244.111
33,7 Dec 2013 11:55:57.689,7 Dec 2013 12:10:24.701,867.012
34,7 Dec 2013 13:42:32.587,7 Dec 2013 14:00:05.324,1052.737
35,7 Dec 2013 21:11:43.026,7 Dec 2013 21:26:22.050,879.025
36,7 Dec 2013 22:54:28.668,7 Dec 2013 23:07:52.750,804.083
37,8 Dec 2013 11:18:21.112,8 Dec 2013 11:30:38.293,737.181
38,8 Dec 2013 12:56:42.529,8 Dec 2013 13:12:51.903,969.374
39,8 Dec 2013 14:39:10.337,8 Dec 2013 14:55:26.053,975.716
40,8 Dec 2013 22:12:18.865,8 Dec 2013 22:27:32.945,914.080
41,8 Dec 2013 23:55:46.742,9 Dec 2013 00:07:16.612,689.870
42,9 Dec 2013 10:42:38.054,9 Dec 2013 10:55:00.819,742.765
43,9 Dec 2013 12:20:21.497,9 Dec 2013 12:36:42.498,981.001
44,9 Dec 2013 14:00:36.386,9 Dec 2013 14:15:15.774,879.388
45,9 Dec 2013 15:43:36.216,9 Dec 2013 15:50:11.252,395.035
46,9 Dec 2013 23:12:49.787,9 Dec 2013 23:28:49.656,959.869
47,10 Dec 2013 00:58:23.909,10 Dec 2013 01:06:15.130,471.221

"Access","Start Time (UTCG)","Stop Time (UTCG)","Duration (sec)"
1,3 Dec 2013 03:52:10.091,3 Dec 2013 04:08:49.192,999.101
2,3 Dec 2013 11:21:44.295,3 Dec 2013 11:33:43.072,718.777
3,3 Dec 2013 13:05:24.735,3 Dec 2013 13:22:57.569,1052.834
4,3 Dec 2013 14:53:27.995,3 Dec 2013 15:05:45.707,737.712
5,4 Dec 2013 04:52:16.753,4 Dec 2013 05:09:10.928,1014.175
6,4 Dec 2013 06:44:04.874,4 Dec 2013 06:45:43.907,99.033
7,4 Dec 2013 12:15:15.797,4 Dec 2013 12:31:35.689,979.892
8,4 Dec 2013 14:02:45.461,4 Dec 2013 14:18:34.833,949.372
9,4 Dec 2013 15:57:58.889,4 Dec 2013 16:04:42.341,403.451
10,4 Dec 2013 17:46:25.262,4 Dec 2013 17:50:29.175,243.913
11,4 Dec 2013 23:00:58.128,4 Dec 2013 23:07:37.330,399.202
12,5 Dec 2013 00:42:30.128,5 Dec 2013 00:55:53.300,803.173
13,5 Dec 2013 02:25:21.314,5 Dec 2013 02:41:30.866,969.552
14,5 Dec 2013 04:08:43.966,5 Dec 2013 04:25:43.842,1019.876
15,5 Dec 2013 05:52:03.969,5 Dec 2013 06:09:02.227,1018.258
16,5 Dec 2013 07:41:54.212,5 Dec 2013 07:49:48.332,474.119
17,5 Dec 2013 11:27:22.405,5 Dec 2013 11:36:10.638,528.233
18,5 Dec 2013 13:10:35.027,5 Dec 2013 13:28:12.500,1057.473
19,5 Dec 2013 15:02:45.917,5 Dec 2013 15:11:51.663,545.746
20,5 Dec 2013 18:45:19.177,5 Dec 2013 18:57:59.766,760.588
21,5 Dec 2013 20:27:49.760,5 Dec 2013 20:43:58.790,969.030
22,5 Dec 2013 22:11:18.858,5 Dec 2013 22:28:09.265,1010.407
23,5 Dec 2013 23:55:17.252,6 Dec 2013 00:12:24.484,1027.232
24,6 Dec 2013 01:40:04.311,6 Dec 2013 01:56:13.048,968.736
25,6 Dec 2013 03:25:59.968,6 Dec 2013 03:39:31.951,811.983
26,6 Dec 2013 05:12:41.169,6 Dec 2013 05:22:48.047,606.878
27,6 Dec 2013 06:58:08.284,6 Dec 2013 07:07:00.552,532.268
28,6 Dec 2013 08:41:04.273,6 Dec 2013 08:51:47.551,643.278
29,6 Dec 2013 12:20:17.034,6 Dec 2013 12:36:08.716,951.681
30,6 Dec 2013 14:07:19.934,6 Dec 2013 14:23:26.377,966.444
31,6 Dec 2013 19:46:38.275,6 Dec 2013 19:57:27.880,649.605
32,6 Dec 2013 21:27:42.739,6 Dec 2013 21:44:05.317,982.578
33,6 Dec 2013 23:13:10.750,6 Dec 2013 23:24:28.057,677.307
34,7 Dec 2013 11:29:05.598,7 Dec 2013 11:42:03.936,778.338
35,7 Dec 2013 13:15:46.543,7 Dec 2013 13:33:22.337,1055.794
36,7 Dec 2013 15:05:44.713,7 Dec 2013 15:16:29.561,644.849
37,7 Dec 2013 20:47:54.139,7 Dec 2013 20:58:15.034,620.895
38,7 Dec 2013 22:27:53.584,7 Dec 2013 22:43:51.071,957.487
39,8 Dec 2013 10:54:23.610,8 Dec 2013 11:04:14.204,590.594
40,8 Dec 2013 12:31:55.202,8 Dec 2013 12:47:37.133,941.931
41,8 Dec 2013 14:12:05.906,8 Dec 2013 14:29:28.422,1042.516
42,8 Dec 2013 21:48:30.071,8 Dec 2013 22:00:05.868,695.797
43,8 Dec 2013 23:28:41.905,8 Dec 2013 23:43:50.608,908.704
44,9 Dec 2013 10:19:06.169,9 Dec 2013 10:28:38.666,572.497
45,9 Dec 2013 11:55:37.109,9 Dec 2013 12:11:38.173,961.064
46,9 Dec 2013 13:35:21.757,9 Dec 2013 13:50:52.932,931.176
47,9 Dec 2013 15:17:19.905,9 Dec 2013 15:27:03.932,584.027
48,9 Dec 2013 22:48:41.544,9 Dec 2013 23:02:07.111,805.567
49,10 Dec 2013 00:30:07.221,10 Dec 2013 00:43:52.347,825.127

"Access","Start Time (UTCG)","Stop Time (UTCG)","Duration (sec)"
1,3 Dec 2013 08:18:18.210,3 Dec 2013 08:33:13.525,895.316
2,3 Dec 2013 10:01:23.267,3 Dec 2013 10:13:16.075,712.808
3,3 Dec 2013 20:48:33.518,3 Dec 2013 21:03:38.874,905.356
4,3 Dec 2013 22:27:34.104,3 Dec 2013 22:43:38.720,964.615
5,4 Dec 2013 00:09:27.641,4 Dec 2013 00:20:15.294,647.653
6,4 Dec 2013 09:18:43.542,4 Dec 2013 09:34:35.357,951.815
7,4 Dec 2013 11:04:00.339,4 Dec 2013 11:12:33.307,512.968
8,4 Dec 2013 18:35:28.307,4 Dec 2013 18:46:04.836,636.529
9,4 Dec 2013 20:11:59.739,4 Dec 2013 20:27:49.352,949.613
10,4 Dec 2013 21:51:35.598,4 Dec 2013 22:07:16.868,941.270
11,4 Dec 2013 23:35:38.006,4 Dec 2013 23:42:40.864,422.858
12,5 Dec 2013 10:19:08.395,5 Dec 2013 10:35:37.863,989.468
13,5 Dec 2013 12:08:43.527,5 Dec 2013 12:10:31.999,108.472
14,5 Dec 2013 17:54:59.835,5 Dec 2013 18:01:59.551,419.716
15,5 Dec 2013 19:35:12.787,5 Dec 2013 19:51:39.438,986.651
16,5 Dec 2013 21:15:41.545,5 Dec 2013 21:31:01.987,920.442
17,5 Dec 2013 23:00:07.464,5 Dec 2013 23:07:36.296,448.832
18,6 Dec 2013 11:19:28.735,6 Dec 2013 11:36:17.698,1008.964
19,6 Dec 2013 18:46:57.137,6 Dec 2013 19:00:59.003,841.865
20,6 Dec 2013 20:32:06.327,6 Dec 2013 20:49:19.231,1032.904
21,6 Dec 2013 22:23:00.135,6 Dec 2013 22:33:52.857,652.722
22,7 Dec 2013 10:39:54.493,7 Dec 2013 10:50:49.923,655.430
23,7 Dec 2013 12:19:32.036,7 Dec 2013 12:36:31.912,1019.876
24,7 Dec 2013 19:41:13.408,7 Dec 2013 19:58:20.037,1026.629
25,7 Dec 2013 21:30:03.665,7 Dec 2013 21:44:30.723,867.058
26,8 Dec 2013 01:12:42.403,8 Dec 2013 01:21:56.439,554.037
27,8 Dec 2013 02:58:07.824,8 Dec 2013 03:04:58.688,410.864
28,8 Dec 2013 04:42:04.548,8 Dec 2013 04:51:12.234,547.687
29,8 Dec 2013 06:25:01.967,8 Dec 2013 06:38:20.783,798.816
30,8 Dec 2013 08:08:13.846,8 Dec 2013 08:24:20.011,966.166
31,8 Dec 2013 09:51:57.953,8 Dec 2013 10:09:04.039,1026.086
32,8 Dec 2013 11:36:04.244,8 Dec 2013 11:52:58.014,1013.770
33,8 Dec 2013 13:19:58.574,8 Dec 2013 13:36:19.106,980.532
34,8 Dec 2013 15:09:22.397,8 Dec 2013 15:17:36.667,494.270
35,8 Dec 2013 18:52:08.607,8 Dec 2013 19:04:32.750,744.144
36,8 Dec 2013 20:37:04.352,8 Dec 2013 20:54:29.939,1045.587
37,9 Dec 2013 02:12:48.641,9 Dec 2013 02:25:29.969,761.328
38,9 Dec 2013 03:55:00.173,9 Dec 2013 04:11:57.585,1017.412
39,9 Dec 2013 05:38:28.503,9 Dec 2013 05:55:31.401,1022.899
40,9 Dec 2013 07:22:48.868,9 Dec 2013 07:39:02.258,973.391
41,9 Dec 2013 09:08:31.374,9 Dec 2013 09:22:00.312,808.938
42,9 Dec 2013 10:56:30.328,9 Dec 2013 11:03:57.117,446.788
43,9 Dec 2013 16:11:30.414,9 Dec 2013 16:19:01.035,450.621
44,9 Dec 2013 18:01:08.834,9 Dec 2013 18:08:32.611,443.777
45,9 Dec 2013 19:46:20.601,9 Dec 2013 20:03:08.643,1008.042
46,9 Dec 2013 21:34:21.273,9 Dec 2013 21:49:06.261,884.987
47,10 Dec 2013 03:14:02.247,10 Dec 2013 03:25:22.586,680.339
48,10 Dec 2013 04:55:05.366,10 Dec 2013 05:11:10.101,964.735

"Access","Start Time (UTCG)","Stop Time (UTCG)","Duration (sec)"
1,3 Dec 2013 07:54:48.595,3 Dec 2013 08:05:38.691,650.096
2,3 Dec 2013 09:34:22.111,3 Dec 2013 09:49:41.736,919.625
3,3 Dec 2013 20:24:19.588,3 Dec 2013 20:38:07.363,827.775
4,3 Dec 2013 22:02:33.782,3 Dec 2013 22:18:55.355,981.573
5,3 Dec 2013 23:43:36.922,3 Dec 2013 23:56:33.297,776.375
6,4 Dec 2013 08:54:43.963,4 Dec 2013 09:07:50.712,786.749
7,4 Dec 2013 10:35:51.260,4 Dec 2013 10:49:52.505,841.245
8,4 Dec 2013 18:12:10.260,4 Dec 2013 18:19:57.958,467.698
9,4 Dec 2013 19:47:32.213,4 Dec 2013 20:02:37.732,905.519
10,4 Dec 2013 21:26:25.290,4 Dec 2013 21:42:38.043,972.752
11,4 Dec 2013 23:08:43.741,4 Dec 2013 23:19:43.132,659.391
12,5 Dec 2013 09:54:40.834,5 Dec 2013 10:09:24.337,883.503
13,5 Dec 2013 11:37:43.572,5 Dec 2013 11:50:07.266,743.694
14,5 Dec 2013 19:09:04.057,5 Dec 2013 19:26:17.033,1032.977
15,5 Dec 2013 20:50:21.741,5 Dec 2013 21:06:18.610,956.869
16,5 Dec 2013 22:33:12.187,5 Dec 2013 22:44:08.457,656.271
17,6 Dec 2013 10:54:37.202,6 Dec 2013 11:10:17.907,940.705
18,6 Dec 2013 12:39:29.641,6 Dec 2013 12:50:41.850,672.209
19,6 Dec 2013 18:22:47.337,6 Dec 2013 18:31:58.593,551.256
20,6 Dec 2013 20:05:01.449,6 Dec 2013 20:22:40.471,1059.022
21,6 Dec 2013 21:55:53.958,6 Dec 2013 22:09:16.378,802.420
22,7 Dec 2013 10:14:50.699,7 Dec 2013 10:24:20.788,570.089
23,7 Dec 2013 11:54:21.727,7 Dec 2013 12:10:32.025,970.298
24,7 Dec 2013 13:40:21.995,7 Dec 2013 13:51:49.079,687.085
25,7 Dec 2013 19:15:16.113,7 Dec 2013 19:30:52.589,936.476
26,7 Dec 2013 21:02:01.369,7 Dec 2013 21:18:18.731,977.361
27,7 Dec 2013 22:58:58.109,7 Dec 2013 23:01:52.803,174.694
28,8 Dec 2013 00:46:27.442,8 Dec 2013 00:56:29.347,601.905
29,8 Dec 2013 02:31:48.963,8 Dec 2013 02:38:57.153,428.190
30,8 Dec 2013 04:16:15.697,8 Dec 2013 04:24:25.032,489.335
31,8 Dec 2013 05:59:17.750,8 Dec 2013 06:11:38.165,740.415
32,8 Dec 2013 07:42:23.028,8 Dec 2013 07:57:58.038,935.011
33,8 Dec 2013 09:25:59.002,8 Dec 2013 09:42:58.741,1019.739
34,8 Dec 2013 11:10:02.148,8 Dec 2013 11:27:02.947,1020.799
35,8 Dec 2013 12:54:03.436,8 Dec 2013 13:10:31.765,988.329
36,8 Dec 2013 14:39:59.848,8 Dec 2013 14:52:59.898,780.050
37,8 Dec 2013 18:27:27.613,8 Dec 2013 18:34:30.403,422.790
38,8 Dec 2013 20:10:15.556,8 Dec 2013 20:27:50.706,1055.149
39,8 Dec 2013 22:01:20.055,8 Dec 2013 22:11:48.696,628.641
40,9 Dec 2013 01:48:37.467,9 Dec 2013 01:55:49.407,431.941
41,9 Dec 2013 03:29:14.939,9 Dec 2013 03:46:08.014,1013.075
42,9 Dec 2013 05:12:32.203,9 Dec 2013 05:29:36.792,1024.590
43,9 Dec 2013 06:56:37.644,9 Dec 2013 07:13:11.680,994.036
44,9 Dec 2013 08:41:55.572,9 Dec 2013 08:56:20.078,864.506
45,9 Dec 2013 10:29:12.982,9 Dec 2013 10:38:37.249,564.267
46,9 Dec 2013 15:46:34.650,9 Dec 2013 15:52:12.126,337.477
47,9 Dec 2013 17:34:01.023,9 Dec 2013 17:39:28.507,327.484
48,9 Dec 2013 19:20:00.559,9 Dec 2013 19:35:21.338,920.779
49,9 Dec 2013 21:06:41.156,9 Dec 2013 21:23:23.363,1002.207
50,10 Dec 2013 04:29:06.040,10 Dec 2013 04:46:03.770,1017.731

"Access","Start Time (UTCG)","Stop Time (UTCG)","Duration (sec)"
1,3 Dec 2013 01:39:19.713,3 Dec 2013 01:46:58.750,459.037
2,3 Dec 2013 09:08:19.811,3 Dec 2013 09:25:00.239,1000.428
3,3 Dec 2013 20:00:26.549,3 Dec 2013 20:12:16.140,709.591
4,3 Dec 2013 21:37:42.938,3 Dec 2013 21:54:01.167,978.228
5,3 Dec 2013 23:18:04.114,3 Dec 2013 23:32:29.818,865.704
6,4 Dec 2013 08:33:03.435,4 Dec 2013 08:38:51.124,347.689
7,4 Dec 2013 10:09:20.125,4 Dec 2013 10:25:34.080,973.955
8,4 Dec 2013 17:50:26.378,4 Dec 2013 17:52:20.579,114.201
9,4 Dec 2013 19:23:16.222,4 Dec 2013 19:37:17.884,841.661
10,4 Dec 2013 21:01:26.330,4 Dec 2013 21:17:49.803,983.473
11,4 Dec 2013 22:42:39.116,4 Dec 2013 22:55:55.626,796.511
12,5 Dec 2013 09:31:32.733,5 Dec 2013 09:42:03.280,630.547
13,5 Dec 2013 11:10:32.244,5 Dec 2013 11:26:06.626,934.382
14,5 Dec 2013 18:43:14.808,5 Dec 2013 18:59:08.320,953.512
15,5 Dec 2013 20:25:11.445,5 Dec 2013 20:41:29.594,978.149
16,5 Dec 2013 22:07:01.018,5 Dec 2013 22:20:02.216,781.198
17,6 Dec 2013 10:30:47.660,6 Dec 2013 10:43:33.951,766.291
18,6 Dec 2013 12:11:40.370,6 Dec 2013 12:26:41.790,901.420
19,6 Dec 2013 19:38:25.699,6 Dec 2013 19:55:51.118,1045.419
20,6 Dec 2013 21:27:38.012,6 Dec 2013 21:42:32.270,894.258
21,6 Dec 2013 23:16:48.024,6 Dec 2013 23:21:56.693,308.669
22,7 Dec 2013 09:50:02.454,7 Dec 2013 09:57:29.893,447.439
23,7 Dec 2013 11:30:06.667,7 Dec 2013 11:43:59.507,832.840
24,7 Dec 2013 13:12:18.769,7 Dec 2013 13:27:19.144,900.375
25,7 Dec 2013 18:49:58.294,7 Dec 2013 19:02:36.163,757.869
26,7 Dec 2013 20:34:35.207,7 Dec 2013 20:51:55.600,1040.393
27,7 Dec 2013 22:28:21.490,7 Dec 2013 22:36:26.377,484.886
28,8 Dec 2013 00:20:42.558,8 Dec 2013 00:28:48.668,486.110
29,8 Dec 2013 02:05:25.895,8 Dec 2013 02:13:08.111,462.216
30,8 Dec 2013 03:50:21.294,8 Dec 2013 03:57:44.426,443.132
31,8 Dec 2013 05:33:34.082,8 Dec 2013 05:44:51.450,677.368
32,8 Dec 2013 07:16:34.251,8 Dec 2013 07:31:30.926,896.675
33,8 Dec 2013 09:00:01.885,8 Dec 2013 09:16:49.938,1008.053
34,8 Dec 2013 10:44:00.003,8 Dec 2013 11:01:05.783,1025.780
35,8 Dec 2013 12:28:05.578,8 Dec 2013 12:44:42.403,996.825
36,8 Dec 2013 14:12:06.926,8 Dec 2013 14:27:41.473,934.547
37,8 Dec 2013 19:43:49.999,8 Dec 2013 20:00:44.416,1014.417
38,8 Dec 2013 21:32:19.119,8 Dec 2013 21:46:36.102,856.983
39,9 Dec 2013 03:03:29.506,9 Dec 2013 03:20:19.196,1009.690
40,9 Dec 2013 04:46:38.794,9 Dec 2013 05:03:42.548,1023.754
41,9 Dec 2013 06:30:30.842,9 Dec 2013 06:47:19.373,1008.531
42,9 Dec 2013 08:15:27.105,9 Dec 2013 08:30:36.781,909.677
43,9 Dec 2013 10:02:08.841,9 Dec 2013 10:13:09.753,660.912
44,9 Dec 2013 15:22:03.239,9 Dec 2013 15:24:46.895,163.656
45,9 Dec 2013 17:05:21.270,9 Dec 2013 17:11:55.711,394.441
46,9 Dec 2013 18:53:46.256,9 Dec 2013 19:06:57.691,791.434
47,9 Dec 2013 20:39:34.973,9 Dec 2013 20:57:07.634,1052.661
48,10 Dec 2013 04:03:31.958,10 Dec 2013 04:20:09.915,997.957
49,10 Dec 2013 05:49:31.703,10 Dec 2013 05:57:47.961,496.258

"Access","Start Time (UTCG)","Stop Time (UTCG)","Duration (sec)"
1,3 Dec 2013 01:10:14.206,3 Dec 2013 01:23:37.549,803.343
2,3 Dec 2013 08:42:57.816,3 Dec 2013 08:59:31.404,993.588
3,3 Dec 2013 19:37:09.716,3 Dec 2013 19:45:50.656,520.940
4,3 Dec 2013 21:13:02.310,3 Dec 2013 21:28:56.007,953.697
5,3 Dec 2013 22:52:43.922,3 Dec 2013 23:08:10.687,926.765
6,4 Dec 2013 00:35:51.986,4 Dec 2013 00:43:19.554,447.567
7,4 Dec 2013 09:43:39.778,4 Dec 2013 10:00:25.922,1006.145
8,4 Dec 2013 18:59:13.636,4 Dec 2013 19:11:48.157,754.521
9,4 Dec 2013 20:36:37.887,4 Dec 2013 20:52:53.377,975.490
10,4 Dec 2013 22:16:59.025,4 Dec 2013 22:31:44.074,885.049
11,5 Dec 2013 10:44:26.390,5 Dec 2013 11:01:11.216,1004.826
12,5 Dec 2013 18:18:13.734,5 Dec 2013 18:31:23.822,790.088
13,5 Dec 2013 20:00:08.914,5 Dec 2013 20:16:36.246,987.333
14,5 Dec 2013 21:41:13.320,5 Dec 2013 21:55:37.694,864.374
15,6 Dec 2013 10:09:24.054,6 Dec 2013 10:14:44.649,320.595
16,6 Dec 2013 11:45:08.701,6 Dec 2013 12:01:46.301,997.600
17,6 Dec 2013 19:12:21.434,6 Dec 2013 19:28:42.413,980.979
18,6 Dec 2013 20:59:39.403,6 Dec 2013 21:15:54.176,974.773
19,6 Dec 2013 22:49:29.687,6 Dec 2013 22:58:14.226,524.539
20,7 Dec 2013 09:25:58.748,7 Dec 2013 09:29:47.874,229.126
21,7 Dec 2013 11:05:06.293,7 Dec 2013 11:17:05.046,718.754
22,7 Dec 2013 12:45:29.549,7 Dec 2013 13:02:08.046,998.497
23,7 Dec 2013 18:26:19.643,7 Dec 2013 18:32:19.521,359.878
24,7 Dec 2013 20:07:40.131,7 Dec 2013 20:25:17.884,1057.753
25,7 Dec 2013 21:58:48.340,7 Dec 2013 22:10:33.453,705.113
26,7 Dec 2013 23:55:21.657,7 Dec 2013 23:58:17.290,175.633
27,8 Dec 2013 01:39:02.615,8 Dec 2013 01:47:28.725,506.110
28,8 Dec 2013 03:24:19.036,8 Dec 2013 03:31:14.624,415.588
29,8 Dec 2013 05:07:50.087,8 Dec 2013 05:18:02.073,611.985
30,8 Dec 2013 06:50:47.329,8 Dec 2013 07:04:58.491,851.163
31,8 Dec 2013 08:34:06.797,8 Dec 2013 08:50:37.180,990.382
32,8 Dec 2013 10:17:58.427,8 Dec 2013 10:35:06.251,1027.824
33,8 Dec 2013 12:02:05.626,8 Dec 2013 12:18:51.143,1005.517
34,8 Dec 2013 13:45:50.495,8 Dec 2013 14:02:04.223,973.728
35,8 Dec 2013 19:17:46.133,8 Dec 2013 19:33:03.408,917.275
36,8 Dec 2013 21:04:21.906,8 Dec 2013 21:20:45.519,983.614
37,9 Dec 2013 02:37:57.602,9 Dec 2013 02:53:24.992,927.390
38,9 Dec 2013 04:20:48.133,9 Dec 2013 04:37:49.277,1021.144
39,9 Dec 2013 06:04:27.941,9 Dec 2013 06:21:25.778,1017.837
40,9 Dec 2013 07:49:05.126,9 Dec 2013 08:04:50.741,945.615
41,9 Dec 2013 09:35:15.441,9 Dec 2013 09:47:37.071,741.630
42,9 Dec 2013 11:24:08.086,9 Dec 2013 11:29:01.797,293.711
43,9 Dec 2013 16:36:32.924,9 Dec 2013 16:45:28.623,535.699
44,9 Dec 2013 18:27:32.615,9 Dec 2013 18:37:57.541,624.926
45,9 Dec 2013 20:12:50.461,9 Dec 2013 20:30:23.029,1052.568
46,9 Dec 2013 22:03:03.947,9 Dec 2013 22:13:57.228,653.281
47,10 Dec 2013 03:38:24.728,10 Dec 2013 03:53:24.065,899.338
48,10 Dec 2013 05:21:39.369,10 Dec 2013 05:35:19.984,820.615

