Raw and processed data/constellation variations/us_greatcircle_9sat/Aircraft-B747LAX_Narita-Transmitter-adsb_out6211-To-Satellite-700km_p1_1-Receiver-adsb_satrcvr2 Access.csv

"Access","Start Time (UTCG)","Stop Time (UTCG)","Duration (sec)"
1,3 Dec 2013 06:03:06.288,3 Dec 2013 06:14:24.566,678.279
2,3 Dec 2013 07:43:17.784,3 Dec 2013 07:59:55.017,997.233
3,3 Dec 2013 09:32:39.668,3 Dec 2013 09:44:44.466,724.798
4,3 Dec 2013 11:17:44.235,3 Dec 2013 11:30:57.733,793.498
5,3 Dec 2013 12:56:10.157,3 Dec 2013 13:11:34.961,924.804
6,3 Dec 2013 14:35:05.646,3 Dec 2013 14:51:01.491,955.845
7,3 Dec 2013 16:14:28.511,3 Dec 2013 16:30:31.959,963.448
8,3 Dec 2013 17:54:37.047,3 Dec 2013 18:10:47.757,970.710
9,3 Dec 2013 19:35:45.848,3 Dec 2013 19:52:01.226,975.378
10,3 Dec 2013 21:19:55.194,3 Dec 2013 21:29:30.284,575.090
11,4 Dec 2013 03:29:55.574,4 Dec 2013 03:32:25.597,150.024
12,4 Dec 2013 05:03:39.902,4 Dec 2013 05:20:09.216,989.314
13,4 Dec 2013 06:48:01.927,4 Dec 2013 07:02:11.824,849.897
14,4 Dec 2013 08:29:04.949,4 Dec 2013 08:43:47.174,882.226
15,4 Dec 2013 10:09:12.809,4 Dec 2013 10:24:11.469,898.660
16,4 Dec 2013 11:49:03.139,4 Dec 2013 12:03:48.138,884.998
17,4 Dec 2013 13:29:27.451,4 Dec 2013 13:43:07.216,819.765
18,4 Dec 2013 15:11:37.050,4 Dec 2013 15:22:22.107,645.058
19,4 Dec 2013 16:55:07.257,4 Dec 2013 17:10:54.349,947.093
20,4 Dec 2013 18:39:12.716,4 Dec 2013 18:53:05.815,833.099
21,5 Dec 2013 02:27:38.272,5 Dec 2013 02:36:38.502,540.229
22,5 Dec 2013 04:07:15.977,5 Dec 2013 04:19:02.549,706.572
23,5 Dec 2013 05:46:42.311,5 Dec 2013 05:59:39.614,777.303
24,5 Dec 2013 07:25:17.877,5 Dec 2013 07:39:19.312,841.434
25,5 Dec 2013 09:03:16.287,5 Dec 2013 09:18:31.323,915.035
26,5 Dec 2013 10:41:31.791,5 Dec 2013 10:57:22.481,950.690
27,5 Dec 2013 12:27:47.564,5 Dec 2013 12:42:56.394,908.830
28,5 Dec 2013 14:15:36.410,5 Dec 2013 14:31:41.563,965.153
29,5 Dec 2013 16:00:57.639,5 Dec 2013 16:16:45.262,947.623
30,6 Dec 2013 08:05:25.396,6 Dec 2013 08:19:37.445,852.049
31,6 Dec 2013 09:49:11.220,6 Dec 2013 10:06:02.579,1011.359
32,6 Dec 2013 11:37:23.654,6 Dec 2013 11:53:21.322,957.668
33,6 Dec 2013 13:23:52.201,6 Dec 2013 13:40:51.661,1019.460
34,6 Dec 2013 15:12:57.828,6 Dec 2013 15:20:13.176,435.347
35,7 Dec 2013 05:33:12.786,7 Dec 2013 05:41:05.668,472.882
36,7 Dec 2013 07:11:38.059,7 Dec 2013 07:28:30.797,1012.738
37,7 Dec 2013 08:59:27.799,7 Dec 2013 09:14:03.252,875.453
38,7 Dec 2013 10:47:31.888,7 Dec 2013 11:03:16.705,944.816
39,7 Dec 2013 12:29:12.545,7 Dec 2013 12:45:03.328,950.783
40,7 Dec 2013 14:08:08.492,7 Dec 2013 14:23:11.436,902.944
41,7 Dec 2013 15:47:24.498,7 Dec 2013 16:01:16.966,832.468
42,7 Dec 2013 17:27:13.182,7 Dec 2013 17:40:06.703,773.522
43,7 Dec 2013 19:08:07.364,7 Dec 2013 19:19:44.143,696.779
44,7 Dec 2013 20:51:03.140,7 Dec 2013 20:59:16.692,493.551
45,8 Dec 2013 04:33:18.610,8 Dec 2013 04:49:45.641,987.031
46,8 Dec 2013 06:20:16.871,8 Dec 2013 06:32:21.602,724.731
47,8 Dec 2013 08:04:16.473,8 Dec 2013 08:15:57.245,700.772
48,8 Dec 2013 09:43:34.387,8 Dec 2013 09:57:35.272,840.885
49,8 Dec 2013 11:22:56.216,8 Dec 2013 11:37:46.550,890.334
50,8 Dec 2013 13:02:41.345,8 Dec 2013 13:17:36.785,895.440
51,8 Dec 2013 14:43:21.383,8 Dec 2013 14:57:53.401,872.018
52,8 Dec 2013 16:25:14.193,8 Dec 2013 16:39:25.305,851.112
53,8 Dec 2013 18:07:57.540,8 Dec 2013 18:23:08.603,911.063
54,9 Dec 2013 01:54:13.706,9 Dec 2013 02:09:26.200,912.494

"Access","Start Time (UTCG)","Stop Time (UTCG)","Duration (sec)"
1,3 Dec 2013 07:08:35.899,3 Dec 2013 07:25:12.775,996.876
2,3 Dec 2013 08:55:34.404,3 Dec 2013 09:09:24.900,830.497
3,3 Dec 2013 10:45:11.280,3 Dec 2013 10:56:47.670,696.389
4,3 Dec 2013 12:23:16.942,3 Dec 2013 12:38:15.329,898.388
5,3 Dec 2013 14:02:04.682,3 Dec 2013 14:17:55.137,950.455
6,3 Dec 2013 15:41:16.852,3 Dec 2013 15:57:18.185,961.332
7,3 Dec 2013 17:21:07.936,3 Dec 2013 17:37:16.126,968.189
8,3 Dec 2013 19:01:55.932,3 Dec 2013 19:18:10.697,974.766
9,3 Dec 2013 20:44:07.936,3 Dec 2013 20:58:42.733,874.797
10,4 Dec 2013 04:30:04.092,4 Dec 2013 04:45:48.239,944.148
11,4 Dec 2013 06:14:03.149,4 Dec 2013 06:28:05.235,842.086
12,4 Dec 2013 07:55:31.726,4 Dec 2013 08:10:03.611,871.885
13,4 Dec 2013 09:35:54.186,4 Dec 2013 09:50:50.261,896.075
14,4 Dec 2013 11:15:45.511,4 Dec 2013 11:30:39.166,893.655
15,4 Dec 2013 12:55:51.610,4 Dec 2013 13:10:01.478,849.868
16,4 Dec 2013 14:37:16.745,4 Dec 2013 14:49:17.973,721.228
17,4 Dec 2013 16:20:46.969,4 Dec 2013 16:34:30.496,823.527
18,4 Dec 2013 18:04:07.013,4 Dec 2013 18:20:17.524,970.511
19,5 Dec 2013 01:54:46.552,5 Dec 2013 02:01:44.948,418.396
20,5 Dec 2013 03:34:00.726,5 Dec 2013 03:45:10.020,669.293
21,5 Dec 2013 05:13:38.439,5 Dec 2013 05:26:15.557,757.118
22,5 Dec 2013 06:52:31.818,5 Dec 2013 07:06:10.240,818.421
23,5 Dec 2013 08:30:38.212,5 Dec 2013 08:45:29.421,891.209
24,5 Dec 2013 10:08:40.338,5 Dec 2013 10:24:28.445,948.106
25,5 Dec 2013 11:51:19.087,5 Dec 2013 12:07:18.347,959.260
26,5 Dec 2013 13:40:08.337,5 Dec 2013 13:55:22.644,914.307
27,5 Dec 2013 15:25:46.829,5 Dec 2013 15:42:37.224,1010.395
28,5 Dec 2013 17:15:09.197,5 Dec 2013 17:18:58.598,229.400
29,6 Dec 2013 07:33:44.176,6 Dec 2013 07:42:27.201,523.025
30,6 Dec 2013 09:13:44.453,6 Dec 2013 09:30:45.193,1020.740
31,6 Dec 2013 11:01:20.520,6 Dec 2013 11:17:15.981,955.460
32,6 Dec 2013 12:48:33.524,6 Dec 2013 13:05:28.599,1015.074
33,6 Dec 2013 14:35:14.267,6 Dec 2013 14:48:58.726,824.459
34,7 Dec 2013 06:37:16.619,7 Dec 2013 06:53:29.076,972.457
35,7 Dec 2013 08:22:58.448,7 Dec 2013 08:38:33.639,935.190
36,7 Dec 2013 10:11:57.896,7 Dec 2013 10:26:39.860,881.963
37,7 Dec 2013 11:56:20.067,7 Dec 2013 12:12:07.956,947.888
38,7 Dec 2013 13:35:07.484,7 Dec 2013 13:50:32.250,924.766
39,7 Dec 2013 15:14:16.675,7 Dec 2013 15:28:31.763,855.088
40,7 Dec 2013 16:53:51.587,7 Dec 2013 17:07:04.006,792.419
41,7 Dec 2013 18:34:19.458,7 Dec 2013 18:46:28.138,728.679
42,7 Dec 2013 20:16:24.336,7 Dec 2013 20:26:13.777,589.441
43,8 Dec 2013 04:00:08.796,8 Dec 2013 04:14:56.819,888.022
44,8 Dec 2013 05:43:21.122,8 Dec 2013 05:58:20.003,898.881
45,8 Dec 2013 07:31:11.843,8 Dec 2013 07:41:30.737,618.893
46,8 Dec 2013 09:10:28.299,8 Dec 2013 09:23:56.051,807.752
47,8 Dec 2013 10:49:47.722,8 Dec 2013 11:04:27.975,880.253
48,8 Dec 2013 12:29:21.798,8 Dec 2013 12:44:19.111,897.313
49,8 Dec 2013 14:09:40.169,8 Dec 2013 14:24:22.590,882.421
50,8 Dec 2013 15:51:09.007,8 Dec 2013 16:05:17.120,848.112
51,8 Dec 2013 17:33:21.930,8 Dec 2013 17:49:51.661,989.730
52,9 Dec 2013 01:22:50.916,9 Dec 2013 01:34:08.346,677.430

"Access","Start Time (UTCG)","Stop Time (UTCG)","Duration (sec)"
1,3 Dec 2013 06:35:02.499,3 Dec 2013 06:50:13.284,910.784
2,3 Dec 2013 08:18:59.867,3 Dec 2013 08:34:34.640,934.773
3,3 Dec 2013 10:09:32.029,3 Dec 2013 10:20:56.227,684.198
4,3 Dec 2013 11:50:27.588,3 Dec 2013 12:04:44.543,856.954
5,3 Dec 2013 13:29:06.203,3 Dec 2013 13:44:47.186,940.984
6,3 Dec 2013 15:08:09.490,3 Dec 2013 15:24:08.538,959.047
7,3 Dec 2013 16:47:45.289,3 Dec 2013 17:03:51.010,965.721
8,3 Dec 2013 18:28:12.994,3 Dec 2013 18:44:26.023,973.029
9,3 Dec 2013 20:09:42.654,3 Dec 2013 20:25:54.374,971.720
10,4 Dec 2013 03:57:59.008,4 Dec 2013 04:10:43.179,764.171
11,4 Dec 2013 05:38:33.323,4 Dec 2013 05:54:03.508,930.185
12,4 Dec 2013 07:21:51.114,4 Dec 2013 07:36:11.665,860.551
13,4 Dec 2013 09:02:32.015,4 Dec 2013 09:17:22.504,890.488
14,4 Dec 2013 10:42:29.363,4 Dec 2013 10:57:27.348,897.985
15,4 Dec 2013 12:22:24.380,4 Dec 2013 12:36:55.304,870.924
16,4 Dec 2013 14:03:14.768,4 Dec 2013 14:16:12.764,777.996
17,4 Dec 2013 15:46:19.516,4 Dec 2013 15:57:01.185,641.670
18,4 Dec 2013 17:29:30.803,4 Dec 2013 17:46:10.072,999.268
19,4 Dec 2013 19:15:49.874,4 Dec 2013 19:23:33.631,463.758
20,5 Dec 2013 03:00:46.495,5 Dec 2013 03:11:03.501,617.006
21,5 Dec 2013 04:40:29.218,5 Dec 2013 04:52:43.742,734.524
22,5 Dec 2013 06:19:40.139,5 Dec 2013 06:32:57.390,797.252
23,5 Dec 2013 07:57:59.448,5 Dec 2013 08:12:25.508,866.060
24,5 Dec 2013 09:35:56.118,5 Dec 2013 09:51:31.131,935.013
25,5 Dec 2013 11:15:10.197,5 Dec 2013 11:31:57.016,1006.819
26,5 Dec 2013 13:04:10.887,5 Dec 2013 13:18:59.951,889.064
27,5 Dec 2013 14:50:44.801,5 Dec 2013 15:07:31.929,1007.128
28,5 Dec 2013 16:36:42.679,5 Dec 2013 16:49:34.415,771.736
29,6 Dec 2013 08:39:03.500,6 Dec 2013 08:55:23.844,980.344
30,6 Dec 2013 10:25:09.558,6 Dec 2013 10:41:29.756,980.198
31,6 Dec 2013 12:13:07.389,6 Dec 2013 12:29:32.454,985.065
32,6 Dec 2013 13:59:17.959,6 Dec 2013 14:15:27.880,969.920
33,7 Dec 2013 06:04:07.545,7 Dec 2013 06:18:01.958,834.413
34,7 Dec 2013 07:46:55.750,7 Dec 2013 08:03:27.547,991.797
35,7 Dec 2013 09:35:55.557,7 Dec 2013 09:50:07.092,851.535
36,7 Dec 2013 11:22:49.649,7 Dec 2013 11:39:01.053,971.404
37,7 Dec 2013 13:02:08.665,7 Dec 2013 13:17:50.451,941.786
38,7 Dec 2013 14:41:11.502,7 Dec 2013 14:55:50.533,879.031
39,7 Dec 2013 16:20:35.779,7 Dec 2013 16:34:07.465,811.686
40,7 Dec 2013 18:00:41.968,7 Dec 2013 18:13:15.105,753.137
41,7 Dec 2013 19:42:07.878,7 Dec 2013 19:53:00.622,652.745
42,8 Dec 2013 03:28:49.047,8 Dec 2013 03:39:06.406,617.359
43,8 Dec 2013 05:07:44.017,8 Dec 2013 05:24:09.522,985.505
44,8 Dec 2013 06:58:10.732,8 Dec 2013 07:06:39.991,509.258
45,8 Dec 2013 08:37:22.253,8 Dec 2013 08:50:04.443,762.191
46,8 Dec 2013 10:16:40.696,8 Dec 2013 10:31:05.031,864.335
47,8 Dec 2013 11:56:07.183,8 Dec 2013 12:11:02.939,895.756
48,8 Dec 2013 13:36:07.090,8 Dec 2013 13:50:57.480,890.390
49,8 Dec 2013 15:17:11.091,8 Dec 2013 15:31:31.162,860.071
50,8 Dec 2013 16:59:12.479,8 Dec 2013 17:15:18.193,965.714
51,8 Dec 2013 18:43:27.259,8 Dec 2013 18:54:43.849,676.590

"Access","Start Time (UTCG)","Stop Time (UTCG)","Duration (sec)"
1,3 Dec 2013 01:24:26.981,3 Dec 2013 01:38:41.718,854.737
2,3 Dec 2013 03:07:33.947,3 Dec 2013 03:23:07.173,933.226
3,3 Dec 2013 10:54:47.146,3 Dec 2013 11:07:40.196,773.050
4,3 Dec 2013 12:35:31.700,3 Dec 2013 12:49:51.788,860.088
5,3 Dec 2013 14:15:48.349,3 Dec 2013 14:30:38.468,890.119
6,3 Dec 2013 15:55:12.342,3 Dec 2013 16:10:24.888,912.546
7,3 Dec 2013 17:33:53.334,3 Dec 2013 17:49:35.878,942.543
8,3 Dec 2013 19:12:37.276,3 Dec 2013 19:28:25.330,948.054
9,3 Dec 2013 20:55:19.099,3 Dec 2013 21:10:22.928,903.829
10,3 Dec 2013 22:43:51.191,3 Dec 2013 22:59:07.113,915.922
11,4 Dec 2013 00:29:01.412,4 Dec 2013 00:45:35.367,993.955
12,4 Dec 2013 16:34:27.805,4 Dec 2013 16:46:45.988,738.183
13,4 Dec 2013 18:16:53.103,4 Dec 2013 18:33:53.851,1020.748
14,4 Dec 2013 20:04:57.420,4 Dec 2013 20:20:50.327,952.906
15,4 Dec 2013 21:51:42.987,4 Dec 2013 22:08:44.785,1021.798
16,4 Dec 2013 23:39:05.246,4 Dec 2013 23:50:18.494,673.248
17,5 Dec 2013 15:40:05.596,5 Dec 2013 15:56:44.307,998.711
18,5 Dec 2013 17:26:42.970,5 Dec 2013 17:42:11.265,928.295
19,5 Dec 2013 19:15:06.023,5 Dec 2013 19:30:45.287,939.264
20,5 Dec 2013 21:00:17.621,5 Dec 2013 21:16:01.058,943.436
21,5 Dec 2013 22:39:23.292,5 Dec 2013 22:53:32.468,849.176
22,6 Dec 2013 00:18:53.555,6 Dec 2013 00:30:40.495,706.940
23,6 Dec 2013 01:58:54.435,6 Dec 2013 02:08:20.274,565.839
24,6 Dec 2013 03:40:15.100,6 Dec 2013 03:46:28.852,373.752
25,6 Dec 2013 13:02:46.615,6 Dec 2013 13:18:27.102,940.487
26,6 Dec 2013 14:47:26.363,6 Dec 2013 15:01:55.069,868.705
27,6 Dec 2013 16:36:22.481,6 Dec 2013 16:46:09.799,587.318
28,6 Dec 2013 18:14:58.521,6 Dec 2013 18:28:39.837,821.316
29,6 Dec 2013 19:54:02.058,6 Dec 2013 20:09:03.891,901.833
30,6 Dec 2013 21:33:26.577,6 Dec 2013 21:48:52.458,925.881
31,6 Dec 2013 23:13:33.585,6 Dec 2013 23:29:01.909,928.325
32,7 Dec 2013 00:54:42.752,7 Dec 2013 01:10:07.662,924.910
33,7 Dec 2013 02:36:51.031,7 Dec 2013 02:53:02.009,970.978
34,7 Dec 2013 10:24:51.557,7 Dec 2013 10:38:19.058,807.501
35,7 Dec 2013 12:04:58.029,7 Dec 2013 12:21:14.442,976.413
36,7 Dec 2013 13:46:30.357,7 Dec 2013 14:02:35.997,965.641
37,7 Dec 2013 15:27:00.440,7 Dec 2013 15:42:57.350,956.910
38,7 Dec 2013 17:06:46.174,7 Dec 2013 17:22:29.098,942.924
39,7 Dec 2013 18:46:30.500,7 Dec 2013 19:01:31.296,900.796
40,7 Dec 2013 20:27:27.089,7 Dec 2013 20:40:07.607,760.518
41,7 Dec 2013 22:13:02.327,7 Dec 2013 22:26:19.702,797.375
42,7 Dec 2013 23:57:23.495,8 Dec 2013 00:14:08.643,1005.148
43,8 Dec 2013 01:45:38.884,8 Dec 2013 01:49:56.348,257.464
44,8 Dec 2013 14:26:37.428,8 Dec 2013 14:35:48.061,550.634
45,8 Dec 2013 16:02:23.424,8 Dec 2013 16:15:56.180,812.756
46,8 Dec 2013 17:44:11.458,8 Dec 2013 18:01:10.253,1018.794
47,8 Dec 2013 19:32:36.131,8 Dec 2013 19:48:07.870,931.739
48,8 Dec 2013 21:19:19.727,8 Dec 2013 21:36:16.036,1016.309
49,8 Dec 2013 23:05:53.402,8 Dec 2013 23:18:08.892,735.490

"Access","Start Time (UTCG)","Stop Time (UTCG)","Duration (sec)"
1,3 Dec 2013 01:00:00.000,3 Dec 2013 01:01:19.735,79.735
2,3 Dec 2013 02:32:54.752,3 Dec 2013 02:49:31.197,996.445
3,3 Dec 2013 10:23:21.049,3 Dec 2013 10:32:39.475,558.425
4,3 Dec 2013 12:01:57.760,3 Dec 2013 12:15:58.765,841.005
5,3 Dec 2013 13:42:28.103,3 Dec 2013 13:57:10.803,882.701
6,3 Dec 2013 15:22:10.363,3 Dec 2013 15:37:14.536,904.173
7,3 Dec 2013 17:01:02.310,3 Dec 2013 17:16:34.869,932.559
8,3 Dec 2013 18:39:38.171,3 Dec 2013 18:55:31.349,953.179
9,3 Dec 2013 20:19:04.958,3 Dec 2013 20:34:55.865,950.907
10,3 Dec 2013 22:08:10.757,3 Dec 2013 22:22:35.599,864.842
11,3 Dec 2013 23:54:02.613,4 Dec 2013 00:10:54.310,1011.697
12,4 Dec 2013 01:40:29.219,4 Dec 2013 01:51:05.836,636.617
13,4 Dec 2013 17:41:44.432,4 Dec 2013 17:58:34.776,1010.344
14,4 Dec 2013 19:28:48.124,4 Dec 2013 19:44:53.111,964.988
15,4 Dec 2013 21:16:23.553,4 Dec 2013 21:33:05.652,1002.100
16,4 Dec 2013 23:02:36.369,4 Dec 2013 23:17:44.688,908.318
17,5 Dec 2013 15:06:19.984,5 Dec 2013 15:21:26.596,906.612
18,5 Dec 2013 16:50:30.675,5 Dec 2013 17:06:51.378,980.703
19,5 Dec 2013 18:39:19.863,5 Dec 2013 18:54:15.006,895.143
20,5 Dec 2013 20:25:49.096,5 Dec 2013 20:42:50.462,1021.366
21,5 Dec 2013 22:06:18.193,5 Dec 2013 22:21:07.934,889.742
22,5 Dec 2013 23:45:40.973,5 Dec 2013 23:58:16.390,755.416
23,6 Dec 2013 01:25:28.996,6 Dec 2013 01:35:41.763,612.767
24,6 Dec 2013 03:06:12.754,6 Dec 2013 03:13:47.889,455.135
25,6 Dec 2013 12:30:31.463,6 Dec 2013 12:43:04.563,753.100
26,6 Dec 2013 14:11:24.297,6 Dec 2013 14:27:35.632,971.335
27,6 Dec 2013 16:02:40.913,6 Dec 2013 16:10:58.399,497.485
28,6 Dec 2013 17:42:01.405,6 Dec 2013 17:54:50.056,768.651
29,6 Dec 2013 19:20:59.136,6 Dec 2013 19:35:43.340,884.205
30,6 Dec 2013 21:00:14.983,6 Dec 2013 21:15:36.235,921.252
31,6 Dec 2013 22:40:04.958,6 Dec 2013 22:55:33.895,928.936
32,7 Dec 2013 00:20:52.498,7 Dec 2013 00:36:18.000,925.502
33,7 Dec 2013 02:02:38.977,7 Dec 2013 02:19:00.862,981.885
34,7 Dec 2013 03:47:55.967,7 Dec 2013 03:56:01.065,485.098
35,7 Dec 2013 09:55:25.798,7 Dec 2013 10:01:26.087,360.289
36,7 Dec 2013 11:30:52.889,7 Dec 2013 11:47:14.936,982.046
37,7 Dec 2013 13:12:46.666,7 Dec 2013 13:28:55.414,968.748
38,7 Dec 2013 14:53:36.720,7 Dec 2013 15:09:36.670,959.950
39,7 Dec 2013 16:33:33.757,7 Dec 2013 16:49:22.723,948.966
40,7 Dec 2013 18:13:12.089,7 Dec 2013 18:28:32.968,920.878
41,7 Dec 2013 19:53:33.793,7 Dec 2013 20:07:19.846,826.052
42,7 Dec 2013 21:37:27.033,7 Dec 2013 21:49:14.686,707.653
43,7 Dec 2013 23:22:42.899,7 Dec 2013 23:39:06.649,983.751
44,8 Dec 2013 01:07:42.614,8 Dec 2013 01:20:40.173,777.559
45,8 Dec 2013 13:54:55.309,8 Dec 2013 14:02:08.805,433.497
46,8 Dec 2013 15:30:21.236,8 Dec 2013 15:42:39.672,738.436
47,8 Dec 2013 17:08:54.998,8 Dec 2013 17:25:49.139,1014.141
48,8 Dec 2013 18:56:20.776,8 Dec 2013 19:12:09.647,948.871
49,8 Dec 2013 20:44:04.662,8 Dec 2013 21:00:31.836,987.174
50,8 Dec 2013 22:29:51.405,8 Dec 2013 22:45:24.193,932.788

"Access","Start Time (UTCG)","Stop Time (UTCG)","Duration (sec)"
1,3 Dec 2013 01:58:35.364,3 Dec 2013 02:14:42.803,967.439
2,3 Dec 2013 03:42:56.649,3 Dec 2013 03:55:11.104,734.456
3,3 Dec 2013 11:28:22.156,3 Dec 2013 11:41:55.403,813.247
4,3 Dec 2013 13:09:02.246,3 Dec 2013 13:23:35.520,873.274
5,3 Dec 2013 14:49:02.472,3 Dec 2013 15:03:59.394,896.922
6,3 Dec 2013 16:28:09.230,3 Dec 2013 16:43:31.399,922.168
7,3 Dec 2013 18:06:44.458,3 Dec 2013 18:22:34.721,950.263
8,3 Dec 2013 19:45:44.953,3 Dec 2013 20:01:15.729,930.776
9,3 Dec 2013 21:31:55.831,3 Dec 2013 21:46:15.009,859.178
10,3 Dec 2013 23:19:03.884,3 Dec 2013 23:35:20.670,976.786
11,4 Dec 2013 01:04:17.426,4 Dec 2013 01:19:11.083,893.658
12,4 Dec 2013 17:07:27.510,4 Dec 2013 17:23:02.449,934.939
13,4 Dec 2013 18:52:39.774,4 Dec 2013 19:09:16.051,996.278
14,4 Dec 2013 20:40:50.673,4 Dec 2013 20:57:00.724,970.052
15,4 Dec 2013 22:27:01.386,4 Dec 2013 22:43:42.641,1001.254
16,5 Dec 2013 14:34:08.582,5 Dec 2013 14:45:18.636,670.054
17,5 Dec 2013 16:14:53.504,5 Dec 2013 16:31:46.963,1013.460
18,5 Dec 2013 18:03:07.918,5 Dec 2013 18:17:58.406,890.488
19,5 Dec 2013 19:50:31.379,5 Dec 2013 20:07:03.723,992.344
20,5 Dec 2013 21:33:16.057,5 Dec 2013 21:48:38.321,922.264
21,5 Dec 2013 23:12:30.939,5 Dec 2013 23:25:54.461,803.522
22,6 Dec 2013 00:52:09.228,6 Dec 2013 01:03:08.571,659.343
23,6 Dec 2013 02:32:27.870,6 Dec 2013 02:41:03.176,515.305
24,6 Dec 2013 04:14:51.067,6 Dec 2013 04:18:49.952,238.884
25,6 Dec 2013 12:02:59.307,6 Dec 2013 12:03:49.244,49.938
26,6 Dec 2013 13:36:30.415,6 Dec 2013 13:53:09.799,999.384
27,6 Dec 2013 15:24:37.035,6 Dec 2013 15:36:16.989,699.954
28,6 Dec 2013 17:09:08.160,6 Dec 2013 17:20:42.340,694.180
29,6 Dec 2013 18:47:57.957,6 Dec 2013 19:02:16.366,858.410
30,6 Dec 2013 20:27:07.106,6 Dec 2013 20:42:20.735,913.629
31,6 Dec 2013 22:06:42.904,6 Dec 2013 22:22:11.174,928.270
32,6 Dec 2013 23:47:09.362,7 Dec 2013 00:02:36.307,926.945
33,7 Dec 2013 01:28:39.472,7 Dec 2013 01:44:05.677,926.205
34,7 Dec 2013 03:11:38.264,7 Dec 2013 03:25:40.574,842.309
35,7 Dec 2013 10:57:08.460,7 Dec 2013 11:13:06.921,958.461
36,7 Dec 2013 12:38:55.786,7 Dec 2013 12:55:08.100,972.314
37,7 Dec 2013 14:20:06.914,7 Dec 2013 14:36:09.701,962.787
38,7 Dec 2013 16:00:19.037,7 Dec 2013 16:16:12.425,953.388
39,7 Dec 2013 17:39:58.195,7 Dec 2013 17:55:32.326,934.131
40,7 Dec 2013 19:19:56.501,7 Dec 2013 19:34:27.168,870.667
41,7 Dec 2013 21:01:43.255,7 Dec 2013 21:12:46.663,663.409
42,7 Dec 2013 22:48:00.666,7 Dec 2013 23:03:06.712,906.046
43,8 Dec 2013 00:32:15.785,8 Dec 2013 00:48:05.923,950.138
44,8 Dec 2013 13:23:26.247,8 Dec 2013 13:28:10.724,284.478
45,8 Dec 2013 14:58:26.248,8 Dec 2013 15:09:17.359,651.111
46,8 Dec 2013 16:34:34.325,8 Dec 2013 16:50:12.605,938.280
47,8 Dec 2013 18:20:05.310,8 Dec 2013 18:36:32.810,987.500
48,8 Dec 2013 20:08:32.499,8 Dec 2013 20:24:21.745,949.246
49,8 Dec 2013 21:54:30.006,8 Dec 2013 22:11:18.016,1008.011

"Access","Start Time (UTCG)","Stop Time (UTCG)","Duration (sec)"
1,3 Dec 2013 01:03:55.238,3 Dec 2013 01:13:21.910,566.672
2,3 Dec 2013 02:44:40.377,3 Dec 2013 03:01:42.820,1022.442
3,3 Dec 2013 04:32:29.338,3 Dec 2013 04:48:20.445,951.107
4,3 Dec 2013 06:19:37.338,3 Dec 2013 06:36:31.436,1014.098
5,3 Dec 2013 08:06:04.521,3 Dec 2013 08:19:40.193,815.671
6,4 Dec 2013 00:08:46.797,4 Dec 2013 00:24:44.651,957.854
7,4 Dec 2013 01:54:08.216,4 Dec 2013 02:10:17.732,969.516
8,4 Dec 2013 03:42:37.794,4 Dec 2013 03:58:14.830,937.036
9,4 Dec 2013 05:28:54.185,4 Dec 2013 05:45:48.084,1013.899
10,4 Dec 2013 07:10:50.875,4 Dec 2013 07:23:43.890,773.015
11,4 Dec 2013 08:51:07.743,4 Dec 2013 08:59:24.222,496.479
12,4 Dec 2013 21:32:38.628,4 Dec 2013 21:46:44.188,845.560
13,4 Dec 2013 23:15:10.251,4 Dec 2013 23:31:03.608,953.357
14,5 Dec 2013 01:06:13.877,5 Dec 2013 01:15:57.947,584.070
15,5 Dec 2013 02:46:22.160,5 Dec 2013 02:59:47.232,805.072
16,5 Dec 2013 04:25:06.576,5 Dec 2013 04:40:20.197,913.620
17,5 Dec 2013 06:04:14.454,5 Dec 2013 06:20:00.561,946.107
18,5 Dec 2013 07:43:56.058,5 Dec 2013 07:59:53.965,957.906
19,5 Dec 2013 09:24:31.404,5 Dec 2013 09:40:37.751,966.347
20,5 Dec 2013 11:06:06.483,5 Dec 2013 11:22:33.445,986.962
21,5 Dec 2013 18:56:11.655,5 Dec 2013 19:06:32.215,620.559
22,5 Dec 2013 20:34:37.580,5 Dec 2013 20:50:39.114,961.534
23,5 Dec 2013 22:17:04.503,5 Dec 2013 22:32:32.836,928.333
24,5 Dec 2013 23:57:55.525,6 Dec 2013 00:13:26.466,930.941
25,6 Dec 2013 01:37:56.496,6 Dec 2013 01:53:21.051,924.556
26,6 Dec 2013 03:17:46.811,6 Dec 2013 03:32:38.914,892.103
27,6 Dec 2013 04:58:28.800,6 Dec 2013 05:11:37.738,788.937
28,6 Dec 2013 06:41:57.953,6 Dec 2013 06:52:59.425,661.472
29,6 Dec 2013 08:26:07.255,6 Dec 2013 08:42:41.428,994.173
30,6 Dec 2013 10:11:30.576,6 Dec 2013 10:22:25.882,655.306
31,6 Dec 2013 19:40:15.772,6 Dec 2013 19:46:57.508,401.736
32,6 Dec 2013 21:18:16.738,6 Dec 2013 21:27:57.397,580.659
33,6 Dec 2013 22:55:42.257,6 Dec 2013 23:07:51.719,729.462
34,7 Dec 2013 00:32:46.229,7 Dec 2013 00:47:18.666,872.437
35,7 Dec 2013 02:11:52.829,7 Dec 2013 02:28:55.051,1022.222
36,7 Dec 2013 04:00:13.274,7 Dec 2013 04:15:31.703,918.428
37,7 Dec 2013 05:47:25.735,7 Dec 2013 06:04:04.112,998.377
38,7 Dec 2013 07:33:12.378,7 Dec 2013 07:47:38.335,865.957
39,7 Dec 2013 23:36:38.360,7 Dec 2013 23:52:08.366,930.005
40,8 Dec 2013 01:21:35.027,8 Dec 2013 01:38:09.798,994.771
41,8 Dec 2013 03:09:47.881,8 Dec 2013 03:25:52.812,964.930
42,8 Dec 2013 04:56:05.852,8 Dec 2013 05:12:52.630,1006.777
43,8 Dec 2013 21:02:13.216,8 Dec 2013 21:14:26.694,733.478
44,8 Dec 2013 22:43:24.782,8 Dec 2013 23:00:05.644,1000.862
45,9 Dec 2013 00:32:22.810,9 Dec 2013 00:45:54.622,811.812

"Access","Start Time (UTCG)","Stop Time (UTCG)","Duration (sec)"
1,3 Dec 2013 02:09:50.687,3 Dec 2013 02:26:18.551,987.864
2,3 Dec 2013 03:56:16.300,3 Dec 2013 04:12:32.224,975.924
3,3 Dec 2013 05:44:14.088,3 Dec 2013 06:00:37.752,983.664
4,3 Dec 2013 07:30:13.649,3 Dec 2013 07:46:19.268,965.619
5,3 Dec 2013 23:35:43.822,3 Dec 2013 23:49:01.002,797.180
6,4 Dec 2013 01:18:15.431,4 Dec 2013 01:35:03.697,1008.265
7,4 Dec 2013 03:06:40.934,4 Dec 2013 03:21:53.532,912.599
8,4 Dec 2013 04:53:32.888,4 Dec 2013 05:10:30.664,1017.776
9,4 Dec 2013 06:37:37.077,4 Dec 2013 06:51:37.463,840.387
10,4 Dec 2013 08:17:35.022,4 Dec 2013 08:27:36.209,601.187
11,4 Dec 2013 09:59:05.200,4 Dec 2013 10:02:25.560,200.360
12,4 Dec 2013 21:01:51.902,4 Dec 2013 21:10:14.306,502.405
13,4 Dec 2013 22:39:50.582,4 Dec 2013 22:56:32.500,1001.918
14,5 Dec 2013 00:28:45.586,5 Dec 2013 00:40:25.421,699.835
15,5 Dec 2013 02:13:36.367,5 Dec 2013 02:25:46.895,730.528
16,5 Dec 2013 03:52:08.856,5 Dec 2013 04:06:59.293,890.437
17,5 Dec 2013 05:31:09.052,5 Dec 2013 05:46:48.251,939.200
18,5 Dec 2013 07:10:37.108,5 Dec 2013 07:26:31.896,954.788
19,5 Dec 2013 08:50:52.823,5 Dec 2013 09:06:56.258,963.435
20,5 Dec 2013 10:32:08.651,5 Dec 2013 10:48:22.337,973.686
21,5 Dec 2013 12:15:33.229,5 Dec 2013 12:27:52.042,738.812
22,5 Dec 2013 20:00:17.979,5 Dec 2013 20:16:40.271,982.292
23,5 Dec 2013 21:43:12.154,5 Dec 2013 21:58:40.772,928.618
24,5 Dec 2013 23:24:25.498,5 Dec 2013 23:39:55.834,930.336
25,6 Dec 2013 01:04:39.703,6 Dec 2013 01:20:08.213,928.510
26,6 Dec 2013 02:44:27.931,6 Dec 2013 02:59:35.555,907.624
27,6 Dec 2013 04:24:43.993,6 Dec 2013 04:38:40.143,836.150
28,6 Dec 2013 06:06:53.439,6 Dec 2013 06:17:19.984,626.546
29,6 Dec 2013 07:51:36.071,6 Dec 2013 08:07:01.505,925.433
30,6 Dec 2013 09:35:40.603,6 Dec 2013 09:50:42.602,902.000
31,6 Dec 2013 19:07:45.001,6 Dec 2013 19:12:40.971,295.970
32,6 Dec 2013 20:45:38.409,6 Dec 2013 20:54:28.421,530.012
33,6 Dec 2013 22:23:18.364,6 Dec 2013 22:34:37.478,679.115
34,7 Dec 2013 00:00:23.928,7 Dec 2013 00:14:12.192,828.265
35,7 Dec 2013 01:37:46.268,7 Dec 2013 01:53:29.943,943.675
36,7 Dec 2013 03:23:50.194,7 Dec 2013 03:39:42.924,952.730
37,7 Dec 2013 05:12:05.978,7 Dec 2013 05:28:01.424,955.447
38,7 Dec 2013 06:57:42.406,7 Dec 2013 07:14:07.178,984.772
39,7 Dec 2013 23:03:49.691,7 Dec 2013 23:15:57.830,728.140
40,8 Dec 2013 00:45:51.331,8 Dec 2013 01:02:50.800,1019.469
41,8 Dec 2013 02:33:52.748,8 Dec 2013 02:49:40.994,948.246
42,8 Dec 2013 04:20:44.760,8 Dec 2013 04:37:46.677,1021.918
43,8 Dec 2013 06:08:13.186,8 Dec 2013 06:19:57.764,704.578
44,8 Dec 2013 22:08:29.878,8 Dec 2013 22:25:14.286,1004.408
45,8 Dec 2013 23:55:40.676,9 Dec 2013 00:10:10.674,869.998
46,9 Dec 2013 01:44:33.811,9 Dec 2013 01:59:08.117,874.307

"Access","Start Time (UTCG)","Stop Time (UTCG)","Duration (sec)"
1,3 Dec 2013 01:36:00.154,3 Dec 2013 01:50:29.281,869.127
2,3 Dec 2013 03:20:13.591,3 Dec 2013 03:37:02.769,1009.178
3,3 Dec 2013 05:08:32.241,3 Dec 2013 05:24:27.004,954.763
4,3 Dec 2013 06:54:52.380,3 Dec 2013 07:11:49.909,1017.529
5,3 Dec 2013 08:43:45.326,3 Dec 2013 08:50:36.194,410.868
6,3 Dec 2013 23:05:26.706,3 Dec 2013 23:11:13.055,346.349
7,4 Dec 2013 00:43:04.005,4 Dec 2013 00:59:57.609,1013.604
8,4 Dec 2013 02:30:24.684,4 Dec 2013 02:45:52.079,927.395
9,4 Dec 2013 04:18:12.024,4 Dec 2013 04:34:34.637,982.613
10,4 Dec 2013 06:04:28.522,4 Dec 2013 06:19:21.989,893.467
11,4 Dec 2013 07:44:09.965,4 Dec 2013 07:55:42.990,693.025
12,4 Dec 2013 09:24:52.421,4 Dec 2013 09:31:05.233,372.812
13,4 Dec 2013 22:05:36.315,4 Dec 2013 22:21:51.710,975.395
14,4 Dec 2013 23:51:31.987,5 Dec 2013 00:05:36.389,844.402
15,5 Dec 2013 01:41:01.319,5 Dec 2013 01:51:20.493,619.174
16,5 Dec 2013 03:19:13.723,5 Dec 2013 03:33:29.623,855.900
17,5 Dec 2013 04:58:06.587,5 Dec 2013 05:13:35.595,929.008
18,5 Dec 2013 06:37:23.530,5 Dec 2013 06:53:14.550,951.020
19,5 Dec 2013 08:17:21.120,5 Dec 2013 08:33:21.826,960.706
20,5 Dec 2013 09:58:16.791,5 Dec 2013 10:14:26.500,969.709
21,5 Dec 2013 11:40:25.281,5 Dec 2013 11:56:00.000,934.719
22,5 Dec 2013 19:27:18.761,5 Dec 2013 19:42:09.464,890.703
23,5 Dec 2013 21:09:11.490,5 Dec 2013 21:24:42.536,931.046
24,5 Dec 2013 22:50:48.761,5 Dec 2013 23:06:17.976,929.215
25,6 Dec 2013 00:31:19.860,6 Dec 2013 00:46:50.336,930.476
26,6 Dec 2013 02:11:11.916,6 Dec 2013 02:26:29.857,917.941
27,6 Dec 2013 03:51:11.163,6 Dec 2013 04:05:40.403,869.240
28,6 Dec 2013 05:32:29.932,6 Dec 2013 05:44:31.980,722.048
29,6 Dec 2013 07:16:58.891,6 Dec 2013 07:30:21.857,802.965
30,6 Dec 2013 09:00:44.094,6 Dec 2013 09:17:17.497,993.403
31,6 Dec 2013 20:12:56.789,6 Dec 2013 20:20:50.003,473.214
32,6 Dec 2013 21:50:50.126,6 Dec 2013 22:01:19.784,629.658
33,6 Dec 2013 23:28:03.401,6 Dec 2013 23:41:03.191,779.791
34,7 Dec 2013 01:05:12.830,7 Dec 2013 01:20:22.284,909.454
35,7 Dec 2013 02:47:36.715,7 Dec 2013 03:04:14.488,997.773
36,7 Dec 2013 04:36:22.798,7 Dec 2013 04:51:42.662,919.864
37,7 Dec 2013 06:22:33.273,7 Dec 2013 06:39:30.586,1017.313
38,7 Dec 2013 08:09:52.808,7 Dec 2013 08:19:17.357,564.549
39,8 Dec 2013 00:10:47.775,8 Dec 2013 00:27:35.726,1007.951
40,8 Dec 2013 01:57:42.528,8 Dec 2013 02:13:44.570,962.042
41,8 Dec 2013 03:45:22.946,8 Dec 2013 04:02:01.579,998.633
42,8 Dec 2013 05:31:43.685,8 Dec 2013 05:47:05.819,922.135
43,8 Dec 2013 21:34:38.059,8 Dec 2013 21:50:10.524,932.465
44,8 Dec 2013 23:19:12.744,8 Dec 2013 23:34:59.641,946.897
45,9 Dec 2013 01:08:45.882,9 Dec 2013 01:22:19.348,813.467

