Raw and processed data/Altitude Variations/us_greatcircle_3sat_450km/Aircraft-B747LAX_Sydney-Transmitter-adsb_out6212-To-Satellite-450km_p1_1-Receiver-adsb_satrcvr2 Access.csv

"Access","Start Time (UTCG)","Stop Time (UTCG)","Duration (sec)"
1,3 Dec 2013 05:29:41.988,3 Dec 2013 05:41:54.018,732.030
2,3 Dec 2013 07:10:30.066,3 Dec 2013 07:20:57.329,627.262
3,3 Dec 2013 12:26:42.115,3 Dec 2013 12:30:47.573,245.458
4,3 Dec 2013 13:59:55.645,3 Dec 2013 14:12:29.113,753.469
5,3 Dec 2013 15:37:27.120,3 Dec 2013 15:47:58.686,631.566
6,3 Dec 2013 17:16:42.493,3 Dec 2013 17:22:32.096,349.603
7,4 Dec 2013 04:47:02.658,4 Dec 2013 04:55:34.762,512.104
8,4 Dec 2013 06:25:31.198,4 Dec 2013 06:38:51.116,799.918
9,4 Dec 2013 13:28:14.109,4 Dec 2013 13:30:53.657,159.548
10,4 Dec 2013 14:59:56.418,4 Dec 2013 15:12:07.610,731.192
11,5 Dec 2013 04:12:46.654,5 Dec 2013 04:19:05.431,378.777
12,5 Dec 2013 05:44:14.572,5 Dec 2013 05:56:00.959,706.387
13,5 Dec 2013 07:22:28.496,5 Dec 2013 07:34:18.537,710.041
14,5 Dec 2013 14:27:47.797,5 Dec 2013 14:33:29.370,341.573
15,5 Dec 2013 16:00:36.165,5 Dec 2013 16:11:58.238,682.074
16,6 Dec 2013 03:42:42.829,6 Dec 2013 03:49:51.612,428.782
17,6 Dec 2013 05:13:43.668,6 Dec 2013 05:26:03.826,740.157
18,6 Dec 2013 06:47:33.497,6 Dec 2013 06:58:49.341,675.845
19,6 Dec 2013 08:24:00.664,6 Dec 2013 08:28:16.610,255.946
20,6 Dec 2013 15:27:17.297,6 Dec 2013 15:36:01.015,523.718
21,6 Dec 2013 17:01:59.526,6 Dec 2013 17:11:43.004,583.478
22,7 Dec 2013 03:11:36.272,7 Dec 2013 03:21:06.813,570.541
23,7 Dec 2013 04:43:24.181,7 Dec 2013 04:55:50.505,746.324
24,7 Dec 2013 06:18:37.369,7 Dec 2013 06:27:07.784,510.415
25,7 Dec 2013 16:27:02.822,7 Dec 2013 16:37:51.680,648.858
26,7 Dec 2013 18:04:20.286,7 Dec 2013 18:11:04.000,403.714
27,8 Dec 2013 01:09:57.219,8 Dec 2013 01:16:06.062,368.843
28,8 Dec 2013 02:40:12.166,8 Dec 2013 02:51:51.273,699.107
29,8 Dec 2013 04:13:17.605,8 Dec 2013 04:25:26.831,729.227
30,8 Dec 2013 05:50:20.968,8 Dec 2013 05:55:42.202,321.235
31,8 Dec 2013 17:27:01.051,8 Dec 2013 17:39:00.853,719.801
32,9 Dec 2013 02:04:53.466,9 Dec 2013 02:17:17.966,744.500
33,9 Dec 2013 03:43:27.073,9 Dec 2013 03:54:56.105,689.031
34,9 Dec 2013 05:21:08.136,9 Dec 2013 05:25:48.589,280.453
35,9 Dec 2013 18:27:00.516,9 Dec 2013 18:39:34.349,753.832
36,10 Dec 2013 03:00:41.032,10 Dec 2013 03:14:03.037,802.005
37,10 Dec 2013 04:44:47.913,10 Dec 2013 04:52:11.223,443.310

"Access","Start Time (UTCG)","Stop Time (UTCG)","Duration (sec)"
1,3 Dec 2013 04:22:31.530,3 Dec 2013 04:35:05.075,753.545
2,3 Dec 2013 11:24:44.175,3 Dec 2013 11:30:16.918,332.744
3,3 Dec 2013 13:00:13.240,3 Dec 2013 13:13:32.063,798.823
4,3 Dec 2013 14:42:09.346,3 Dec 2013 14:49:59.690,470.343
5,4 Dec 2013 03:52:45.587,4 Dec 2013 03:54:45.514,119.927
6,4 Dec 2013 05:22:59.915,4 Dec 2013 05:35:23.462,743.547
7,4 Dec 2013 12:17:28.464,4 Dec 2013 12:29:26.954,718.490
8,4 Dec 2013 13:57:52.379,4 Dec 2013 14:09:10.427,678.048
9,4 Dec 2013 23:58:07.656,5 Dec 2013 00:03:03.781,296.125
10,5 Dec 2013 01:32:55.853,5 Dec 2013 01:43:38.989,643.136
11,5 Dec 2013 03:09:16.643,5 Dec 2013 03:21:51.903,755.260
12,5 Dec 2013 04:46:02.667,5 Dec 2013 04:59:00.032,777.365
13,5 Dec 2013 06:22:54.441,5 Dec 2013 06:35:23.986,749.544
14,5 Dec 2013 11:37:48.502,5 Dec 2013 11:40:59.445,190.943
15,5 Dec 2013 13:13:00.897,5 Dec 2013 13:26:19.449,798.552
16,5 Dec 2013 20:02:06.204,5 Dec 2013 20:14:00.362,714.158
17,5 Dec 2013 21:38:43.644,5 Dec 2013 21:51:17.080,753.436
18,5 Dec 2013 23:15:46.342,5 Dec 2013 23:28:46.145,779.803
19,6 Dec 2013 00:53:31.728,6 Dec 2013 01:05:52.645,740.917
20,6 Dec 2013 02:32:27.968,6 Dec 2013 02:42:16.292,588.325
21,6 Dec 2013 04:13:20.358,6 Dec 2013 04:17:25.964,245.606
22,6 Dec 2013 12:29:55.878,6 Dec 2013 12:42:00.239,724.361
23,6 Dec 2013 14:10:28.679,6 Dec 2013 14:21:17.702,649.023
24,6 Dec 2013 21:01:43.632,6 Dec 2013 21:14:39.228,775.596
25,6 Dec 2013 22:41:35.486,6 Dec 2013 22:46:58.884,323.397
26,7 Dec 2013 11:46:59.259,7 Dec 2013 11:55:45.923,526.664
27,7 Dec 2013 13:25:44.926,7 Dec 2013 13:39:07.468,802.542
28,7 Dec 2013 22:01:54.333,7 Dec 2013 22:14:39.315,764.982
29,8 Dec 2013 11:15:54.992,8 Dec 2013 11:23:39.378,464.386
30,8 Dec 2013 12:47:37.366,8 Dec 2013 12:59:50.323,732.956
31,8 Dec 2013 14:22:32.497,8 Dec 2013 14:34:56.116,743.619
32,8 Dec 2013 23:02:32.376,8 Dec 2013 23:14:51.918,739.541
33,9 Dec 2013 10:45:28.577,9 Dec 2013 10:54:29.753,541.176
34,9 Dec 2013 12:17:11.844,9 Dec 2013 12:29:39.760,747.916
35,9 Dec 2013 13:51:40.770,9 Dec 2013 14:01:33.769,592.999
36,9 Dec 2013 22:31:55.043,9 Dec 2013 22:36:23.442,268.400
37,10 Dec 2013 00:03:39.267,10 Dec 2013 00:15:02.045,682.778

"Access","Start Time (UTCG)","Stop Time (UTCG)","Duration (sec)"
1,3 Dec 2013 08:54:38.254,3 Dec 2013 09:07:21.515,763.261
2,3 Dec 2013 20:38:43.782,3 Dec 2013 20:49:00.690,616.908
3,3 Dec 2013 22:11:01.042,3 Dec 2013 22:23:22.557,741.515
4,3 Dec 2013 23:46:31.111,3 Dec 2013 23:54:11.791,460.680
5,4 Dec 2013 09:55:22.389,4 Dec 2013 10:08:01.207,758.818
6,4 Dec 2013 18:38:10.214,4 Dec 2013 18:43:06.027,295.813
7,4 Dec 2013 20:07:44.854,4 Dec 2013 20:19:30.815,705.961
8,4 Dec 2013 21:41:02.118,4 Dec 2013 21:52:53.072,710.954
9,5 Dec 2013 10:56:19.177,5 Dec 2013 11:08:30.490,731.314
10,5 Dec 2013 19:36:51.383,5 Dec 2013 19:49:24.141,752.758
11,5 Dec 2013 21:11:17.798,5 Dec 2013 21:22:23.879,666.081
12,6 Dec 2013 10:24:41.181,6 Dec 2013 10:30:43.226,362.045
13,6 Dec 2013 11:57:15.577,6 Dec 2013 12:08:53.348,697.771
14,6 Dec 2013 18:55:28.509,6 Dec 2013 19:06:05.384,636.876
15,6 Dec 2013 20:34:19.042,6 Dec 2013 20:46:50.202,751.160
16,6 Dec 2013 22:19:42.148,6 Dec 2013 22:23:35.118,232.970
17,7 Dec 2013 11:22:58.996,7 Dec 2013 11:31:38.872,519.876
18,7 Dec 2013 12:57:46.864,7 Dec 2013 13:09:12.873,686.010
19,7 Dec 2013 19:50:17.458,7 Dec 2013 20:03:30.753,793.296
20,7 Dec 2013 21:33:34.851,7 Dec 2013 21:41:17.719,462.868
21,8 Dec 2013 01:02:58.631,8 Dec 2013 01:03:53.725,55.094
22,8 Dec 2013 05:52:57.982,8 Dec 2013 06:00:45.333,467.351
23,8 Dec 2013 07:28:59.128,8 Dec 2013 07:40:24.608,685.480
24,8 Dec 2013 09:05:48.388,8 Dec 2013 09:18:41.189,772.801
25,8 Dec 2013 10:43:12.919,8 Dec 2013 10:56:02.812,769.893
26,8 Dec 2013 12:20:46.456,8 Dec 2013 12:32:53.083,726.627
27,8 Dec 2013 13:57:50.342,8 Dec 2013 14:09:17.993,687.652
28,8 Dec 2013 19:08:02.814,8 Dec 2013 19:18:14.252,611.438
29,8 Dec 2013 20:46:59.825,8 Dec 2013 20:59:20.796,740.971
30,9 Dec 2013 02:02:40.258,9 Dec 2013 02:06:32.999,232.741
31,9 Dec 2013 03:36:02.436,9 Dec 2013 03:48:56.984,774.548
32,9 Dec 2013 05:12:45.008,9 Dec 2013 05:25:36.542,771.534
33,9 Dec 2013 06:50:19.129,9 Dec 2013 07:02:11.043,711.915
34,9 Dec 2013 08:29:24.264,9 Dec 2013 08:37:57.744,513.480
35,9 Dec 2013 18:26:33.112,9 Dec 2013 18:29:51.149,198.037
36,9 Dec 2013 20:02:58.537,9 Dec 2013 20:16:12.522,793.985
37,9 Dec 2013 21:46:36.806,9 Dec 2013 21:52:02.815,326.009
38,10 Dec 2013 04:35:57.643,10 Dec 2013 04:48:29.670,752.027

