Raw and processed data/Altitude Variations/us_greatcircle_3sat_450km/Aircraft-B747LAX_Narita-Transmitter-adsb_out6211-To-Satellite-450km_p1_1-Receiver-adsb_satrcvr2 Access.csv

"Access","Start Time (UTCG)","Stop Time (UTCG)","Duration (sec)"
1,3 Dec 2013 07:22:13.971,3 Dec 2013 07:35:28.879,794.908
2,3 Dec 2013 09:04:29.460,3 Dec 2013 09:13:19.938,530.478
3,3 Dec 2013 10:47:42.526,3 Dec 2013 10:54:40.610,418.084
4,3 Dec 2013 12:20:00.406,3 Dec 2013 12:31:23.262,682.856
5,3 Dec 2013 13:53:28.281,3 Dec 2013 14:05:56.830,748.549
6,3 Dec 2013 15:27:22.738,3 Dec 2013 15:40:04.076,761.338
7,3 Dec 2013 17:01:49.142,3 Dec 2013 17:14:34.658,765.516
8,3 Dec 2013 18:37:01.876,3 Dec 2013 18:49:51.274,769.398
9,3 Dec 2013 20:13:08.154,3 Dec 2013 20:25:50.793,762.639
10,4 Dec 2013 05:10:25.609,4 Dec 2013 05:23:22.735,777.126
11,4 Dec 2013 06:49:26.718,4 Dec 2013 06:59:37.447,610.729
12,4 Dec 2013 08:24:57.939,4 Dec 2013 08:35:54.955,657.017
13,4 Dec 2013 09:59:44.296,4 Dec 2013 10:11:07.812,683.516
14,4 Dec 2013 11:34:17.076,4 Dec 2013 11:45:32.348,675.271
15,4 Dec 2013 13:09:18.385,4 Dec 2013 13:19:31.343,612.958
16,4 Dec 2013 14:45:56.577,4 Dec 2013 14:53:05.098,428.521
17,4 Dec 2013 16:23:34.631,4 Dec 2013 16:33:01.690,567.059
18,4 Dec 2013 18:00:41.299,4 Dec 2013 18:13:28.808,767.509
19,5 Dec 2013 03:01:28.075,5 Dec 2013 03:06:42.314,314.239
20,5 Dec 2013 04:35:21.859,5 Dec 2013 04:43:30.924,489.065
21,5 Dec 2013 06:09:12.268,5 Dec 2013 06:18:42.145,569.878
22,5 Dec 2013 07:42:21.034,5 Dec 2013 07:53:08.886,647.853
23,5 Dec 2013 09:15:06.498,5 Dec 2013 09:27:12.392,725.894
24,5 Dec 2013 10:48:20.657,5 Dec 2013 11:00:50.768,750.111
25,5 Dec 2013 12:29:33.209,5 Dec 2013 12:40:25.796,652.587
26,5 Dec 2013 14:11:04.105,5 Dec 2013 14:23:10.424,726.319
27,5 Dec 2013 15:50:21.241,5 Dec 2013 16:02:59.211,757.970
28,6 Dec 2013 08:39:04.459,6 Dec 2013 08:51:52.777,768.318
29,6 Dec 2013 10:19:19.442,6 Dec 2013 10:31:54.981,755.539
30,6 Dec 2013 12:01:15.442,6 Dec 2013 12:13:41.606,746.164
31,6 Dec 2013 13:41:20.320,6 Dec 2013 13:54:24.586,784.266
32,7 Dec 2013 06:30:20.700,7 Dec 2013 06:42:46.138,745.438
33,7 Dec 2013 08:09:48.852,7 Dec 2013 08:21:53.138,724.285
34,7 Dec 2013 09:52:55.943,7 Dec 2013 10:03:03.407,607.463
35,7 Dec 2013 11:32:57.480,7 Dec 2013 11:45:18.561,741.081
36,7 Dec 2013 13:06:28.828,7 Dec 2013 13:18:42.317,733.488
37,7 Dec 2013 14:40:30.772,7 Dec 2013 14:51:19.143,648.371
38,7 Dec 2013 16:14:54.982,7 Dec 2013 16:24:06.613,551.630
39,7 Dec 2013 17:49:57.464,7 Dec 2013 17:57:33.283,455.819
40,7 Dec 2013 19:26:32.922,7 Dec 2013 19:31:06.749,273.827
41,8 Dec 2013 04:19:34.978,8 Dec 2013 04:32:13.862,758.884
42,8 Dec 2013 05:59:43.235,8 Dec 2013 06:09:02.526,559.291
43,8 Dec 2013 07:41:15.331,8 Dec 2013 07:46:15.905,300.574
44,8 Dec 2013 09:14:16.073,8 Dec 2013 09:23:54.560,578.487
45,8 Dec 2013 10:48:05.933,8 Dec 2013 10:59:14.837,668.903
46,8 Dec 2013 12:22:18.888,8 Dec 2013 12:33:50.981,692.094
47,8 Dec 2013 13:57:12.270,8 Dec 2013 14:08:32.114,679.844
48,8 Dec 2013 15:33:05.498,8 Dec 2013 15:43:51.554,646.056
49,8 Dec 2013 17:09:25.125,8 Dec 2013 17:22:20.691,775.567
50,8 Dec 2013 18:50:36.963,8 Dec 2013 18:53:00.878,143.915
51,9 Dec 2013 02:07:00.953,9 Dec 2013 02:17:41.024,640.071

"Access","Start Time (UTCG)","Stop Time (UTCG)","Duration (sec)"
1,3 Dec 2013 02:29:07.038,3 Dec 2013 02:42:15.438,788.399
2,3 Dec 2013 11:28:11.076,3 Dec 2013 11:37:43.124,572.048
3,3 Dec 2013 13:03:18.340,3 Dec 2013 13:14:09.390,651.050
4,3 Dec 2013 14:37:59.684,3 Dec 2013 14:49:23.294,683.610
5,3 Dec 2013 16:11:56.181,3 Dec 2013 16:23:49.466,713.286
6,3 Dec 2013 17:45:20.708,3 Dec 2013 17:57:47.887,747.179
7,3 Dec 2013 19:18:57.790,3 Dec 2013 19:31:24.014,746.224
8,3 Dec 2013 20:56:39.531,3 Dec 2013 21:07:31.474,651.943
9,3 Dec 2013 22:39:03.576,3 Dec 2013 22:50:00.799,657.224
10,4 Dec 2013 00:18:05.577,4 Dec 2013 00:31:21.227,795.650
11,4 Dec 2013 17:07:15.183,4 Dec 2013 17:19:04.911,709.729
12,4 Dec 2013 18:46:25.224,4 Dec 2013 18:59:23.594,778.371
13,4 Dec 2013 20:28:36.836,4 Dec 2013 20:40:43.575,726.739
14,4 Dec 2013 22:08:46.585,4 Dec 2013 22:22:10.769,804.184
15,5 Dec 2013 14:59:21.544,5 Dec 2013 15:10:06.502,644.958
16,5 Dec 2013 16:36:58.879,5 Dec 2013 16:49:54.626,775.747
17,5 Dec 2013 18:19:47.992,5 Dec 2013 18:30:23.103,635.111
18,5 Dec 2013 20:00:22.474,5 Dec 2013 20:13:27.889,785.415
19,5 Dec 2013 21:37:09.253,5 Dec 2013 21:48:59.038,709.785
20,5 Dec 2013 23:11:31.439,5 Dec 2013 23:20:48.367,556.927
21,6 Dec 2013 00:46:38.138,6 Dec 2013 00:52:10.431,332.293
22,6 Dec 2013 12:49:05.263,6 Dec 2013 13:00:12.994,667.731
23,6 Dec 2013 14:26:35.173,6 Dec 2013 14:38:18.834,703.661
24,6 Dec 2013 17:45:20.361,6 Dec 2013 17:54:11.376,531.015
25,6 Dec 2013 19:18:44.521,6 Dec 2013 19:29:57.662,673.141
26,6 Dec 2013 20:52:39.297,6 Dec 2013 21:04:37.182,717.885
27,6 Dec 2013 22:27:06.173,6 Dec 2013 22:39:13.796,727.623
28,7 Dec 2013 00:02:21.420,7 Dec 2013 00:14:25.041,723.620
29,7 Dec 2013 01:38:29.473,7 Dec 2013 01:50:33.203,723.730
30,7 Dec 2013 03:16:26.802,7 Dec 2013 03:25:41.649,554.847
31,7 Dec 2013 10:36:55.357,7 Dec 2013 10:48:16.067,680.711
32,7 Dec 2013 12:12:34.058,7 Dec 2013 12:25:17.334,763.276
33,7 Dec 2013 13:48:35.973,7 Dec 2013 14:01:11.897,755.923
34,7 Dec 2013 15:23:44.232,7 Dec 2013 15:36:15.182,750.950
35,7 Dec 2013 16:58:16.016,7 Dec 2013 17:10:33.998,737.981
36,7 Dec 2013 18:32:48.090,7 Dec 2013 18:44:22.500,694.410
37,7 Dec 2013 20:08:26.972,7 Dec 2013 20:17:36.976,550.004
38,7 Dec 2013 21:47:58.311,7 Dec 2013 21:54:25.139,386.828
39,7 Dec 2013 23:25:50.966,7 Dec 2013 23:38:45.083,774.117
40,8 Dec 2013 01:05:29.045,8 Dec 2013 01:14:04.293,515.248
41,8 Dec 2013 14:44:08.420,8 Dec 2013 14:50:33.319,384.900
42,8 Dec 2013 16:14:49.718,8 Dec 2013 16:25:42.058,652.341
43,8 Dec 2013 17:52:26.194,8 Dec 2013 18:05:33.691,787.497
44,8 Dec 2013 19:35:02.450,8 Dec 2013 19:46:28.201,685.751
45,8 Dec 2013 21:15:20.896,8 Dec 2013 21:28:40.957,800.061
46,8 Dec 2013 22:56:14.927,8 Dec 2013 23:04:46.396,511.470

"Access","Start Time (UTCG)","Stop Time (UTCG)","Duration (sec)"
1,3 Dec 2013 02:07:24.163,3 Dec 2013 02:20:04.266,760.103
2,3 Dec 2013 03:47:35.786,3 Dec 2013 04:00:13.944,758.158
3,3 Dec 2013 05:29:39.609,3 Dec 2013 05:41:55.907,736.298
4,3 Dec 2013 07:09:37.117,3 Dec 2013 07:22:49.129,792.011
5,3 Dec 2013 23:59:30.648,4 Dec 2013 00:11:10.767,700.119
6,4 Dec 2013 01:38:07.958,4 Dec 2013 01:50:54.313,766.355
7,4 Dec 2013 03:20:44.179,4 Dec 2013 03:31:56.111,671.932
8,4 Dec 2013 05:01:03.145,4 Dec 2013 05:14:27.328,804.182
9,4 Dec 2013 06:39:26.173,4 Dec 2013 06:49:40.474,614.300
10,4 Dec 2013 08:15:13.832,4 Dec 2013 08:19:35.492,261.661
11,4 Dec 2013 21:49:32.547,4 Dec 2013 22:01:24.376,711.828
12,4 Dec 2013 23:28:03.955,4 Dec 2013 23:39:30.277,686.322
13,5 Dec 2013 02:47:17.096,5 Dec 2013 02:56:50.671,573.575
14,5 Dec 2013 04:20:32.871,5 Dec 2013 04:32:18.637,705.766
15,5 Dec 2013 05:54:21.523,5 Dec 2013 06:06:46.051,744.528
16,5 Dec 2013 07:28:40.545,5 Dec 2013 07:41:17.013,756.468
17,5 Dec 2013 09:03:43.906,5 Dec 2013 09:16:26.447,762.542
18,5 Dec 2013 10:39:38.338,5 Dec 2013 10:52:28.868,770.531
19,5 Dec 2013 12:18:18.347,5 Dec 2013 12:25:36.036,437.689
20,5 Dec 2013 19:37:34.785,5 Dec 2013 19:49:40.985,726.200
21,5 Dec 2013 21:14:38.604,5 Dec 2013 21:26:24.154,705.550
22,5 Dec 2013 22:50:43.403,5 Dec 2013 23:02:34.384,710.980
23,6 Dec 2013 00:25:51.531,6 Dec 2013 00:37:50.449,718.918
24,6 Dec 2013 02:00:27.690,6 Dec 2013 02:12:17.607,709.917
25,6 Dec 2013 03:35:10.517,6 Dec 2013 03:46:13.084,662.568
26,6 Dec 2013 05:11:04.899,6 Dec 2013 05:19:38.328,513.429
27,6 Dec 2013 06:50:05.197,6 Dec 2013 06:55:29.282,324.085
28,6 Dec 2013 08:26:55.545,6 Dec 2013 08:39:57.431,781.886
29,6 Dec 2013 10:07:07.413,6 Dec 2013 10:13:43.724,396.311
30,6 Dec 2013 20:40:03.376,6 Dec 2013 20:43:02.514,179.138
31,6 Dec 2013 22:11:48.855,6 Dec 2013 22:18:53.929,425.074
32,6 Dec 2013 23:43:37.011,6 Dec 2013 23:53:38.945,601.934
33,7 Dec 2013 01:15:43.665,7 Dec 2013 01:27:50.743,727.078
34,7 Dec 2013 02:53:37.514,7 Dec 2013 03:06:15.489,757.975
35,7 Dec 2013 04:36:22.814,7 Dec 2013 04:47:35.403,672.589
36,7 Dec 2013 06:16:14.799,7 Dec 2013 06:29:37.786,802.987
37,7 Dec 2013 07:57:56.701,7 Dec 2013 08:03:58.907,362.206
38,7 Dec 2013 23:07:44.604,7 Dec 2013 23:16:38.003,533.399
39,8 Dec 2013 00:44:20.945,8 Dec 2013 00:57:43.161,802.216
40,8 Dec 2013 02:26:26.696,8 Dec 2013 02:38:18.098,711.402
41,8 Dec 2013 04:07:10.632,8 Dec 2013 04:20:31.561,800.929
42,8 Dec 2013 05:48:23.720,8 Dec 2013 05:57:47.247,563.527
43,8 Dec 2013 20:59:37.256,8 Dec 2013 21:07:31.734,474.478
44,8 Dec 2013 22:34:44.892,8 Dec 2013 22:47:55.154,790.262
45,9 Dec 2013 00:17:44.234,9 Dec 2013 00:27:05.263,561.029
46,9 Dec 2013 01:59:16.198,9 Dec 2013 02:10:41.508,685.310

