Raw and processed data/perplane variations/us_greatcircle_6sat/Aircraft-B747LAX_Heathrow-Transmitter-adsb_out6-To-Satellite-700km_p1_1-Receiver-adsb_satrcvr2 Access.csv

"Access","Start Time (UTCG)","Stop Time (UTCG)","Duration (sec)"
1,3 Dec 2013 01:16:46.370,3 Dec 2013 01:32:32.205,945.836
2,3 Dec 2013 02:55:55.871,3 Dec 2013 03:11:51.364,955.493
3,3 Dec 2013 04:34:22.357,3 Dec 2013 04:50:11.494,949.137
4,3 Dec 2013 06:12:51.422,3 Dec 2013 06:28:49.455,958.033
5,3 Dec 2013 07:52:47.535,3 Dec 2013 08:08:17.986,930.452
6,3 Dec 2013 09:35:26.109,3 Dec 2013 09:48:50.484,804.374
7,3 Dec 2013 11:18:32.815,3 Dec 2013 11:33:52.509,919.694
8,3 Dec 2013 13:00:26.754,3 Dec 2013 13:14:06.545,819.791
9,3 Dec 2013 19:19:31.225,3 Dec 2013 19:23:21.379,230.154
10,3 Dec 2013 20:53:26.847,3 Dec 2013 21:08:45.303,918.456
11,3 Dec 2013 22:34:23.239,3 Dec 2013 22:48:48.570,865.331
12,4 Dec 2013 00:13:42.008,4 Dec 2013 00:27:17.048,815.041
13,4 Dec 2013 01:51:17.615,4 Dec 2013 02:05:21.196,843.581
14,4 Dec 2013 03:28:17.320,4 Dec 2013 03:43:47.025,929.704
15,4 Dec 2013 05:06:45.867,4 Dec 2013 05:22:13.657,927.790
16,4 Dec 2013 06:50:46.607,4 Dec 2013 07:04:32.252,825.645
17,4 Dec 2013 08:36:33.725,4 Dec 2013 08:52:48.932,975.207
18,4 Dec 2013 10:20:25.054,4 Dec 2013 10:35:14.456,889.402
19,5 Dec 2013 02:26:18.474,5 Dec 2013 02:41:09.394,890.920
20,5 Dec 2013 04:10:53.354,5 Dec 2013 04:28:01.904,1028.550
21,5 Dec 2013 05:57:22.579,5 Dec 2013 06:14:27.823,1025.245
22,5 Dec 2013 07:43:02.513,5 Dec 2013 07:57:58.037,895.524
23,6 Dec 2013 01:35:52.245,6 Dec 2013 01:51:41.710,949.465
24,6 Dec 2013 03:20:49.739,6 Dec 2013 03:37:54.013,1024.274
25,6 Dec 2013 05:07:01.228,6 Dec 2013 05:22:58.825,957.597
26,6 Dec 2013 23:00:58.117,6 Dec 2013 23:15:40.955,882.838
27,7 Dec 2013 00:44:15.497,7 Dec 2013 01:01:20.295,1024.798
28,7 Dec 2013 02:30:30.030,7 Dec 2013 02:46:23.245,953.215
29,7 Dec 2013 04:08:56.075,7 Dec 2013 04:24:22.903,926.828
30,7 Dec 2013 05:47:06.464,7 Dec 2013 06:02:23.649,917.186
31,7 Dec 2013 07:25:47.064,7 Dec 2013 07:41:37.337,950.273
32,7 Dec 2013 09:06:02.729,7 Dec 2013 09:22:22.927,980.198
33,7 Dec 2013 10:48:09.585,7 Dec 2013 11:04:41.326,991.741
34,7 Dec 2013 12:31:07.373,7 Dec 2013 12:46:41.064,933.691
35,7 Dec 2013 20:23:44.369,7 Dec 2013 20:38:19.593,875.225

"Access","Start Time (UTCG)","Stop Time (UTCG)","Duration (sec)"
1,3 Dec 2013 02:06:27.587,3 Dec 2013 02:22:25.009,957.422
2,3 Dec 2013 03:45:12.822,3 Dec 2013 04:01:03.117,950.295
3,3 Dec 2013 05:23:31.777,3 Dec 2013 05:39:25.193,953.416
4,3 Dec 2013 07:02:32.991,3 Dec 2013 07:18:26.680,953.689
5,3 Dec 2013 08:43:43.804,3 Dec 2013 08:58:24.791,880.986
6,3 Dec 2013 10:27:49.908,3 Dec 2013 10:39:42.568,712.660
7,3 Dec 2013 12:09:04.222,3 Dec 2013 12:25:20.069,975.848
8,3 Dec 2013 20:03:50.993,3 Dec 2013 20:17:46.009,835.016
9,3 Dec 2013 21:44:05.776,3 Dec 2013 21:59:01.418,895.643
10,3 Dec 2013 23:24:16.151,3 Dec 2013 23:38:10.951,834.800
11,4 Dec 2013 01:02:40.726,4 Dec 2013 01:16:17.562,816.836
12,4 Dec 2013 02:39:44.525,4 Dec 2013 02:54:31.483,886.958
13,4 Dec 2013 04:17:12.371,4 Dec 2013 04:33:03.378,951.007
14,4 Dec 2013 05:57:18.201,4 Dec 2013 06:11:05.374,827.173
15,4 Dec 2013 07:44:12.644,4 Dec 2013 07:58:58.201,885.557
16,4 Dec 2013 09:28:26.176,4 Dec 2013 09:45:04.682,998.506
17,4 Dec 2013 11:13:46.733,4 Dec 2013 11:22:03.460,496.727
18,5 Dec 2013 01:37:31.505,5 Dec 2013 01:45:25.425,473.920
19,5 Dec 2013 03:18:01.271,5 Dec 2013 03:34:47.723,1006.452
20,5 Dec 2013 05:04:12.099,5 Dec 2013 05:21:18.000,1025.900
21,5 Dec 2013 06:50:13.376,5 Dec 2013 07:06:56.228,1002.852
22,5 Dec 2013 08:36:59.146,5 Dec 2013 08:46:12.656,553.510
23,6 Dec 2013 00:45:25.483,6 Dec 2013 00:57:57.641,752.158
24,6 Dec 2013 02:27:58.294,6 Dec 2013 02:44:49.881,1011.588
25,6 Dec 2013 04:13:53.704,6 Dec 2013 04:30:47.459,1013.754
26,6 Dec 2013 06:00:40.078,6 Dec 2013 06:13:36.855,776.777
27,6 Dec 2013 22:13:04.011,6 Dec 2013 22:21:32.357,508.346
28,6 Dec 2013 23:51:51.583,7 Dec 2013 00:08:30.905,999.322
29,7 Dec 2013 01:37:24.074,7 Dec 2013 01:54:29.423,1025.349
30,7 Dec 2013 03:19:45.591,7 Dec 2013 03:35:29.685,944.095
31,7 Dec 2013 04:58:01.648,7 Dec 2013 05:13:17.122,915.474
32,7 Dec 2013 06:36:18.433,7 Dec 2013 06:51:49.387,930.954
33,7 Dec 2013 08:15:40.384,7 Dec 2013 08:31:48.404,968.020
34,7 Dec 2013 09:56:53.869,7 Dec 2013 10:13:20.953,987.084
35,7 Dec 2013 11:39:43.810,7 Dec 2013 11:56:20.152,996.342
36,7 Dec 2013 13:23:06.104,7 Dec 2013 13:33:35.604,629.500
37,7 Dec 2013 19:37:19.884,7 Dec 2013 19:44:42.966,443.083
38,7 Dec 2013 21:13:43.763,7 Dec 2013 21:30:19.728,995.965

"Access","Start Time (UTCG)","Stop Time (UTCG)","Duration (sec)"
1,3 Dec 2013 10:54:39.417,3 Dec 2013 11:09:12.650,873.232
2,3 Dec 2013 12:39:05.911,3 Dec 2013 12:56:13.580,1027.669
3,3 Dec 2013 14:25:46.907,3 Dec 2013 14:42:49.096,1022.189
4,3 Dec 2013 16:11:21.127,3 Dec 2013 16:27:08.472,947.346
5,4 Dec 2013 10:04:23.667,4 Dec 2013 10:19:47.429,923.763
6,4 Dec 2013 11:49:02.328,4 Dec 2013 12:06:06.298,1023.970
7,4 Dec 2013 13:35:09.796,4 Dec 2013 13:51:27.210,977.414
8,4 Dec 2013 15:24:12.785,4 Dec 2013 15:30:03.562,350.777
9,5 Dec 2013 07:30:21.368,5 Dec 2013 07:43:47.620,806.251
10,5 Dec 2013 09:12:41.442,5 Dec 2013 09:29:43.228,1021.787
11,5 Dec 2013 10:58:52.738,5 Dec 2013 11:16:01.982,1029.244
12,5 Dec 2013 12:39:34.395,5 Dec 2013 12:54:52.726,918.331
13,5 Dec 2013 14:17:44.210,5 Dec 2013 14:32:34.085,889.875
14,5 Dec 2013 15:56:08.120,5 Dec 2013 16:11:28.369,920.249
15,5 Dec 2013 17:35:53.638,5 Dec 2013 17:51:57.946,964.308
16,5 Dec 2013 19:17:30.646,5 Dec 2013 19:33:57.148,986.503
17,5 Dec 2013 21:00:36.925,5 Dec 2013 21:16:52.416,975.491
18,6 Dec 2013 04:53:51.231,6 Dec 2013 05:06:56.812,785.581
19,6 Dec 2013 06:34:34.960,6 Dec 2013 06:51:16.356,1001.396
20,6 Dec 2013 08:15:53.779,6 Dec 2013 08:31:56.582,962.804
21,6 Dec 2013 09:54:53.613,6 Dec 2013 10:10:42.219,948.606
22,6 Dec 2013 11:33:09.957,6 Dec 2013 11:49:00.441,950.484
23,6 Dec 2013 13:11:53.798,6 Dec 2013 13:27:43.710,949.912
24,6 Dec 2013 14:52:48.857,6 Dec 2013 15:06:59.083,850.226
25,6 Dec 2013 16:37:53.479,6 Dec 2013 16:46:54.304,540.825
26,6 Dec 2013 18:18:58.429,6 Dec 2013 18:35:22.239,983.810
27,6 Dec 2013 20:02:38.709,6 Dec 2013 20:12:17.291,578.583
28,7 Dec 2013 02:15:46.984,7 Dec 2013 02:27:18.218,691.234
29,7 Dec 2013 03:55:58.088,7 Dec 2013 04:08:27.134,749.045
30,7 Dec 2013 05:36:17.720,7 Dec 2013 05:47:25.444,667.724
31,7 Dec 2013 07:14:38.320,7 Dec 2013 07:25:20.529,642.209
32,7 Dec 2013 08:50:55.318,7 Dec 2013 09:03:43.424,768.106
33,7 Dec 2013 10:27:10.112,7 Dec 2013 10:42:31.559,921.448
34,7 Dec 2013 12:05:38.908,7 Dec 2013 12:21:32.442,953.534
35,7 Dec 2013 13:53:11.659,7 Dec 2013 14:08:41.997,930.337
36,7 Dec 2013 15:38:30.334,7 Dec 2013 15:55:18.690,1008.356
37,7 Dec 2013 17:23:26.518,7 Dec 2013 17:34:50.289,683.771

"Access","Start Time (UTCG)","Stop Time (UTCG)","Duration (sec)"
1,3 Dec 2013 10:07:34.182,3 Dec 2013 10:16:28.877,534.695
2,3 Dec 2013 11:46:15.087,3 Dec 2013 12:02:58.582,1003.495
3,3 Dec 2013 13:32:29.410,3 Dec 2013 13:49:30.779,1021.369
4,3 Dec 2013 15:18:40.259,3 Dec 2013 15:35:36.403,1016.144
5,3 Dec 2013 17:04:33.922,3 Dec 2013 17:16:28.110,714.188
6,4 Dec 2013 09:14:28.647,4 Dec 2013 09:25:38.803,670.156
7,4 Dec 2013 10:56:16.200,4 Dec 2013 11:13:00.935,1004.734
8,4 Dec 2013 12:42:05.316,4 Dec 2013 12:59:04.029,1018.713
9,4 Dec 2013 14:28:32.861,4 Dec 2013 14:42:30.335,837.474
10,5 Dec 2013 06:45:42.571,5 Dec 2013 06:46:43.857,61.286
11,5 Dec 2013 08:20:38.882,5 Dec 2013 08:36:53.114,974.232
12,5 Dec 2013 10:05:38.942,5 Dec 2013 10:22:47.001,1028.059
13,5 Dec 2013 11:50:22.278,5 Dec 2013 12:06:04.759,942.481
14,5 Dec 2013 13:28:41.074,5 Dec 2013 13:43:38.095,897.021
15,5 Dec 2013 15:06:50.125,5 Dec 2013 15:21:49.521,899.396
16,5 Dec 2013 16:45:47.289,5 Dec 2013 17:01:31.353,944.064
17,5 Dec 2013 18:26:28.841,5 Dec 2013 18:42:47.175,978.334
18,5 Dec 2013 20:08:54.623,5 Dec 2013 20:25:23.866,989.243
19,5 Dec 2013 21:52:18.827,5 Dec 2013 22:04:40.500,741.674
20,6 Dec 2013 05:43:03.346,6 Dec 2013 05:59:18.102,974.757
21,6 Dec 2013 07:25:58.214,6 Dec 2013 07:41:58.739,960.526
22,6 Dec 2013 09:05:31.539,6 Dec 2013 09:21:27.770,956.231
23,6 Dec 2013 10:44:03.990,6 Dec 2013 10:59:50.295,946.305
24,6 Dec 2013 12:22:22.263,6 Dec 2013 12:38:17.667,955.403
25,6 Dec 2013 14:01:58.095,6 Dec 2013 14:17:18.104,920.009
26,6 Dec 2013 15:44:40.858,6 Dec 2013 15:56:43.374,722.516
27,6 Dec 2013 17:28:19.016,6 Dec 2013 17:42:46.407,867.391
28,6 Dec 2013 19:10:09.553,6 Dec 2013 19:25:25.278,915.726
29,7 Dec 2013 03:05:20.727,7 Dec 2013 03:18:11.108,770.382
30,7 Dec 2013 04:46:19.299,7 Dec 2013 04:58:10.147,710.848
31,7 Dec 2013 06:25:46.007,7 Dec 2013 06:36:23.980,637.974
32,7 Dec 2013 08:02:56.829,7 Dec 2013 08:14:26.342,689.513
33,7 Dec 2013 09:38:53.555,7 Dec 2013 09:53:07.236,853.681
34,7 Dec 2013 11:16:00.274,7 Dec 2013 11:31:49.706,949.432
35,7 Dec 2013 12:59:17.811,7 Dec 2013 13:14:51.218,933.407
36,7 Dec 2013 14:46:11.773,7 Dec 2013 15:02:31.025,979.252
37,7 Dec 2013 16:30:38.353,7 Dec 2013 16:46:21.978,943.625

"Access","Start Time (UTCG)","Stop Time (UTCG)","Duration (sec)"
1,3 Dec 2013 15:59:57.659,3 Dec 2013 16:11:39.127,701.468
2,3 Dec 2013 17:41:10.826,3 Dec 2013 17:58:03.685,1012.859
3,3 Dec 2013 19:27:05.251,3 Dec 2013 19:44:14.749,1029.498
4,3 Dec 2013 21:10:13.351,3 Dec 2013 21:25:22.043,908.691
5,3 Dec 2013 22:48:26.014,3 Dec 2013 23:02:41.051,855.037
6,4 Dec 2013 00:26:36.953,4 Dec 2013 00:41:11.867,874.913
7,4 Dec 2013 02:05:53.971,4 Dec 2013 02:21:23.265,929.294
8,4 Dec 2013 03:47:01.476,4 Dec 2013 04:03:03.170,961.694
9,4 Dec 2013 05:29:50.801,4 Dec 2013 05:45:42.135,951.334
10,4 Dec 2013 13:24:19.488,4 Dec 2013 13:35:12.616,653.128
11,4 Dec 2013 15:03:27.166,4 Dec 2013 15:20:14.668,1007.502
12,4 Dec 2013 16:46:17.670,4 Dec 2013 17:02:15.837,958.167
13,4 Dec 2013 18:25:24.124,4 Dec 2013 18:41:17.134,953.010
14,4 Dec 2013 20:03:46.117,4 Dec 2013 20:19:36.066,949.949
15,4 Dec 2013 21:42:22.120,4 Dec 2013 21:58:17.727,955.607
16,4 Dec 2013 23:22:45.917,4 Dec 2013 23:37:42.643,896.726
17,5 Dec 2013 01:06:24.700,5 Dec 2013 01:17:53.966,689.266
18,5 Dec 2013 02:48:39.901,5 Dec 2013 03:04:42.762,962.862
19,5 Dec 2013 04:31:21.884,5 Dec 2013 04:43:23.762,721.877
20,5 Dec 2013 10:47:02.284,5 Dec 2013 10:55:55.192,532.908
21,5 Dec 2013 12:24:34.260,5 Dec 2013 12:38:44.350,850.090
22,5 Dec 2013 14:05:11.923,5 Dec 2013 14:18:16.167,784.244
23,5 Dec 2013 15:44:04.585,5 Dec 2013 15:56:25.423,740.838
24,5 Dec 2013 17:21:05.403,5 Dec 2013 17:34:34.030,808.626
25,5 Dec 2013 18:57:43.692,5 Dec 2013 19:13:09.396,925.704
26,5 Dec 2013 20:36:12.543,5 Dec 2013 20:51:33.296,920.753
27,5 Dec 2013 22:21:57.519,5 Dec 2013 22:36:41.277,883.758
28,6 Dec 2013 00:07:28.313,6 Dec 2013 00:24:08.360,1000.047
29,6 Dec 2013 01:51:45.987,6 Dec 2013 02:05:12.119,806.132
30,6 Dec 2013 17:57:56.982,6 Dec 2013 18:13:05.353,908.371
31,6 Dec 2013 19:42:40.790,6 Dec 2013 19:59:49.877,1029.088
32,6 Dec 2013 21:29:00.242,6 Dec 2013 21:46:03.120,1022.878
33,6 Dec 2013 23:14:54.191,6 Dec 2013 23:28:38.645,824.454
34,7 Dec 2013 15:29:42.641,7 Dec 2013 15:33:46.985,244.344
35,7 Dec 2013 17:07:22.274,7 Dec 2013 17:23:33.670,971.396
36,7 Dec 2013 18:52:37.279,7 Dec 2013 19:09:41.630,1024.351
37,7 Dec 2013 20:38:54.734,7 Dec 2013 20:54:29.146,934.412

"Access","Start Time (UTCG)","Stop Time (UTCG)","Duration (sec)"
1,3 Dec 2013 16:49:31.438,3 Dec 2013 17:05:09.658,938.220
2,3 Dec 2013 18:33:55.642,3 Dec 2013 18:51:03.917,1028.275
3,3 Dec 2013 20:20:17.145,3 Dec 2013 20:36:39.747,982.602
4,3 Dec 2013 21:59:22.518,3 Dec 2013 22:13:57.468,874.950
5,3 Dec 2013 23:37:27.976,3 Dec 2013 23:51:44.018,856.042
6,4 Dec 2013 01:16:03.004,4 Dec 2013 01:31:05.406,902.402
7,4 Dec 2013 02:56:13.579,4 Dec 2013 03:12:03.418,949.839
8,4 Dec 2013 04:38:14.820,4 Dec 2013 04:54:18.264,963.444
9,4 Dec 2013 06:21:45.819,4 Dec 2013 06:35:28.654,822.835
10,4 Dec 2013 14:12:32.595,4 Dec 2013 14:28:06.797,934.202
11,4 Dec 2013 15:56:09.117,4 Dec 2013 16:12:02.909,953.792
12,4 Dec 2013 17:35:58.191,4 Dec 2013 17:51:57.197,959.006
13,4 Dec 2013 19:14:38.235,4 Dec 2013 19:30:26.783,948.548
14,4 Dec 2013 20:52:56.849,4 Dec 2013 21:08:51.885,955.036
15,4 Dec 2013 22:32:14.488,4 Dec 2013 22:47:54.645,940.156
16,5 Dec 2013 00:14:06.897,5 Dec 2013 00:27:41.902,815.004
17,5 Dec 2013 01:58:27.571,5 Dec 2013 02:11:12.138,764.567
18,5 Dec 2013 03:39:31.992,5 Dec 2013 03:55:27.573,955.581
19,5 Dec 2013 11:33:47.579,5 Dec 2013 11:48:13.068,865.490
20,5 Dec 2013 13:15:03.982,5 Dec 2013 13:28:44.581,820.598
21,5 Dec 2013 14:54:53.400,5 Dec 2013 15:07:26.053,752.653
22,5 Dec 2013 16:32:45.815,5 Dec 2013 16:45:25.874,760.059
23,5 Dec 2013 18:09:18.811,5 Dec 2013 18:23:49.902,871.091
24,5 Dec 2013 19:46:36.340,5 Dec 2013 20:02:26.595,950.254
25,5 Dec 2013 21:27:45.001,5 Dec 2013 21:42:49.742,904.742
26,5 Dec 2013 23:15:09.038,5 Dec 2013 23:30:49.810,940.771
27,6 Dec 2013 00:59:27.565,6 Dec 2013 01:15:48.052,980.487
28,6 Dec 2013 17:08:27.006,6 Dec 2013 17:17:55.085,568.079
29,6 Dec 2013 18:49:47.410,6 Dec 2013 19:06:36.722,1009.312
30,6 Dec 2013 20:35:55.200,6 Dec 2013 20:53:03.553,1028.353
31,6 Dec 2013 22:21:51.149,6 Dec 2013 22:38:11.092,979.943
32,7 Dec 2013 00:10:36.787,7 Dec 2013 00:14:47.403,250.617
33,7 Dec 2013 16:16:28.371,7 Dec 2013 16:30:07.405,819.034
34,7 Dec 2013 17:59:40.989,7 Dec 2013 18:16:38.314,1017.325
35,7 Dec 2013 19:45:42.529,7 Dec 2013 20:02:30.368,1007.838
36,7 Dec 2013 21:32:55.099,7 Dec 2013 21:44:38.403,703.304

