Raw and processed data/Altitude Variations/us_greatcircle_3sat_800km/Aircraft-B747LAX_Heathrow-Transmitter-adsb_out6-To-Satellite-800km_p1_1-Receiver-adsb_satrcvr2 Access.csv

"Access","Start Time (UTCG)","Stop Time (UTCG)","Duration (sec)"
1,3 Dec 2013 01:16:40.043,3 Dec 2013 01:33:42.097,1022.054
2,3 Dec 2013 02:57:56.872,3 Dec 2013 03:15:05.816,1028.944
3,3 Dec 2013 04:38:27.550,3 Dec 2013 04:55:30.411,1022.860
4,3 Dec 2013 06:19:04.404,3 Dec 2013 06:36:16.809,1032.405
5,3 Dec 2013 08:01:18.355,3 Dec 2013 08:18:00.019,1001.664
6,3 Dec 2013 09:46:24.824,3 Dec 2013 10:00:58.484,873.660
7,3 Dec 2013 11:31:26.310,3 Dec 2013 11:48:40.573,1034.263
8,3 Dec 2013 13:16:05.932,3 Dec 2013 13:29:25.561,799.629
9,3 Dec 2013 19:38:37.787,3 Dec 2013 19:50:48.859,731.072
10,3 Dec 2013 21:19:01.736,3 Dec 2013 21:35:28.038,986.303
11,3 Dec 2013 23:01:43.830,3 Dec 2013 23:17:10.382,926.552
12,4 Dec 2013 00:42:36.847,4 Dec 2013 00:57:28.708,891.862
13,4 Dec 2013 02:21:54.282,4 Dec 2013 02:37:40.136,945.854
14,4 Dec 2013 04:01:12.766,4 Dec 2013 04:18:14.096,1021.329
15,4 Dec 2013 05:42:48.535,4 Dec 2013 05:58:34.368,945.832
16,4 Dec 2013 07:31:31.228,4 Dec 2013 07:47:28.398,957.170
17,4 Dec 2013 09:18:28.668,4 Dec 2013 09:36:29.678,1081.010
18,4 Dec 2013 11:05:25.273,4 Dec 2013 11:16:58.144,692.871
19,5 Dec 2013 01:47:35.019,5 Dec 2013 01:59:52.276,737.258
20,5 Dec 2013 03:32:08.915,5 Dec 2013 03:50:27.888,1098.973
21,5 Dec 2013 05:20:57.046,5 Dec 2013 05:39:24.500,1107.454
22,5 Dec 2013 07:09:12.687,5 Dec 2013 07:26:51.663,1058.976
23,5 Dec 2013 08:59:51.630,5 Dec 2013 09:05:28.394,336.764
24,6 Dec 2013 01:26:45.464,6 Dec 2013 01:43:35.815,1010.350
25,6 Dec 2013 03:13:49.143,6 Dec 2013 03:32:14.302,1105.159
26,6 Dec 2013 05:02:23.750,6 Dec 2013 05:19:52.953,1049.203
27,6 Dec 2013 06:54:39.890,6 Dec 2013 06:59:59.408,319.518
28,6 Dec 2013 23:19:52.330,6 Dec 2013 23:36:55.735,1023.405
29,7 Dec 2013 01:06:33.751,7 Dec 2013 01:25:00.335,1106.584
30,7 Dec 2013 02:53:27.237,7 Dec 2013 03:10:32.270,1025.032
31,7 Dec 2013 04:33:52.792,7 Dec 2013 04:50:28.312,995.520
32,7 Dec 2013 06:14:09.172,7 Dec 2013 06:30:49.485,1000.313
33,7 Dec 2013 07:55:18.679,7 Dec 2013 08:12:36.485,1037.806
34,7 Dec 2013 09:38:21.280,7 Dec 2013 09:56:03.189,1061.909
35,7 Dec 2013 11:23:13.754,7 Dec 2013 11:41:06.657,1072.904
36,7 Dec 2013 13:08:22.215,7 Dec 2013 13:22:32.038,849.823
37,7 Dec 2013 19:32:10.825,7 Dec 2013 19:39:53.444,462.619
38,7 Dec 2013 21:10:03.787,7 Dec 2013 21:27:53.800,1070.012

"Access","Start Time (UTCG)","Stop Time (UTCG)","Duration (sec)"
1,3 Dec 2013 10:33:29.363,3 Dec 2013 10:46:48.728,799.365
2,3 Dec 2013 12:18:23.996,3 Dec 2013 12:36:50.726,1106.730
3,3 Dec 2013 14:07:29.807,3 Dec 2013 14:25:52.689,1102.882
4,3 Dec 2013 15:55:37.742,3 Dec 2013 16:13:16.099,1058.357
5,3 Dec 2013 17:46:18.535,3 Dec 2013 17:51:17.026,298.491
6,4 Dec 2013 10:12:47.125,4 Dec 2013 10:29:54.717,1027.592
7,4 Dec 2013 12:00:08.240,4 Dec 2013 12:18:33.969,1105.729
8,4 Dec 2013 13:48:42.040,4 Dec 2013 14:05:59.537,1037.496
9,5 Dec 2013 08:06:12.249,5 Dec 2013 08:23:17.777,1025.528
10,5 Dec 2013 09:53:01.418,5 Dec 2013 10:11:30.307,1108.889
11,5 Dec 2013 11:40:54.723,5 Dec 2013 11:57:54.746,1020.023
12,5 Dec 2013 13:21:18.869,5 Dec 2013 13:37:34.798,975.929
13,5 Dec 2013 15:01:31.391,5 Dec 2013 15:17:46.900,975.509
14,5 Dec 2013 16:42:32.263,5 Dec 2013 16:59:32.377,1020.114
15,5 Dec 2013 18:25:22.610,5 Dec 2013 18:42:58.650,1056.041
16,5 Dec 2013 20:10:03.700,5 Dec 2013 20:27:52.409,1068.709
17,5 Dec 2013 21:55:40.259,5 Dec 2013 22:09:06.314,806.055
18,6 Dec 2013 04:18:29.173,6 Dec 2013 04:26:28.944,479.771
19,6 Dec 2013 05:56:45.868,6 Dec 2013 06:14:37.875,1072.006
20,6 Dec 2013 07:41:39.482,6 Dec 2013 07:58:57.883,1038.401
21,6 Dec 2013 09:23:09.795,6 Dec 2013 09:40:16.726,1026.931
22,6 Dec 2013 11:03:39.712,6 Dec 2013 11:20:40.394,1020.682
23,6 Dec 2013 12:44:10.113,6 Dec 2013 13:01:19.257,1029.144
24,6 Dec 2013 14:26:24.800,6 Dec 2013 14:42:36.023,971.222
25,6 Dec 2013 16:12:18.976,6 Dec 2013 16:24:22.317,723.341
26,6 Dec 2013 17:57:15.706,6 Dec 2013 18:14:32.360,1036.654
27,6 Dec 2013 19:42:08.373,6 Dec 2013 19:56:16.017,847.644
28,7 Dec 2013 02:05:42.583,7 Dec 2013 02:16:51.410,668.827
29,7 Dec 2013 03:46:55.996,7 Dec 2013 04:00:49.960,833.964
30,7 Dec 2013 05:29:30.361,7 Dec 2013 05:42:06.041,755.680
31,7 Dec 2013 07:10:03.338,7 Dec 2013 07:22:05.863,722.526
32,7 Dec 2013 08:48:27.589,7 Dec 2013 09:02:25.995,838.405
33,7 Dec 2013 10:26:42.934,7 Dec 2013 10:43:15.495,992.562
34,7 Dec 2013 12:07:12.665,7 Dec 2013 12:24:38.363,1045.698
35,7 Dec 2013 13:57:16.789,7 Dec 2013 14:14:19.224,1022.435
36,7 Dec 2013 15:44:58.501,7 Dec 2013 16:03:04.851,1086.350
37,7 Dec 2013 17:32:20.799,7 Dec 2013 17:44:10.393,709.594

"Access","Start Time (UTCG)","Stop Time (UTCG)","Duration (sec)"
1,3 Dec 2013 15:45:24.160,3 Dec 2013 15:56:31.557,667.397
2,3 Dec 2013 17:27:38.298,3 Dec 2013 17:45:41.234,1082.936
3,3 Dec 2013 19:15:42.553,3 Dec 2013 19:34:13.683,1111.130
4,3 Dec 2013 21:01:53.123,3 Dec 2013 21:18:22.389,989.266
5,3 Dec 2013 22:42:09.837,3 Dec 2013 22:57:44.302,934.465
6,4 Dec 2013 00:22:23.992,4 Dec 2013 00:38:15.864,951.872
7,4 Dec 2013 02:03:46.494,4 Dec 2013 02:20:33.327,1006.832
8,4 Dec 2013 03:47:05.429,4 Dec 2013 04:04:26.315,1040.886
9,4 Dec 2013 05:32:11.568,4 Dec 2013 05:49:23.450,1031.883
10,4 Dec 2013 13:35:52.404,4 Dec 2013 13:49:57.944,845.540
11,4 Dec 2013 15:18:43.803,4 Dec 2013 15:36:50.606,1086.802
12,4 Dec 2013 17:03:03.318,4 Dec 2013 17:20:17.944,1034.626
13,4 Dec 2013 18:44:06.594,4 Dec 2013 19:01:10.911,1024.318
14,4 Dec 2013 20:24:29.972,4 Dec 2013 20:41:35.519,1025.547
15,4 Dec 2013 22:05:26.922,4 Dec 2013 22:22:32.978,1026.056
16,4 Dec 2013 23:48:38.951,5 Dec 2013 00:04:20.624,941.673
17,5 Dec 2013 01:35:25.133,5 Dec 2013 01:47:34.514,729.381
18,5 Dec 2013 03:18:55.554,5 Dec 2013 03:36:33.928,1058.374
19,5 Dec 2013 05:05:49.837,5 Dec 2013 05:12:58.644,428.808
20,5 Dec 2013 11:23:55.283,5 Dec 2013 11:39:22.949,927.666
21,5 Dec 2013 13:07:11.664,5 Dec 2013 13:22:16.424,904.760
22,5 Dec 2013 14:49:15.179,5 Dec 2013 15:03:11.105,835.927
23,5 Dec 2013 16:29:17.305,5 Dec 2013 16:43:13.869,836.564
24,5 Dec 2013 18:07:54.606,5 Dec 2013 18:23:37.893,943.287
25,5 Dec 2013 19:47:14.302,5 Dec 2013 20:04:18.240,1023.939
26,5 Dec 2013 21:30:41.191,5 Dec 2013 21:47:15.610,994.419
27,5 Dec 2013 23:20:28.528,5 Dec 2013 23:37:42.815,1034.287
28,6 Dec 2013 01:07:08.156,6 Dec 2013 01:24:34.248,1046.092
29,6 Dec 2013 17:35:54.318,6 Dec 2013 17:50:47.560,893.241
30,6 Dec 2013 19:21:55.440,6 Dec 2013 19:40:22.565,1107.125
31,6 Dec 2013 21:10:42.354,6 Dec 2013 21:29:09.905,1107.551
32,6 Dec 2013 22:58:53.137,6 Dec 2013 23:15:08.927,975.790
33,7 Dec 2013 15:34:11.212,7 Dec 2013 15:42:51.419,520.207
34,7 Dec 2013 17:15:49.461,7 Dec 2013 17:33:33.133,1063.672
35,7 Dec 2013 19:03:39.698,7 Dec 2013 19:22:04.416,1104.718
36,7 Dec 2013 20:52:25.639,7 Dec 2013 21:08:52.912,987.273

