Raw and processed data/Altitude Variations/us_greatcircle_3sat_800km/Aircraft-B747LAX_Narita-Transmitter-adsb_out6211-To-Satellite-800km_p1_1-Receiver-adsb_satrcvr2 Access.csv

"Access","Start Time (UTCG)","Stop Time (UTCG)","Duration (sec)"
1,3 Dec 2013 06:08:32.583,3 Dec 2013 06:22:25.989,833.406
2,3 Dec 2013 07:52:00.979,3 Dec 2013 08:09:48.902,1067.923
3,3 Dec 2013 09:44:11.664,3 Dec 2013 09:57:39.942,808.279
4,3 Dec 2013 11:30:13.581,3 Dec 2013 11:45:17.703,904.122
5,3 Dec 2013 13:10:55.436,3 Dec 2013 13:27:44.131,1008.695
6,3 Dec 2013 14:52:02.014,3 Dec 2013 15:09:14.212,1032.198
7,3 Dec 2013 16:33:39.526,3 Dec 2013 16:50:59.460,1039.935
8,3 Dec 2013 18:16:09.511,3 Dec 2013 18:33:38.098,1048.586
9,3 Dec 2013 19:59:44.883,3 Dec 2013 20:17:17.331,1052.448
10,4 Dec 2013 03:58:08.943,4 Dec 2013 04:12:24.417,855.473
11,4 Dec 2013 05:41:09.540,4 Dec 2013 05:57:53.527,1003.987
12,4 Dec 2013 07:26:31.091,4 Dec 2013 07:42:17.051,945.960
13,4 Dec 2013 09:09:21.281,4 Dec 2013 09:25:33.061,971.781
14,4 Dec 2013 10:51:26.402,4 Dec 2013 11:07:41.943,975.541
15,4 Dec 2013 12:33:31.946,4 Dec 2013 12:49:16.536,944.590
16,4 Dec 2013 14:16:40.995,4 Dec 2013 14:30:45.587,844.591
17,4 Dec 2013 16:02:11.654,4 Dec 2013 16:16:07.430,835.776
18,4 Dec 2013 17:47:56.775,4 Dec 2013 18:05:50.341,1073.566
19,5 Dec 2013 01:49:00.580,5 Dec 2013 01:57:38.703,518.123
20,5 Dec 2013 03:30:36.951,5 Dec 2013 03:43:11.022,754.071
21,5 Dec 2013 05:12:27.576,5 Dec 2013 05:26:25.613,838.037
22,5 Dec 2013 06:53:29.535,5 Dec 2013 07:08:26.038,896.504
23,5 Dec 2013 08:33:41.468,5 Dec 2013 08:49:49.218,967.750
24,5 Dec 2013 10:13:49.423,5 Dec 2013 10:30:52.304,1022.881
25,5 Dec 2013 11:59:22.424,5 Dec 2013 12:16:38.128,1035.705
26,5 Dec 2013 13:50:30.795,5 Dec 2013 14:07:27.396,1016.601
27,5 Dec 2013 15:38:29.045,5 Dec 2013 15:56:26.404,1077.359
28,6 Dec 2013 08:04:55.493,6 Dec 2013 08:20:27.568,932.075
29,6 Dec 2013 09:51:02.467,6 Dec 2013 10:09:15.694,1093.227
30,6 Dec 2013 11:41:43.023,6 Dec 2013 11:59:09.369,1046.347
31,6 Dec 2013 13:30:37.914,6 Dec 2013 13:48:54.546,1096.632
32,6 Dec 2013 15:22:48.224,6 Dec 2013 15:29:33.281,405.057
33,7 Dec 2013 05:58:10.322,7 Dec 2013 06:12:44.695,874.373
34,7 Dec 2013 07:42:40.154,7 Dec 2013 08:00:39.601,1079.447
35,7 Dec 2013 09:34:00.797,7 Dec 2013 09:49:44.327,943.529
36,7 Dec 2013 11:23:33.770,7 Dec 2013 11:40:56.772,1043.003
37,7 Dec 2013 13:04:56.692,7 Dec 2013 13:21:53.431,1016.739
38,7 Dec 2013 14:46:03.916,7 Dec 2013 15:02:02.294,958.377
39,7 Dec 2013 16:27:33.762,7 Dec 2013 16:42:32.241,898.479
40,7 Dec 2013 18:09:49.988,7 Dec 2013 18:23:57.142,847.154
41,7 Dec 2013 19:53:30.469,7 Dec 2013 20:06:03.398,752.929
42,8 Dec 2013 03:48:44.193,8 Dec 2013 04:03:40.383,896.190
43,8 Dec 2013 05:32:46.631,8 Dec 2013 05:49:45.945,1019.315
44,8 Dec 2013 07:23:29.027,8 Dec 2013 07:35:15.687,706.660
45,8 Dec 2013 09:05:08.060,8 Dec 2013 09:19:53.892,885.833
46,8 Dec 2013 10:46:39.677,8 Dec 2013 11:02:36.464,956.787
47,8 Dec 2013 12:28:22.519,8 Dec 2013 12:44:36.029,973.510
48,8 Dec 2013 14:10:50.532,8 Dec 2013 14:26:49.107,958.575
49,8 Dec 2013 15:54:33.433,8 Dec 2013 16:09:57.407,923.974
50,8 Dec 2013 17:39:09.711,8 Dec 2013 17:56:53.580,1063.868
51,9 Dec 2013 01:37:24.047,9 Dec 2013 01:52:13.172,889.125

"Access","Start Time (UTCG)","Stop Time (UTCG)","Duration (sec)"
1,3 Dec 2013 01:00:00.000,3 Dec 2013 01:02:09.092,129.092
2,3 Dec 2013 02:34:30.667,3 Dec 2013 02:52:24.386,1073.719
3,3 Dec 2013 10:33:27.734,3 Dec 2013 10:46:36.216,788.482
4,3 Dec 2013 12:15:47.385,3 Dec 2013 12:31:19.359,931.974
5,3 Dec 2013 13:58:23.963,3 Dec 2013 14:14:29.015,965.051
6,3 Dec 2013 15:40:05.842,3 Dec 2013 15:56:30.751,984.909
7,3 Dec 2013 17:20:57.900,3 Dec 2013 17:37:51.171,1013.271
8,3 Dec 2013 19:01:43.898,3 Dec 2013 19:18:49.032,1025.134
9,3 Dec 2013 20:45:34.207,3 Dec 2013 21:02:23.708,1009.501
10,3 Dec 2013 22:36:53.344,3 Dec 2013 22:53:27.927,994.582
11,4 Dec 2013 00:24:37.298,4 Dec 2013 00:42:36.546,1079.248
12,4 Dec 2013 16:50:36.250,4 Dec 2013 17:06:20.259,944.009
13,4 Dec 2013 18:37:00.705,4 Dec 2013 18:55:13.126,1092.421
14,4 Dec 2013 20:27:42.997,4 Dec 2013 20:45:10.622,1047.625
15,4 Dec 2013 22:16:32.624,4 Dec 2013 22:34:46.648,1094.024
16,5 Dec 2013 00:08:57.169,5 Dec 2013 00:14:39.493,342.323
17,5 Dec 2013 14:44:22.011,5 Dec 2013 14:58:42.098,860.087
18,5 Dec 2013 16:28:48.935,5 Dec 2013 16:46:55.730,1086.795
19,5 Dec 2013 18:19:51.330,5 Dec 2013 18:36:08.737,977.407
20,5 Dec 2013 20:09:20.148,5 Dec 2013 20:27:34.628,1094.480
21,5 Dec 2013 21:53:00.633,5 Dec 2013 22:09:22.688,982.055
22,5 Dec 2013 23:34:21.719,5 Dec 2013 23:48:42.816,861.097
23,6 Dec 2013 01:16:05.325,6 Dec 2013 01:28:17.882,732.557
24,6 Dec 2013 02:58:37.283,6 Dec 2013 03:08:42.931,605.648
25,6 Dec 2013 04:43:21.542,6 Dec 2013 04:49:03.731,342.189
26,6 Dec 2013 12:35:24.307,6 Dec 2013 12:50:01.408,877.101
27,6 Dec 2013 14:19:14.831,6 Dec 2013 14:36:33.523,1038.692
28,6 Dec 2013 16:12:51.882,6 Dec 2013 16:22:55.465,603.582
29,6 Dec 2013 17:53:39.392,6 Dec 2013 18:08:12.896,873.504
30,6 Dec 2013 19:34:51.493,6 Dec 2013 19:51:00.670,969.178
31,6 Dec 2013 21:16:19.937,6 Dec 2013 21:32:58.925,998.988
32,6 Dec 2013 22:58:27.690,6 Dec 2013 23:15:11.789,1004.099
33,7 Dec 2013 00:41:39.553,7 Dec 2013 00:58:20.468,1000.916
34,7 Dec 2013 02:25:54.201,7 Dec 2013 02:43:38.422,1064.221
35,7 Dec 2013 10:24:21.215,7 Dec 2013 10:39:02.151,880.935
36,7 Dec 2013 12:06:35.366,7 Dec 2013 12:24:10.284,1054.918
37,7 Dec 2013 13:50:18.826,7 Dec 2013 14:07:41.897,1043.071
38,7 Dec 2013 15:32:56.554,7 Dec 2013 15:50:09.476,1032.922
39,7 Dec 2013 17:14:48.157,7 Dec 2013 17:31:46.086,1017.929
40,7 Dec 2013 18:56:40.991,7 Dec 2013 19:12:54.065,973.074
41,7 Dec 2013 20:39:55.025,7 Dec 2013 20:53:37.627,822.602
42,7 Dec 2013 22:28:20.892,7 Dec 2013 22:43:59.464,938.571
43,8 Dec 2013 00:15:05.362,8 Dec 2013 00:32:54.572,1069.210
44,8 Dec 2013 13:23:15.995,8 Dec 2013 13:29:58.046,402.052
45,8 Dec 2013 15:00:37.803,8 Dec 2013 15:12:47.989,730.186
46,8 Dec 2013 16:38:58.203,8 Dec 2013 16:56:13.498,1035.295
47,8 Dec 2013 18:27:11.575,8 Dec 2013 18:44:58.965,1067.390
48,8 Dec 2013 20:18:02.877,8 Dec 2013 20:35:27.127,1044.250
49,8 Dec 2013 22:06:23.399,8 Dec 2013 22:24:18.548,1075.149

"Access","Start Time (UTCG)","Stop Time (UTCG)","Duration (sec)"
1,3 Dec 2013 02:10:54.396,3 Dec 2013 02:28:46.899,1072.502
2,3 Dec 2013 03:59:52.248,3 Dec 2013 04:17:30.252,1058.005
3,3 Dec 2013 05:50:14.540,3 Dec 2013 06:08:08.982,1074.442
4,3 Dec 2013 07:38:41.496,3 Dec 2013 07:55:43.341,1021.846
5,4 Dec 2013 00:04:05.082,4 Dec 2013 00:21:10.882,1025.800
6,4 Dec 2013 01:51:32.807,4 Dec 2013 02:09:10.189,1057.382
7,4 Dec 2013 03:42:32.490,4 Dec 2013 03:59:37.726,1025.236
8,4 Dec 2013 05:31:19.239,4 Dec 2013 05:49:31.898,1092.659
9,4 Dec 2013 07:15:10.929,4 Dec 2013 07:29:19.374,848.445
10,4 Dec 2013 08:57:20.809,4 Dec 2013 09:07:16.268,595.458
11,4 Dec 2013 10:40:54.774,4 Dec 2013 10:44:41.077,226.302
12,4 Dec 2013 21:55:13.717,4 Dec 2013 22:12:21.766,1028.048
13,4 Dec 2013 23:42:31.609,4 Dec 2013 23:58:36.395,964.787
14,5 Dec 2013 01:35:09.614,5 Dec 2013 01:46:47.772,698.158
15,5 Dec 2013 03:15:37.157,5 Dec 2013 03:31:08.142,930.985
16,5 Dec 2013 04:56:39.020,5 Dec 2013 05:13:22.765,1003.745
17,5 Dec 2013 06:38:03.974,5 Dec 2013 06:55:09.868,1025.895
18,5 Dec 2013 08:20:11.727,5 Dec 2013 08:37:28.089,1036.362
19,5 Dec 2013 10:03:21.530,5 Dec 2013 10:20:48.144,1046.614
20,5 Dec 2013 11:47:53.755,5 Dec 2013 12:04:21.604,987.849
21,5 Dec 2013 19:44:12.698,5 Dec 2013 20:01:23.525,1030.828
22,5 Dec 2013 21:28:59.390,5 Dec 2013 21:45:50.750,1011.360
23,5 Dec 2013 23:12:35.280,5 Dec 2013 23:29:24.924,1009.644
24,6 Dec 2013 00:55:05.130,6 Dec 2013 01:11:52.240,1007.110
25,6 Dec 2013 02:37:01.846,6 Dec 2013 02:53:30.258,988.412
26,6 Dec 2013 04:19:20.457,6 Dec 2013 04:34:44.911,924.454
27,6 Dec 2013 06:03:25.526,6 Dec 2013 06:15:42.136,736.610
28,6 Dec 2013 07:50:42.554,6 Dec 2013 08:07:31.139,1008.586
29,6 Dec 2013 09:37:10.441,6 Dec 2013 09:53:29.860,979.419
30,6 Dec 2013 19:20:41.861,6 Dec 2013 19:28:28.720,466.858
31,6 Dec 2013 21:01:02.648,6 Dec 2013 21:11:46.285,643.637
32,6 Dec 2013 22:40:44.596,6 Dec 2013 22:53:48.404,783.807
33,7 Dec 2013 00:19:53.503,7 Dec 2013 00:35:21.297,927.794
34,7 Dec 2013 02:00:04.335,7 Dec 2013 02:18:25.977,1101.643
35,7 Dec 2013 03:50:26.855,7 Dec 2013 04:07:22.776,1015.921
36,7 Dec 2013 05:40:29.907,7 Dec 2013 05:58:23.781,1073.874
37,7 Dec 2013 07:28:35.040,7 Dec 2013 07:44:51.317,976.277
38,7 Dec 2013 23:53:27.598,8 Dec 2013 00:11:04.904,1057.306
39,8 Dec 2013 01:41:50.033,8 Dec 2013 01:59:31.989,1061.956
40,8 Dec 2013 03:32:19.475,8 Dec 2013 03:50:08.555,1069.079
41,8 Dec 2013 05:21:01.463,8 Dec 2013 05:38:25.800,1044.337
42,8 Dec 2013 21:45:32.395,8 Dec 2013 22:02:54.787,1042.392
43,8 Dec 2013 23:33:19.087,8 Dec 2013 23:50:06.291,1007.204
44,9 Dec 2013 01:25:15.481,9 Dec 2013 01:40:40.300,924.820

