Raw and processed data/Altitude Variations/us_greatcircle_12sat_550km/Aircraft-B747LAX_Narita-Transmitter-adsb_out6211-To-Satellite-550km_p1_1-Receiver-adsb_satrcvr2 Access.csv

"Access","Start Time (UTCG)","Stop Time (UTCG)","Duration (sec)"
1,3 Dec 2013 05:55:55.359,3 Dec 2013 06:01:39.438,344.078
2,3 Dec 2013 07:30:31.539,3 Dec 2013 07:45:12.874,881.335
3,3 Dec 2013 09:15:37.922,3 Dec 2013 09:25:45.151,607.230
4,3 Dec 2013 10:59:25.899,3 Dec 2013 11:09:21.155,595.256
5,3 Dec 2013 12:34:19.982,3 Dec 2013 12:47:26.992,787.010
6,3 Dec 2013 14:09:59.411,3 Dec 2013 14:23:54.666,835.255
7,3 Dec 2013 15:46:04.039,3 Dec 2013 16:00:08.782,844.743
8,3 Dec 2013 17:22:45.373,3 Dec 2013 17:36:55.364,849.991
9,3 Dec 2013 19:00:18.701,3 Dec 2013 19:14:33.249,854.548
10,3 Dec 2013 20:39:06.275,3 Dec 2013 20:52:00.974,774.700
11,4 Dec 2013 04:10:55.551,4 Dec 2013 04:23:01.323,725.772
12,4 Dec 2013 05:49:44.440,4 Dec 2013 06:02:19.498,755.058
13,4 Dec 2013 07:29:06.679,4 Dec 2013 07:41:15.407,728.728
14,4 Dec 2013 09:06:26.463,4 Dec 2013 09:19:10.680,764.217
15,4 Dec 2013 10:43:10.242,4 Dec 2013 10:56:04.103,773.861
16,4 Dec 2013 12:19:55.135,4 Dec 2013 12:32:21.051,745.916
17,4 Dec 2013 13:57:34.486,4 Dec 2013 14:08:22.252,647.766
18,4 Dec 2013 15:37:35.313,4 Dec 2013 15:43:54.049,378.736
19,4 Dec 2013 17:16:43.440,4 Dec 2013 17:31:05.973,862.533
20,4 Dec 2013 18:58:33.645,4 Dec 2013 19:07:20.228,526.582
21,5 Dec 2013 02:30:53.292,5 Dec 2013 02:36:54.881,361.589
22,5 Dec 2013 04:06:56.996,5 Dec 2013 04:16:21.615,564.618
23,5 Dec 2013 05:43:08.044,5 Dec 2013 05:53:53.704,645.660
24,5 Dec 2013 07:18:35.380,5 Dec 2013 07:30:30.338,714.958
25,5 Dec 2013 08:53:27.555,5 Dec 2013 09:06:39.764,792.209
26,5 Dec 2013 10:28:32.316,5 Dec 2013 10:42:27.849,835.533
27,5 Dec 2013 12:09:54.198,5 Dec 2013 12:23:03.009,788.811
28,5 Dec 2013 13:54:34.821,5 Dec 2013 14:07:49.035,794.215
29,5 Dec 2013 15:36:19.026,5 Dec 2013 15:50:53.501,874.475
30,6 Dec 2013 08:48:33.675,6 Dec 2013 09:03:07.813,874.138
31,6 Dec 2013 10:31:37.248,6 Dec 2013 10:45:35.970,838.721
32,6 Dec 2013 12:15:45.627,6 Dec 2013 12:30:01.947,856.320
33,6 Dec 2013 13:58:17.657,6 Dec 2013 14:12:17.853,840.196
34,7 Dec 2013 05:35:08.073,7 Dec 2013 05:40:05.931,297.858
35,7 Dec 2013 07:09:49.382,7 Dec 2013 07:24:37.658,888.276
36,7 Dec 2013 08:54:04.970,7 Dec 2013 09:06:21.794,736.823
37,7 Dec 2013 10:38:30.169,7 Dec 2013 10:51:44.783,794.614
38,7 Dec 2013 12:17:28.715,7 Dec 2013 12:31:24.005,835.289
39,7 Dec 2013 13:53:17.835,7 Dec 2013 14:06:24.949,787.113
40,7 Dec 2013 15:29:28.570,7 Dec 2013 15:41:12.093,703.524
41,7 Dec 2013 17:06:06.306,7 Dec 2013 17:16:33.752,627.446
42,7 Dec 2013 18:43:40.169,7 Dec 2013 18:52:38.154,537.985
43,7 Dec 2013 20:23:19.382,7 Dec 2013 20:28:24.907,305.525
44,8 Dec 2013 03:51:03.144,8 Dec 2013 04:02:57.082,713.938
45,8 Dec 2013 05:29:51.887,8 Dec 2013 05:43:16.904,805.016
46,8 Dec 2013 07:16:16.025,8 Dec 2013 07:22:10.469,354.443
47,8 Dec 2013 08:51:38.267,8 Dec 2013 09:02:21.632,643.365
48,8 Dec 2013 10:27:37.008,8 Dec 2013 10:40:03.189,746.181
49,8 Dec 2013 12:03:52.256,8 Dec 2013 12:16:48.659,776.404
50,8 Dec 2013 13:40:43.247,8 Dec 2013 13:53:32.740,769.493
51,8 Dec 2013 15:18:34.644,8 Dec 2013 15:30:53.011,738.367
52,8 Dec 2013 16:57:11.249,8 Dec 2013 17:11:09.722,838.473
53,8 Dec 2013 18:38:06.945,8 Dec 2013 18:47:20.196,553.251
54,9 Dec 2013 02:07:02.567,9 Dec 2013 02:17:41.024,638.457

"Access","Start Time (UTCG)","Stop Time (UTCG)","Duration (sec)"
1,3 Dec 2013 07:05:32.921,3 Dec 2013 07:20:01.517,868.596
2,3 Dec 2013 08:48:42.417,3 Dec 2013 09:00:28.554,706.138
3,3 Dec 2013 10:35:30.128,3 Dec 2013 10:44:12.370,522.242
4,3 Dec 2013 12:10:29.974,3 Dec 2013 12:23:09.509,759.535
5,3 Dec 2013 13:46:02.242,3 Dec 2013 13:59:51.468,829.225
6,3 Dec 2013 15:22:00.125,3 Dec 2013 15:36:03.519,843.394
7,3 Dec 2013 16:58:30.632,3 Dec 2013 17:12:39.215,848.583
8,3 Dec 2013 18:35:50.027,3 Dec 2013 18:50:03.861,853.834
9,3 Dec 2013 20:14:06.211,3 Dec 2013 20:28:12.959,846.748
10,4 Dec 2013 03:48:38.612,4 Dec 2013 03:56:48.026,489.413
11,4 Dec 2013 05:23:54.705,4 Dec 2013 05:37:57.446,842.741
12,4 Dec 2013 07:04:37.382,4 Dec 2013 07:16:35.888,718.506
13,4 Dec 2013 08:42:11.143,4 Dec 2013 08:54:48.357,757.214
14,4 Dec 2013 10:19:00.850,4 Dec 2013 10:31:55.270,774.421
15,4 Dec 2013 11:55:41.249,4 Dec 2013 12:08:18.797,757.548
16,4 Dec 2013 13:33:00.763,4 Dec 2013 13:44:23.102,682.339
17,4 Dec 2013 15:12:13.264,4 Dec 2013 15:20:08.695,475.431
18,4 Dec 2013 16:51:52.772,4 Dec 2013 17:05:16.861,804.089
19,4 Dec 2013 18:32:20.196,4 Dec 2013 18:44:40.269,740.073
20,5 Dec 2013 02:07:22.069,5 Dec 2013 02:11:17.734,235.665
21,5 Dec 2013 03:42:51.214,5 Dec 2013 03:51:44.602,533.388
22,5 Dec 2013 05:19:08.659,5 Dec 2013 05:29:37.404,628.745
23,5 Dec 2013 06:54:47.975,5 Dec 2013 07:06:24.491,696.516
24,5 Dec 2013 08:29:45.684,5 Dec 2013 08:42:39.224,773.540
25,5 Dec 2013 10:04:41.411,5 Dec 2013 10:18:33.428,832.017
26,5 Dec 2013 11:43:28.738,5 Dec 2013 11:57:22.826,834.089
27,5 Dec 2013 13:28:47.806,5 Dec 2013 13:41:24.159,756.354
28,5 Dec 2013 15:10:54.431,5 Dec 2013 15:25:44.539,890.108
29,5 Dec 2013 16:54:51.950,5 Dec 2013 17:01:42.109,410.158
30,6 Dec 2013 08:23:49.394,6 Dec 2013 08:37:20.607,811.213
31,6 Dec 2013 10:05:26.858,6 Dec 2013 10:19:52.803,865.946
32,6 Dec 2013 11:49:58.488,6 Dec 2013 12:03:48.864,830.376
33,6 Dec 2013 13:32:33.892,6 Dec 2013 13:47:19.969,886.078
34,7 Dec 2013 06:44:48.540,7 Dec 2013 06:59:14.802,866.261
35,7 Dec 2013 08:27:35.698,7 Dec 2013 08:40:42.289,786.591
36,7 Dec 2013 10:12:47.471,7 Dec 2013 10:25:10.461,742.990
37,7 Dec 2013 11:53:36.584,7 Dec 2013 12:07:28.788,832.205
38,7 Dec 2013 13:29:18.208,7 Dec 2013 13:42:43.460,805.253
39,7 Dec 2013 15:05:23.985,7 Dec 2013 15:17:28.433,724.448
40,7 Dec 2013 16:41:53.131,7 Dec 2013 16:52:38.797,645.666
41,7 Dec 2013 18:19:08.979,7 Dec 2013 18:28:34.557,565.578
42,7 Dec 2013 19:58:03.139,7 Dec 2013 20:04:39.947,396.808
43,8 Dec 2013 03:28:45.393,8 Dec 2013 03:36:31.498,466.105
44,8 Dec 2013 05:04:08.554,8 Dec 2013 05:18:31.740,863.185
45,8 Dec 2013 06:52:14.909,8 Dec 2013 06:56:02.757,227.848
46,8 Dec 2013 08:27:41.417,8 Dec 2013 08:37:38.489,597.072
47,8 Dec 2013 10:03:36.074,8 Dec 2013 10:15:45.701,729.626
48,8 Dec 2013 11:39:46.123,8 Dec 2013 11:52:39.194,773.071
49,8 Dec 2013 13:16:25.641,8 Dec 2013 13:29:19.598,773.957
50,8 Dec 2013 14:54:00.380,8 Dec 2013 15:06:27.826,747.446
51,8 Dec 2013 16:32:40.214,8 Dec 2013 16:45:12.068,751.854
52,8 Dec 2013 18:12:06.918,8 Dec 2013 18:24:40.591,753.673
53,9 Dec 2013 01:43:28.263,9 Dec 2013 01:55:53.112,744.849

"Access","Start Time (UTCG)","Stop Time (UTCG)","Duration (sec)"
1,3 Dec 2013 06:41:12.658,3 Dec 2013 06:54:37.472,804.813
2,3 Dec 2013 08:22:08.761,3 Dec 2013 08:35:21.747,792.986
3,3 Dec 2013 10:09:22.372,3 Dec 2013 10:17:34.514,492.142
4,3 Dec 2013 11:46:43.138,3 Dec 2013 11:58:44.539,721.401
5,3 Dec 2013 13:22:06.506,3 Dec 2013 13:35:46.570,820.064
6,3 Dec 2013 14:57:58.198,3 Dec 2013 15:11:59.865,841.667
7,3 Dec 2013 16:34:19.008,3 Dec 2013 16:48:26.245,847.237
8,3 Dec 2013 18:11:24.950,3 Dec 2013 18:25:37.680,852.730
9,3 Dec 2013 19:49:26.807,3 Dec 2013 20:03:40.645,853.838
10,4 Dec 2013 04:58:50.532,4 Dec 2013 05:13:18.427,867.895
11,4 Dec 2013 06:40:03.358,4 Dec 2013 06:51:52.638,709.280
12,4 Dec 2013 08:17:53.063,4 Dec 2013 08:30:21.770,748.706
13,4 Dec 2013 09:54:50.796,4 Dec 2013 10:07:43.734,772.938
14,4 Dec 2013 11:31:29.698,4 Dec 2013 11:44:15.449,765.751
15,4 Dec 2013 13:08:33.801,4 Dec 2013 13:20:23.121,709.319
16,4 Dec 2013 14:47:08.509,4 Dec 2013 14:56:16.202,547.692
17,4 Dec 2013 16:27:07.430,4 Dec 2013 16:38:48.947,701.517
18,4 Dec 2013 18:06:50.910,4 Dec 2013 18:20:51.513,840.603
19,5 Dec 2013 03:18:46.688,5 Dec 2013 03:26:59.677,492.989
20,5 Dec 2013 04:55:06.631,5 Dec 2013 05:05:17.099,610.468
21,5 Dec 2013 06:30:57.741,5 Dec 2013 06:42:16.721,678.980
22,5 Dec 2013 08:06:03.579,5 Dec 2013 08:18:37.522,753.943
23,5 Dec 2013 09:40:54.382,5 Dec 2013 09:54:37.060,822.679
24,5 Dec 2013 11:17:15.999,5 Dec 2013 11:31:49.321,873.322
25,5 Dec 2013 13:02:43.269,5 Dec 2013 13:15:03.344,740.075
26,5 Dec 2013 14:45:32.628,5 Dec 2013 15:00:07.300,874.671
27,5 Dec 2013 16:27:50.893,5 Dec 2013 16:39:18.182,687.289
28,6 Dec 2013 07:59:48.143,6 Dec 2013 08:11:08.423,680.280
29,6 Dec 2013 09:39:28.413,6 Dec 2013 09:54:17.119,888.706
30,6 Dec 2013 11:23:59.991,6 Dec 2013 11:37:35.693,815.702
31,6 Dec 2013 13:06:58.333,6 Dec 2013 13:21:54.187,895.854
32,6 Dec 2013 14:51:09.701,6 Dec 2013 14:59:58.094,528.393
33,7 Dec 2013 06:20:24.075,7 Dec 2013 06:33:39.848,795.774
34,7 Dec 2013 08:01:17.931,7 Dec 2013 08:15:15.761,837.830
35,7 Dec 2013 09:46:49.347,7 Dec 2013 09:58:38.202,708.855
36,7 Dec 2013 11:29:33.813,7 Dec 2013 11:43:27.074,833.261
37,7 Dec 2013 13:05:19.957,7 Dec 2013 13:19:00.183,820.226
38,7 Dec 2013 14:41:20.738,7 Dec 2013 14:53:46.539,745.801
39,7 Dec 2013 16:17:42.772,7 Dec 2013 16:28:46.934,664.161
40,7 Dec 2013 17:54:43.524,7 Dec 2013 18:04:32.098,588.574
41,7 Dec 2013 19:33:04.935,7 Dec 2013 19:40:43.307,458.372
42,8 Dec 2013 04:39:04.278,8 Dec 2013 04:53:36.843,872.566
43,8 Dec 2013 06:23:34.142,8 Dec 2013 06:32:16.047,521.905
44,8 Dec 2013 08:03:46.983,8 Dec 2013 08:12:44.726,537.744
45,8 Dec 2013 09:39:35.931,8 Dec 2013 09:51:23.762,707.831
46,8 Dec 2013 11:15:41.773,8 Dec 2013 11:28:29.010,767.236
47,8 Dec 2013 12:52:11.559,8 Dec 2013 13:05:08.241,776.682
48,8 Dec 2013 14:29:30.412,8 Dec 2013 14:42:06.371,755.958
49,8 Dec 2013 16:07:55.044,8 Dec 2013 16:19:56.465,721.421
50,8 Dec 2013 17:46:49.129,8 Dec 2013 18:00:54.589,845.460
51,9 Dec 2013 01:21:05.627,9 Dec 2013 01:29:53.929,528.303

"Access","Start Time (UTCG)","Stop Time (UTCG)","Duration (sec)"
1,3 Dec 2013 06:17:42.829,3 Dec 2013 06:28:47.400,664.571
2,3 Dec 2013 07:56:04.182,3 Dec 2013 08:10:18.085,853.903
3,3 Dec 2013 09:42:39.387,3 Dec 2013 09:51:22.469,523.082
4,3 Dec 2013 11:23:00.909,3 Dec 2013 11:34:09.644,668.735
5,3 Dec 2013 12:58:12.333,3 Dec 2013 13:11:38.842,806.509
6,3 Dec 2013 14:33:58.028,3 Dec 2013 14:47:57.172,839.144
7,3 Dec 2013 16:10:10.239,3 Dec 2013 16:24:16.217,845.978
8,3 Dec 2013 17:47:03.423,3 Dec 2013 18:01:14.831,851.408
9,3 Dec 2013 19:24:50.964,3 Dec 2013 19:39:05.617,854.652
10,3 Dec 2013 21:04:50.726,3 Dec 2013 21:14:46.848,596.122
11,4 Dec 2013 04:34:28.873,4 Dec 2013 04:48:22.186,833.313
12,4 Dec 2013 06:15:24.153,4 Dec 2013 06:27:06.283,702.129
13,4 Dec 2013 07:53:31.740,4 Dec 2013 08:05:50.775,739.035
14,4 Dec 2013 09:30:39.514,4 Dec 2013 09:43:29.015,769.501
15,4 Dec 2013 11:07:19.624,4 Dec 2013 11:20:10.680,771.056
16,4 Dec 2013 12:44:12.307,4 Dec 2013 12:56:22.445,730.137
17,4 Dec 2013 14:22:16.451,4 Dec 2013 14:32:20.209,603.758
18,4 Dec 2013 16:02:27.016,4 Dec 2013 16:11:39.488,552.471
19,4 Dec 2013 17:41:41.478,4 Dec 2013 17:56:17.880,876.402
20,5 Dec 2013 02:54:45.849,5 Dec 2013 03:02:04.572,438.723
21,5 Dec 2013 04:31:02.487,5 Dec 2013 04:40:52.109,589.622
22,5 Dec 2013 06:07:04.447,5 Dec 2013 06:18:06.626,662.179
23,5 Dec 2013 07:42:20.389,5 Dec 2013 07:54:34.607,734.219
24,5 Dec 2013 09:17:10.120,5 Dec 2013 09:30:39.091,808.971
25,5 Dec 2013 10:52:28.313,5 Dec 2013 11:06:19.817,831.505
26,5 Dec 2013 12:36:22.741,5 Dec 2013 12:48:55.455,752.714
27,5 Dec 2013 14:20:07.937,5 Dec 2013 14:34:06.604,838.667
28,5 Dec 2013 16:01:53.580,5 Dec 2013 16:15:28.519,814.939
29,6 Dec 2013 07:37:13.697,6 Dec 2013 07:43:45.726,392.028
30,6 Dec 2013 09:13:48.805,6 Dec 2013 09:28:44.049,895.244
31,6 Dec 2013 10:57:51.093,6 Dec 2013 11:11:30.096,819.003
32,6 Dec 2013 12:41:24.069,6 Dec 2013 12:56:06.219,882.149
33,6 Dec 2013 14:24:20.626,6 Dec 2013 14:36:38.822,738.196
34,7 Dec 2013 05:56:49.827,7 Dec 2013 06:07:37.724,647.898
35,7 Dec 2013 07:35:20.617,7 Dec 2013 07:49:56.086,875.469
36,7 Dec 2013 09:20:33.429,7 Dec 2013 09:32:19.920,706.491
37,7 Dec 2013 11:04:03.477,7 Dec 2013 11:18:09.507,846.030
38,7 Dec 2013 12:41:23.341,7 Dec 2013 12:55:14.074,830.732
39,7 Dec 2013 14:17:18.696,7 Dec 2013 14:30:05.664,766.968
40,7 Dec 2013 15:53:34.727,7 Dec 2013 16:04:58.117,683.390
41,7 Dec 2013 17:30:22.884,7 Dec 2013 17:40:31.636,608.751
42,7 Dec 2013 19:08:18.253,7 Dec 2013 19:16:41.678,503.424
43,7 Dec 2013 20:49:23.782,7 Dec 2013 20:51:27.895,124.113
44,8 Dec 2013 04:14:39.862,8 Dec 2013 04:28:28.440,828.577
45,8 Dec 2013 05:56:17.655,8 Dec 2013 06:07:52.996,695.341
46,8 Dec 2013 07:39:56.914,8 Dec 2013 07:47:37.322,460.408
47,8 Dec 2013 09:15:36.592,8 Dec 2013 09:26:56.190,679.599
48,8 Dec 2013 10:51:38.834,8 Dec 2013 11:04:17.302,758.468
49,8 Dec 2013 12:28:00.581,8 Dec 2013 12:40:58.124,777.543
50,8 Dec 2013 14:05:04.747,8 Dec 2013 14:17:48.165,763.417
51,8 Dec 2013 15:43:12.996,8 Dec 2013 15:55:22.407,729.411
52,8 Dec 2013 17:21:52.671,8 Dec 2013 17:36:22.855,870.184

"Access","Start Time (UTCG)","Stop Time (UTCG)","Duration (sec)"
1,3 Dec 2013 01:24:38.154,3 Dec 2013 01:36:22.041,703.886
2,3 Dec 2013 03:04:04.961,3 Dec 2013 03:17:48.021,823.060
3,3 Dec 2013 10:37:06.463,3 Dec 2013 10:46:34.397,567.934
4,3 Dec 2013 12:14:00.282,3 Dec 2013 12:25:57.175,716.894
5,3 Dec 2013 13:51:09.912,3 Dec 2013 14:03:49.722,759.809
6,3 Dec 2013 15:27:35.931,3 Dec 2013 15:40:40.561,784.630
7,3 Dec 2013 17:03:16.981,3 Dec 2013 17:16:52.942,815.960
8,3 Dec 2013 18:38:45.366,3 Dec 2013 18:52:42.715,837.349
9,3 Dec 2013 20:15:03.972,3 Dec 2013 20:28:29.096,805.124
10,3 Dec 2013 22:00:17.412,3 Dec 2013 22:12:03.378,705.966
11,3 Dec 2013 23:42:36.862,3 Dec 2013 23:57:14.010,877.149
12,4 Dec 2013 01:24:59.758,4 Dec 2013 01:35:32.223,632.465
13,4 Dec 2013 16:55:46.653,4 Dec 2013 17:08:15.931,749.278
14,4 Dec 2013 18:36:29.032,4 Dec 2013 18:51:09.395,880.362
15,4 Dec 2013 20:21:05.411,4 Dec 2013 20:34:45.378,819.967
16,4 Dec 2013 22:03:49.276,4 Dec 2013 22:18:43.994,894.718
17,4 Dec 2013 23:49:04.337,4 Dec 2013 23:54:55.884,351.547
18,5 Dec 2013 15:16:59.429,5 Dec 2013 15:30:40.610,821.181
19,5 Dec 2013 16:58:29.832,5 Dec 2013 17:12:25.812,835.980
20,5 Dec 2013 18:43:39.390,5 Dec 2013 18:56:15.578,756.189
21,5 Dec 2013 20:26:16.508,5 Dec 2013 20:41:11.230,894.723
22,5 Dec 2013 22:03:37.485,5 Dec 2013 22:16:24.419,766.934
23,5 Dec 2013 23:40:02.956,5 Dec 2013 23:50:16.780,613.824
24,6 Dec 2013 01:17:01.418,6 Dec 2013 01:24:11.068,429.649
25,6 Dec 2013 02:55:32.443,6 Dec 2013 02:57:57.178,144.735
26,6 Dec 2013 13:36:13.808,6 Dec 2013 13:50:50.855,877.047
27,6 Dec 2013 15:21:02.500,6 Dec 2013 15:30:05.351,542.850
28,6 Dec 2013 17:02:42.421,6 Dec 2013 17:11:16.092,513.671
29,6 Dec 2013 18:38:00.776,6 Dec 2013 18:50:02.703,721.927
30,6 Dec 2013 20:13:53.683,6 Dec 2013 20:27:04.139,790.455
31,6 Dec 2013 21:50:12.543,6 Dec 2013 22:03:42.177,809.634
32,6 Dec 2013 23:27:15.220,6 Dec 2013 23:40:44.768,809.548
33,7 Dec 2013 01:05:15.263,7 Dec 2013 01:18:41.312,806.048
34,7 Dec 2013 02:44:10.882,7 Dec 2013 02:57:59.127,828.245
35,7 Dec 2013 10:17:32.879,7 Dec 2013 10:27:47.513,614.634
36,7 Dec 2013 11:53:40.794,7 Dec 2013 12:07:54.784,853.991
37,7 Dec 2013 13:32:03.371,7 Dec 2013 13:46:07.573,844.202
38,7 Dec 2013 15:09:28.181,7 Dec 2013 15:23:26.001,837.820
39,7 Dec 2013 16:46:09.214,7 Dec 2013 16:59:55.659,826.445
40,7 Dec 2013 18:22:41.666,7 Dec 2013 18:35:53.168,791.501
41,7 Dec 2013 20:00:08.011,7 Dec 2013 20:11:23.300,675.289
42,7 Dec 2013 21:41:15.237,7 Dec 2013 21:49:59.088,523.851
43,7 Dec 2013 23:22:14.332,7 Dec 2013 23:36:31.056,856.724
44,8 Dec 2013 01:03:49.390,8 Dec 2013 01:14:39.552,650.162
45,8 Dec 2013 15:00:13.281,8 Dec 2013 15:09:11.065,537.784
46,8 Dec 2013 16:33:17.641,8 Dec 2013 16:46:48.438,810.797
47,8 Dec 2013 18:15:14.885,8 Dec 2013 18:29:30.754,855.869
48,8 Dec 2013 20:00:05.647,8 Dec 2013 20:13:29.522,803.875
49,8 Dec 2013 21:42:25.225,8 Dec 2013 21:57:15.371,890.146
50,8 Dec 2013 23:28:47.609,8 Dec 2013 23:31:00.227,132.619

"Access","Start Time (UTCG)","Stop Time (UTCG)","Duration (sec)"
1,3 Dec 2013 01:00:14.689,3 Dec 2013 01:09:08.985,534.296
2,3 Dec 2013 02:38:55.492,3 Dec 2013 02:53:26.732,871.241
3,3 Dec 2013 11:49:39.219,3 Dec 2013 12:01:16.552,697.332
4,3 Dec 2013 13:26:55.845,3 Dec 2013 13:39:28.276,752.430
5,3 Dec 2013 15:03:34.144,3 Dec 2013 15:16:32.352,778.208
6,3 Dec 2013 16:39:24.742,3 Dec 2013 16:52:52.309,807.568
7,3 Dec 2013 18:14:51.495,3 Dec 2013 18:28:47.224,835.729
8,3 Dec 2013 19:50:49.969,3 Dec 2013 20:04:17.762,807.793
9,3 Dec 2013 21:34:00.490,3 Dec 2013 21:45:46.011,705.521
10,3 Dec 2013 23:17:17.644,3 Dec 2013 23:31:18.382,840.738
11,4 Dec 2013 00:58:54.664,4 Dec 2013 01:12:02.868,788.204
12,4 Dec 2013 16:32:20.251,4 Dec 2013 16:41:32.567,552.316
13,4 Dec 2013 18:10:39.473,4 Dec 2013 18:25:34.953,895.481
14,4 Dec 2013 19:55:00.638,4 Dec 2013 20:08:35.827,815.189
15,4 Dec 2013 21:38:16.233,4 Dec 2013 21:53:06.165,889.932
16,4 Dec 2013 23:21:29.543,4 Dec 2013 23:32:35.036,665.493
17,5 Dec 2013 14:53:05.623,5 Dec 2013 15:04:45.571,699.948
18,5 Dec 2013 16:32:27.706,5 Dec 2013 16:47:00.530,872.824
19,5 Dec 2013 18:17:32.798,5 Dec 2013 18:29:54.210,741.411
20,5 Dec 2013 20:00:43.498,5 Dec 2013 20:15:19.705,876.207
21,5 Dec 2013 21:39:35.892,5 Dec 2013 21:52:50.599,794.707
22,5 Dec 2013 23:15:53.887,5 Dec 2013 23:26:50.315,656.428
23,6 Dec 2013 00:52:42.615,6 Dec 2013 01:00:40.402,477.786
24,6 Dec 2013 02:30:32.364,6 Dec 2013 02:34:43.179,250.815
25,6 Dec 2013 13:11:37.229,6 Dec 2013 13:25:42.271,845.042
26,6 Dec 2013 14:53:50.668,6 Dec 2013 15:05:24.505,693.837
27,6 Dec 2013 16:39:10.493,6 Dec 2013 16:45:57.000,406.507
28,6 Dec 2013 18:14:06.286,6 Dec 2013 18:25:35.464,689.178
29,6 Dec 2013 19:49:53.437,6 Dec 2013 20:02:53.378,779.941
30,6 Dec 2013 21:26:04.547,6 Dec 2013 21:39:31.858,807.311
31,6 Dec 2013 23:02:54.383,6 Dec 2013 23:16:24.961,810.578
32,7 Dec 2013 00:40:39.975,7 Dec 2013 00:54:06.058,806.083
33,7 Dec 2013 02:19:13.363,7 Dec 2013 02:33:40.729,867.365
34,7 Dec 2013 09:57:44.663,7 Dec 2013 09:59:27.528,102.866
35,7 Dec 2013 11:28:53.824,7 Dec 2013 11:43:14.075,860.251
36,7 Dec 2013 13:07:33.220,7 Dec 2013 13:21:39.266,846.046
37,7 Dec 2013 14:45:11.978,7 Dec 2013 14:59:11.504,839.526
38,7 Dec 2013 16:22:01.524,7 Dec 2013 16:35:51.912,830.388
39,7 Dec 2013 17:58:31.516,7 Dec 2013 18:11:56.078,804.563
40,7 Dec 2013 19:35:36.421,7 Dec 2013 19:47:34.437,718.016
41,7 Dec 2013 21:15:06.463,7 Dec 2013 21:23:13.216,486.753
42,7 Dec 2013 22:57:10.994,7 Dec 2013 23:10:28.593,797.599
43,8 Dec 2013 00:37:56.610,8 Dec 2013 00:51:14.431,797.822
44,8 Dec 2013 14:37:09.905,8 Dec 2013 14:44:47.196,457.291
45,8 Dec 2013 16:09:53.783,8 Dec 2013 16:21:53.626,719.843
46,8 Dec 2013 17:49:10.112,8 Dec 2013 18:03:54.692,884.580
47,8 Dec 2013 19:34:04.822,8 Dec 2013 19:47:13.838,789.016
48,8 Dec 2013 21:16:57.253,8 Dec 2013 21:31:46.580,889.327
49,8 Dec 2013 23:00:03.804,8 Dec 2013 23:10:12.861,609.057

"Access","Start Time (UTCG)","Stop Time (UTCG)","Duration (sec)"
1,3 Dec 2013 02:14:00.003,3 Dec 2013 02:28:25.280,865.277
2,3 Dec 2013 03:56:11.409,3 Dec 2013 04:03:28.930,437.522
3,3 Dec 2013 11:25:18.243,3 Dec 2013 11:36:29.882,671.639
4,3 Dec 2013 13:02:39.233,3 Dec 2013 13:15:02.608,743.374
5,3 Dec 2013 14:39:29.218,3 Dec 2013 14:52:21.397,772.179
6,3 Dec 2013 16:15:30.855,3 Dec 2013 16:28:50.213,799.358
7,3 Dec 2013 17:50:59.480,3 Dec 2013 18:04:50.361,830.880
8,3 Dec 2013 19:26:43.280,3 Dec 2013 19:40:28.480,825.200
9,3 Dec 2013 21:07:28.692,3 Dec 2013 21:19:46.459,737.767
10,3 Dec 2013 22:51:52.031,3 Dec 2013 23:05:01.704,789.672
11,4 Dec 2013 00:33:18.536,4 Dec 2013 00:47:41.527,862.991
12,4 Dec 2013 17:45:11.661,4 Dec 2013 17:59:59.681,888.020
13,4 Dec 2013 19:28:47.804,4 Dec 2013 19:42:36.396,828.592
14,4 Dec 2013 21:12:40.988,4 Dec 2013 21:27:09.005,868.018
15,4 Dec 2013 22:55:14.430,4 Dec 2013 23:08:38.274,803.844
16,5 Dec 2013 14:30:31.416,5 Dec 2013 14:37:52.880,441.464
17,5 Dec 2013 16:06:48.561,5 Dec 2013 16:21:38.550,889.989
18,5 Dec 2013 17:51:12.915,5 Dec 2013 18:03:48.306,755.391
19,5 Dec 2013 19:35:10.199,5 Dec 2013 19:49:08.554,838.355
20,5 Dec 2013 21:15:36.593,5 Dec 2013 21:29:12.623,816.029
21,5 Dec 2013 22:51:46.607,5 Dec 2013 23:03:23.351,696.745
22,6 Dec 2013 00:28:27.006,6 Dec 2013 00:37:11.271,524.265
23,6 Dec 2013 02:05:53.558,6 Dec 2013 02:11:14.664,321.106
24,6 Dec 2013 12:47:44.716,6 Dec 2013 13:00:14.733,750.017
25,6 Dec 2013 14:27:20.148,6 Dec 2013 14:40:39.036,798.889
26,6 Dec 2013 16:16:09.676,6 Dec 2013 16:19:56.513,226.837
27,6 Dec 2013 17:50:14.112,6 Dec 2013 18:01:00.339,646.227
28,6 Dec 2013 19:25:54.547,6 Dec 2013 19:38:40.309,765.762
29,6 Dec 2013 21:01:58.965,6 Dec 2013 21:15:22.553,803.589
30,6 Dec 2013 22:38:37.147,6 Dec 2013 22:52:08.220,811.073
31,7 Dec 2013 00:16:08.073,7 Dec 2013 00:29:35.022,806.949
32,7 Dec 2013 01:54:33.397,7 Dec 2013 02:08:39.695,846.299
33,7 Dec 2013 03:35:54.188,7 Dec 2013 03:43:36.330,462.141
34,7 Dec 2013 11:04:16.471,7 Dec 2013 11:18:30.643,854.172
35,7 Dec 2013 12:42:59.329,7 Dec 2013 12:57:07.585,848.256
36,7 Dec 2013 14:20:52.610,7 Dec 2013 14:34:53.677,841.067
37,7 Dec 2013 15:57:52.503,7 Dec 2013 16:11:45.922,833.418
38,7 Dec 2013 17:34:23.372,7 Dec 2013 17:47:57.533,814.161
39,7 Dec 2013 19:11:12.704,7 Dec 2013 19:23:42.663,749.959
40,7 Dec 2013 20:49:46.285,7 Dec 2013 20:58:45.370,539.085
41,7 Dec 2013 22:32:04.995,7 Dec 2013 22:43:56.584,711.589
42,8 Dec 2013 00:12:31.437,8 Dec 2013 00:26:57.325,865.888
43,8 Dec 2013 14:14:13.562,8 Dec 2013 14:20:15.080,361.518
44,8 Dec 2013 15:46:35.330,8 Dec 2013 15:57:43.381,668.052
45,8 Dec 2013 17:23:23.905,8 Dec 2013 17:38:19.972,896.067
46,8 Dec 2013 19:07:51.326,8 Dec 2013 19:21:07.394,796.068
47,8 Dec 2013 20:51:28.107,8 Dec 2013 21:05:54.867,866.760
48,8 Dec 2013 22:33:44.871,8 Dec 2013 22:46:40.756,775.884

"Access","Start Time (UTCG)","Stop Time (UTCG)","Duration (sec)"
1,3 Dec 2013 01:49:14.497,3 Dec 2013 02:02:44.778,810.281
2,3 Dec 2013 03:29:38.522,3 Dec 2013 03:41:20.539,702.017
3,3 Dec 2013 11:00:58.512,3 Dec 2013 11:11:36.280,637.768
4,3 Dec 2013 12:38:20.525,3 Dec 2013 12:50:32.375,731.850
5,3 Dec 2013 14:15:21.106,3 Dec 2013 14:28:07.313,766.207
6,3 Dec 2013 15:51:34.728,3 Dec 2013 16:04:46.396,791.668
7,3 Dec 2013 17:27:08.288,3 Dec 2013 17:40:52.266,823.978
8,3 Dec 2013 19:02:42.209,3 Dec 2013 19:16:36.603,834.394
9,3 Dec 2013 20:40:53.749,3 Dec 2013 20:54:02.812,789.062
10,3 Dec 2013 22:26:13.897,3 Dec 2013 22:38:32.634,738.737
11,4 Dec 2013 00:07:55.243,4 Dec 2013 00:22:43.155,887.912
12,4 Dec 2013 01:52:49.905,4 Dec 2013 01:56:53.635,243.730
13,4 Dec 2013 17:20:11.207,4 Dec 2013 17:34:16.834,845.627
14,4 Dec 2013 19:02:34.356,4 Dec 2013 19:16:48.399,854.043
15,4 Dec 2013 20:46:58.592,4 Dec 2013 21:00:59.274,840.682
16,4 Dec 2013 22:29:25.990,4 Dec 2013 22:43:56.895,870.905
17,5 Dec 2013 15:41:37.311,5 Dec 2013 15:56:14.237,876.926
18,5 Dec 2013 17:24:48.164,5 Dec 2013 17:37:59.942,791.778
19,5 Dec 2013 19:09:30.711,5 Dec 2013 19:22:44.048,793.337
20,5 Dec 2013 20:51:39.945,5 Dec 2013 21:05:29.511,829.566
21,5 Dec 2013 22:27:41.113,5 Dec 2013 22:39:55.027,733.915
22,6 Dec 2013 00:04:13.921,6 Dec 2013 00:13:43.541,569.620
23,6 Dec 2013 01:41:24.458,6 Dec 2013 01:47:42.898,378.441
24,6 Dec 2013 12:24:57.844,6 Dec 2013 12:34:06.148,548.304
25,6 Dec 2013 14:01:28.399,6 Dec 2013 14:15:48.486,860.087
26,6 Dec 2013 15:48:59.178,6 Dec 2013 15:54:38.282,339.103
27,6 Dec 2013 17:26:25.398,6 Dec 2013 17:36:15.031,589.633
28,6 Dec 2013 19:01:56.961,6 Dec 2013 19:14:23.840,746.879
29,6 Dec 2013 20:37:55.444,6 Dec 2013 20:51:13.570,798.126
30,6 Dec 2013 22:14:23.296,6 Dec 2013 22:27:54.115,810.818
31,6 Dec 2013 23:51:39.783,7 Dec 2013 00:05:08.011,808.228
32,7 Dec 2013 01:29:53.620,7 Dec 2013 01:43:20.866,807.246
33,7 Dec 2013 03:09:34.037,7 Dec 2013 03:21:28.235,714.199
34,7 Dec 2013 10:40:24.710,7 Dec 2013 10:53:27.859,783.149
35,7 Dec 2013 12:18:21.781,7 Dec 2013 12:32:32.689,850.907
36,7 Dec 2013 13:56:29.802,7 Dec 2013 14:10:32.385,842.583
37,7 Dec 2013 15:33:41.554,7 Dec 2013 15:47:37.384,835.830
38,7 Dec 2013 17:10:16.237,7 Dec 2013 17:23:57.447,821.210
39,7 Dec 2013 18:46:54.961,7 Dec 2013 18:59:48.764,773.803
40,7 Dec 2013 20:24:50.007,7 Dec 2013 20:35:07.857,617.850
41,7 Dec 2013 22:06:49.940,7 Dec 2013 22:17:01.697,611.758
42,7 Dec 2013 23:47:19.598,8 Dec 2013 00:02:01.331,881.733
43,8 Dec 2013 01:31:10.961,8 Dec 2013 01:36:11.336,300.375
44,8 Dec 2013 13:51:31.354,8 Dec 2013 13:55:26.694,235.340
45,8 Dec 2013 15:23:21.880,8 Dec 2013 15:33:29.393,607.512
46,8 Dec 2013 16:58:01.295,8 Dec 2013 17:12:40.536,879.241
47,8 Dec 2013 18:41:31.569,8 Dec 2013 18:55:13.544,821.975
48,8 Dec 2013 20:25:52.474,8 Dec 2013 20:39:46.416,833.941
49,8 Dec 2013 22:07:58.157,8 Dec 2013 22:22:15.890,857.733

"Access","Start Time (UTCG)","Stop Time (UTCG)","Duration (sec)"
1,3 Dec 2013 01:05:28.896,3 Dec 2013 01:11:12.863,343.967
2,3 Dec 2013 02:41:54.553,3 Dec 2013 02:56:49.932,895.379
3,3 Dec 2013 04:26:00.408,3 Dec 2013 04:39:36.929,816.521
4,3 Dec 2013 06:09:36.840,3 Dec 2013 06:24:13.566,876.726
5,3 Dec 2013 07:52:14.171,3 Dec 2013 08:04:53.112,758.941
6,3 Dec 2013 23:26:14.810,3 Dec 2013 23:35:19.060,544.250
7,4 Dec 2013 01:03:47.852,4 Dec 2013 01:18:37.922,890.070
8,4 Dec 2013 02:48:18.514,4 Dec 2013 03:01:11.629,773.116
9,4 Dec 2013 04:31:53.192,4 Dec 2013 04:46:21.330,868.138
10,4 Dec 2013 06:13:58.275,4 Dec 2013 06:26:35.037,756.762
11,4 Dec 2013 07:50:53.618,4 Dec 2013 07:59:30.455,516.836
12,4 Dec 2013 21:44:28.118,4 Dec 2013 21:57:27.957,779.839
13,4 Dec 2013 23:24:45.851,4 Dec 2013 23:38:00.723,794.871
14,5 Dec 2013 01:13:06.203,5 Dec 2013 01:18:48.232,342.029
15,5 Dec 2013 02:48:34.982,5 Dec 2013 02:59:50.701,675.719
16,5 Dec 2013 04:24:03.460,5 Dec 2013 04:37:16.894,793.434
17,5 Dec 2013 05:59:59.781,5 Dec 2013 06:13:48.151,828.370
18,5 Dec 2013 07:36:27.717,5 Dec 2013 07:50:27.608,839.891
19,5 Dec 2013 09:13:43.757,5 Dec 2013 09:27:50.586,846.828
20,5 Dec 2013 10:51:54.237,5 Dec 2013 11:06:10.643,856.406
21,5 Dec 2013 12:34:05.894,5 Dec 2013 12:39:30.210,324.316
22,5 Dec 2013 20:01:32.726,5 Dec 2013 20:15:55.755,863.029
23,5 Dec 2013 21:41:14.818,5 Dec 2013 21:54:33.679,798.861
24,5 Dec 2013 23:19:12.544,5 Dec 2013 23:32:36.999,804.456
25,6 Dec 2013 00:56:15.894,6 Dec 2013 01:09:42.264,806.370
26,6 Dec 2013 02:32:54.504,6 Dec 2013 02:46:02.838,788.335
27,6 Dec 2013 04:09:55.752,6 Dec 2013 04:21:57.386,721.634
28,6 Dec 2013 05:48:39.249,6 Dec 2013 05:57:19.701,520.453
29,6 Dec 2013 07:29:36.149,6 Dec 2013 07:41:20.462,704.314
30,6 Dec 2013 09:09:39.845,6 Dec 2013 09:23:54.500,854.655
31,6 Dec 2013 20:01:02.706,6 Dec 2013 20:05:05.324,242.618
32,6 Dec 2013 21:35:23.704,6 Dec 2013 21:43:06.628,462.924
33,6 Dec 2013 23:09:28.975,6 Dec 2013 23:19:58.630,629.654
34,7 Dec 2013 00:43:28.029,7 Dec 2013 00:56:20.784,772.755
35,7 Dec 2013 02:20:15.308,7 Dec 2013 02:35:06.062,890.754
36,7 Dec 2013 04:05:14.677,7 Dec 2013 04:18:04.833,770.156
37,7 Dec 2013 05:48:29.768,7 Dec 2013 06:03:01.031,871.262
38,7 Dec 2013 07:30:46.223,7 Dec 2013 07:43:00.937,734.714
39,7 Dec 2013 23:03:59.772,7 Dec 2013 23:13:53.784,594.012
40,8 Dec 2013 00:42:30.925,8 Dec 2013 00:57:24.034,893.110
41,8 Dec 2013 02:26:54.510,8 Dec 2013 02:40:25.020,810.510
42,8 Dec 2013 04:10:08.542,8 Dec 2013 04:24:59.964,891.422
43,8 Dec 2013 05:53:41.623,8 Dec 2013 06:04:29.418,647.795
44,8 Dec 2013 21:23:49.822,8 Dec 2013 21:36:36.384,766.562
45,8 Dec 2013 23:04:04.481,8 Dec 2013 23:18:04.330,839.849
46,9 Dec 2013 00:49:59.834,9 Dec 2013 01:00:51.156,651.322

"Access","Start Time (UTCG)","Stop Time (UTCG)","Duration (sec)"
1,3 Dec 2013 02:16:38.933,3 Dec 2013 02:31:10.501,871.568
2,3 Dec 2013 03:59:45.002,3 Dec 2013 04:13:43.756,838.755
3,3 Dec 2013 05:43:58.943,3 Dec 2013 05:58:08.104,849.161
4,3 Dec 2013 07:26:19.811,3 Dec 2013 07:40:29.653,849.842
5,4 Dec 2013 00:38:26.638,4 Dec 2013 00:53:11.896,885.258
6,4 Dec 2013 02:21:58.519,4 Dec 2013 02:35:15.788,797.269
7,4 Dec 2013 04:06:15.944,4 Dec 2013 04:20:07.195,831.251
8,4 Dec 2013 05:48:48.638,4 Dec 2013 06:03:05.026,856.387
9,4 Dec 2013 07:26:33.015,4 Dec 2013 07:36:24.979,591.964
10,4 Dec 2013 09:05:07.988,4 Dec 2013 09:07:39.254,151.266
11,4 Dec 2013 21:21:18.057,4 Dec 2013 21:31:30.368,612.311
12,4 Dec 2013 22:58:47.022,4 Dec 2013 23:13:03.939,856.918
13,5 Dec 2013 00:45:48.489,5 Dec 2013 00:53:06.373,437.884
14,5 Dec 2013 02:24:51.192,5 Dec 2013 02:35:08.353,617.161
15,5 Dec 2013 04:00:08.170,5 Dec 2013 04:13:03.783,775.613
16,5 Dec 2013 05:35:58.311,5 Dec 2013 05:49:41.483,823.172
17,5 Dec 2013 07:12:16.833,5 Dec 2013 07:26:14.655,837.822
18,5 Dec 2013 08:49:19.577,5 Dec 2013 09:03:24.655,845.078
19,5 Dec 2013 10:27:16.832,5 Dec 2013 10:41:30.375,853.542
20,5 Dec 2013 12:07:07.834,5 Dec 2013 12:18:11.176,663.342
21,5 Dec 2013 19:37:25.339,5 Dec 2013 19:50:57.178,811.839
22,5 Dec 2013 21:16:34.793,5 Dec 2013 21:29:54.537,799.744
23,5 Dec 2013 22:54:49.072,5 Dec 2013 23:08:11.649,802.577
24,6 Dec 2013 00:32:03.776,6 Dec 2013 00:45:30.960,807.184
25,6 Dec 2013 02:08:44.962,6 Dec 2013 02:22:00.702,795.739
26,6 Dec 2013 03:45:34.798,6 Dec 2013 03:58:00.724,745.926
27,6 Dec 2013 05:23:41.719,6 Dec 2013 05:33:35.153,593.433
28,6 Dec 2013 07:04:38.078,6 Dec 2013 07:14:17.469,579.391
29,6 Dec 2013 08:44:29.562,6 Dec 2013 08:59:09.324,879.761
30,6 Dec 2013 19:37:51.214,6 Dec 2013 19:39:54.474,123.260
31,6 Dec 2013 21:11:47.862,6 Dec 2013 21:18:46.328,418.466
32,6 Dec 2013 22:45:59.960,6 Dec 2013 22:55:48.883,588.923
33,7 Dec 2013 00:19:56.044,7 Dec 2013 00:32:17.802,741.758
34,7 Dec 2013 01:54:37.113,7 Dec 2013 02:09:30.329,893.216
35,7 Dec 2013 03:38:53.443,7 Dec 2013 03:52:04.631,791.188
36,7 Dec 2013 05:22:59.586,7 Dec 2013 05:36:56.059,836.473
37,7 Dec 2013 07:04:54.860,7 Dec 2013 07:18:52.945,838.086
38,8 Dec 2013 00:17:01.723,8 Dec 2013 00:31:51.981,890.258
39,8 Dec 2013 02:00:42.093,8 Dec 2013 02:14:24.044,821.952
40,8 Dec 2013 03:44:32.622,8 Dec 2013 03:59:02.334,869.712
41,8 Dec 2013 05:27:17.410,8 Dec 2013 05:40:33.268,795.858
42,8 Dec 2013 21:00:37.659,8 Dec 2013 21:10:24.769,587.110
43,8 Dec 2013 22:38:12.805,8 Dec 2013 22:52:50.159,877.355
44,9 Dec 2013 00:23:32.132,9 Dec 2013 00:34:39.808,667.676
45,9 Dec 2013 02:07:28.068,9 Dec 2013 02:17:41.024,612.956

"Access","Start Time (UTCG)","Stop Time (UTCG)","Duration (sec)"
1,3 Dec 2013 01:51:54.106,3 Dec 2013 02:05:18.141,804.036
2,3 Dec 2013 03:33:33.597,3 Dec 2013 03:48:00.989,867.392
3,3 Dec 2013 05:18:11.158,3 Dec 2013 05:31:54.475,823.317
4,3 Dec 2013 07:00:41.413,3 Dec 2013 07:15:30.220,888.807
5,4 Dec 2013 00:13:35.965,4 Dec 2013 00:27:39.080,843.115
6,4 Dec 2013 01:55:40.463,4 Dec 2013 02:09:34.502,834.039
7,4 Dec 2013 03:40:29.823,4 Dec 2013 03:53:44.382,794.558
8,4 Dec 2013 05:23:03.196,4 Dec 2013 05:37:55.178,891.982
9,4 Dec 2013 07:02:17.406,4 Dec 2013 07:13:13.909,656.502
10,4 Dec 2013 08:39:59.514,4 Dec 2013 08:45:18.273,318.759
11,4 Dec 2013 21:00:54.092,4 Dec 2013 21:03:11.798,137.706
12,4 Dec 2013 22:33:22.978,4 Dec 2013 22:48:02.822,879.844
13,5 Dec 2013 00:18:23.309,5 Dec 2013 00:27:55.779,572.470
14,5 Dec 2013 02:01:14.820,5 Dec 2013 02:10:11.337,536.517
15,5 Dec 2013 03:36:14.629,5 Dec 2013 03:48:46.142,751.513
16,5 Dec 2013 05:11:58.524,5 Dec 2013 05:25:34.666,816.142
17,5 Dec 2013 06:48:08.750,5 Dec 2013 07:02:04.105,835.355
18,5 Dec 2013 08:24:58.898,5 Dec 2013 08:39:02.318,843.420
19,5 Dec 2013 10:02:42.507,5 Dec 2013 10:16:53.493,850.986
20,5 Dec 2013 11:41:36.321,5 Dec 2013 11:55:01.589,805.268
21,5 Dec 2013 19:14:10.881,5 Dec 2013 19:25:28.657,677.777
22,5 Dec 2013 20:51:50.404,5 Dec 2013 21:05:12.782,802.377
23,5 Dec 2013 22:30:21.802,5 Dec 2013 22:43:42.535,800.733
24,6 Dec 2013 00:07:49.490,6 Dec 2013 00:21:16.492,807.002
25,6 Dec 2013 01:44:35.844,6 Dec 2013 01:57:56.781,800.937
26,6 Dec 2013 03:21:18.398,6 Dec 2013 03:34:02.722,764.324
27,6 Dec 2013 04:58:57.262,6 Dec 2013 05:09:45.387,648.125
28,6 Dec 2013 06:39:29.881,6 Dec 2013 06:46:51.891,442.010
29,6 Dec 2013 08:19:28.220,6 Dec 2013 08:33:47.821,859.602
30,6 Dec 2013 10:01:07.619,6 Dec 2013 10:11:02.476,594.857
31,6 Dec 2013 20:48:10.891,6 Dec 2013 20:54:21.143,370.252
32,6 Dec 2013 22:22:29.702,6 Dec 2013 22:31:37.225,547.522
33,6 Dec 2013 23:56:26.160,7 Dec 2013 00:08:13.060,706.900
34,7 Dec 2013 01:30:42.122,7 Dec 2013 01:44:20.684,818.562
35,7 Dec 2013 03:12:30.149,7 Dec 2013 03:26:17.613,827.465
36,7 Dec 2013 04:57:19.369,7 Dec 2013 05:10:38.450,799.081
37,7 Dec 2013 06:39:21.338,7 Dec 2013 06:54:04.894,883.556
38,7 Dec 2013 23:51:59.830,8 Dec 2013 00:06:14.265,854.436
39,8 Dec 2013 01:34:28.233,8 Dec 2013 01:48:35.325,847.092
40,8 Dec 2013 03:18:50.540,8 Dec 2013 03:32:51.706,841.166
41,8 Dec 2013 05:01:23.551,8 Dec 2013 05:15:51.458,867.907
42,8 Dec 2013 22:12:50.068,8 Dec 2013 22:27:35.072,885.004
43,8 Dec 2013 23:56:54.092,9 Dec 2013 00:08:52.317,718.225
44,9 Dec 2013 01:41:54.309,9 Dec 2013 01:54:07.594,733.284

"Access","Start Time (UTCG)","Stop Time (UTCG)","Duration (sec)"
1,3 Dec 2013 01:27:53.129,3 Dec 2013 01:38:57.400,664.271
2,3 Dec 2013 03:07:34.580,3 Dec 2013 03:22:24.743,890.163
3,3 Dec 2013 04:52:11.146,3 Dec 2013 05:05:41.601,810.455
4,3 Dec 2013 06:35:09.236,3 Dec 2013 06:50:02.978,893.742
5,3 Dec 2013 08:18:46.298,3 Dec 2013 08:28:20.395,574.096
6,3 Dec 2013 23:49:24.378,4 Dec 2013 00:01:49.476,745.098
7,4 Dec 2013 01:29:34.332,4 Dec 2013 01:44:03.625,869.293
8,4 Dec 2013 03:14:30.767,4 Dec 2013 03:27:22.768,772.001
9,4 Dec 2013 04:57:26.997,4 Dec 2013 05:12:19.093,892.096
10,4 Dec 2013 06:38:05.959,4 Dec 2013 06:49:57.347,711.388
11,4 Dec 2013 08:15:20.993,4 Dec 2013 08:22:29.378,428.385
12,4 Dec 2013 22:08:35.030,4 Dec 2013 22:22:53.189,858.159
13,4 Dec 2013 23:51:18.904,5 Dec 2013 00:02:56.601,697.697
14,5 Dec 2013 01:37:52.732,5 Dec 2013 01:44:51.598,418.866
15,5 Dec 2013 03:12:23.291,5 Dec 2013 03:24:22.428,719.138
16,5 Dec 2013 04:48:00.265,5 Dec 2013 05:01:26.809,806.545
17,5 Dec 2013 06:24:03.164,5 Dec 2013 06:37:55.468,832.304
18,5 Dec 2013 08:00:41.661,5 Dec 2013 08:14:43.387,841.726
19,5 Dec 2013 09:38:11.431,5 Dec 2013 09:52:20.195,848.764
20,5 Dec 2013 11:16:36.189,5 Dec 2013 11:30:57.662,861.473
21,5 Dec 2013 18:52:36.939,5 Dec 2013 18:58:43.512,366.573
22,5 Dec 2013 20:26:23.936,5 Dec 2013 20:40:34.456,850.520
23,5 Dec 2013 22:05:50.457,5 Dec 2013 22:19:09.797,799.340
24,5 Dec 2013 23:43:32.553,5 Dec 2013 23:56:58.575,806.022
25,6 Dec 2013 01:20:26.378,6 Dec 2013 01:33:50.753,804.375
26,6 Dec 2013 02:57:05.323,6 Dec 2013 03:10:03.452,778.129
27,6 Dec 2013 04:34:22.669,6 Dec 2013 04:45:52.455,689.785
28,6 Dec 2013 06:13:55.656,6 Dec 2013 06:20:54.422,418.766
29,6 Dec 2013 07:54:31.534,6 Dec 2013 08:07:51.386,799.852
30,6 Dec 2013 09:35:06.488,6 Dec 2013 09:47:57.981,771.492
31,6 Dec 2013 20:24:34.485,6 Dec 2013 20:29:48.934,314.449
32,6 Dec 2013 21:58:57.699,6 Dec 2013 22:07:23.323,505.624
33,6 Dec 2013 23:32:57.430,6 Dec 2013 23:44:06.663,669.233
34,7 Dec 2013 01:07:03.068,7 Dec 2013 01:20:21.838,798.770
35,7 Dec 2013 02:46:14.801,7 Dec 2013 03:00:39.888,865.087
36,7 Dec 2013 04:31:24.774,7 Dec 2013 04:44:18.076,773.302
37,7 Dec 2013 06:13:55.169,7 Dec 2013 06:28:45.804,890.634
38,7 Dec 2013 07:57:21.787,7 Dec 2013 08:06:03.538,521.750
39,7 Dec 2013 23:27:33.035,7 Dec 2013 23:40:21.555,768.520
40,8 Dec 2013 01:08:21.845,8 Dec 2013 01:22:56.744,874.900
41,8 Dec 2013 02:52:58.302,8 Dec 2013 03:06:36.358,818.056
42,8 Dec 2013 04:35:43.464,8 Dec 2013 04:50:38.134,894.670
43,8 Dec 2013 06:21:42.886,8 Dec 2013 06:26:35.689,292.804
44,8 Dec 2013 21:48:00.127,8 Dec 2013 22:02:13.328,853.202
45,8 Dec 2013 23:30:20.749,8 Dec 2013 23:43:22.955,782.205
46,9 Dec 2013 01:16:07.143,9 Dec 2013 01:27:24.332,677.190

