Raw and processed data/Inclination variations/us_greatcircle_12sat_50deg/Aircraft-B747LAX_Narita-Transmitter-adsb_out6211-To-Satellite-700km_50deg_p1_1-Receiver-adsb_satrcvr2 Access.csv

"Access","Start Time (UTCG)","Stop Time (UTCG)","Duration (sec)"
1,3 Dec 2013 06:05:44.760,3 Dec 2013 06:09:38.536,233.776
2,3 Dec 2013 07:43:00.708,3 Dec 2013 07:59:52.533,1011.825
3,3 Dec 2013 09:30:17.587,3 Dec 2013 09:46:24.067,966.480
4,3 Dec 2013 11:15:47.759,3 Dec 2013 11:31:19.695,931.936
5,3 Dec 2013 12:55:13.422,3 Dec 2013 13:11:11.704,958.281
6,3 Dec 2013 14:34:40.388,3 Dec 2013 14:50:15.147,934.759
7,3 Dec 2013 16:14:15.810,3 Dec 2013 16:29:33.562,917.752
8,3 Dec 2013 17:54:24.905,3 Dec 2013 18:09:44.489,919.584
9,3 Dec 2013 19:35:33.783,3 Dec 2013 19:50:55.405,921.622
10,4 Dec 2013 05:02:26.074,4 Dec 2013 05:18:51.740,985.666
11,4 Dec 2013 06:46:01.690,4 Dec 2013 07:01:58.597,956.908
12,4 Dec 2013 08:27:05.189,4 Dec 2013 08:43:09.556,964.367
13,4 Dec 2013 10:07:15.058,4 Dec 2013 10:23:17.947,962.889
14,4 Dec 2013 11:46:56.570,4 Dec 2013 12:02:56.534,959.965
15,4 Dec 2013 13:26:51.819,4 Dec 2013 13:42:39.509,947.690
16,4 Dec 2013 15:07:54.026,4 Dec 2013 15:22:48.122,894.095
17,4 Dec 2013 16:52:19.662,4 Dec 2013 17:09:16.834,1017.172
18,4 Dec 2013 18:39:35.838,4 Dec 2013 18:49:44.082,608.244
19,5 Dec 2013 02:26:36.821,5 Dec 2013 02:30:21.902,225.082
20,5 Dec 2013 04:05:43.794,5 Dec 2013 04:13:46.018,482.223
21,5 Dec 2013 05:45:01.463,5 Dec 2013 05:54:47.939,586.476
22,5 Dec 2013 07:23:19.642,5 Dec 2013 07:34:59.922,700.280
23,5 Dec 2013 09:00:57.464,5 Dec 2013 09:14:55.932,838.468
24,5 Dec 2013 10:38:57.312,5 Dec 2013 10:54:40.189,942.877
25,5 Dec 2013 12:24:13.132,5 Dec 2013 12:41:16.573,1023.440
26,5 Dec 2013 14:11:55.086,5 Dec 2013 14:29:07.137,1032.051
27,5 Dec 2013 15:59:21.386,5 Dec 2013 16:12:44.964,803.578
28,6 Dec 2013 08:01:57.834,6 Dec 2013 08:13:46.952,709.118
29,6 Dec 2013 09:45:13.536,6 Dec 2013 10:02:22.566,1029.030
30,6 Dec 2013 11:32:39.970,6 Dec 2013 11:49:57.997,1038.028
31,6 Dec 2013 13:20:11.805,6 Dec 2013 13:36:19.079,967.274
32,7 Dec 2013 07:06:51.722,7 Dec 2013 07:23:23.034,991.313
33,7 Dec 2013 08:53:24.230,7 Dec 2013 09:10:23.825,1019.595
34,7 Dec 2013 10:41:21.810,7 Dec 2013 10:58:35.266,1033.455
35,7 Dec 2013 12:24:49.381,7 Dec 2013 12:39:49.460,900.079
36,7 Dec 2013 14:04:51.073,7 Dec 2013 14:17:09.451,738.378
37,7 Dec 2013 15:45:13.295,7 Dec 2013 15:54:14.785,541.490
38,7 Dec 2013 17:26:12.029,7 Dec 2013 17:31:56.013,343.984
39,8 Dec 2013 04:27:33.283,8 Dec 2013 04:43:23.289,950.006
40,8 Dec 2013 06:13:00.281,8 Dec 2013 06:28:52.578,952.297
41,8 Dec 2013 07:56:58.127,8 Dec 2013 08:12:04.156,906.029
42,8 Dec 2013 09:36:51.446,8 Dec 2013 09:52:44.626,953.180
43,8 Dec 2013 11:16:27.682,8 Dec 2013 11:32:28.999,961.318
44,8 Dec 2013 12:56:07.795,8 Dec 2013 13:12:12.674,964.879
45,8 Dec 2013 14:36:24.959,8 Dec 2013 14:52:34.762,969.803
46,8 Dec 2013 16:17:45.911,8 Dec 2013 16:33:56.193,970.282
47,8 Dec 2013 18:03:02.020,8 Dec 2013 18:15:32.220,750.199
48,9 Dec 2013 01:47:14.747,9 Dec 2013 02:01:40.483,865.736

"Access","Start Time (UTCG)","Stop Time (UTCG)","Duration (sec)"
1,3 Dec 2013 07:17:10.203,3 Dec 2013 07:33:16.861,966.658
2,3 Dec 2013 09:03:04.738,3 Dec 2013 09:19:34.939,990.201
3,3 Dec 2013 10:50:57.829,3 Dec 2013 11:06:05.128,907.299
4,3 Dec 2013 12:30:21.690,3 Dec 2013 12:46:21.102,959.412
5,3 Dec 2013 14:09:48.502,3 Dec 2013 14:25:30.028,941.526
6,3 Dec 2013 15:49:19.981,3 Dec 2013 16:04:39.942,919.961
7,3 Dec 2013 17:29:17.844,3 Dec 2013 17:44:35.983,918.139
8,3 Dec 2013 19:10:10.061,3 Dec 2013 19:25:32.526,922.465
9,3 Dec 2013 20:53:56.366,3 Dec 2013 21:04:58.376,662.010
10,4 Dec 2013 04:37:17.319,4 Dec 2013 04:52:26.025,908.706
11,4 Dec 2013 06:20:35.514,4 Dec 2013 06:36:29.499,953.985
12,4 Dec 2013 08:01:55.057,4 Dec 2013 08:17:58.546,963.489
13,4 Dec 2013 09:42:16.482,4 Dec 2013 09:58:20.141,963.658
14,4 Dec 2013 11:22:01.853,4 Dec 2013 11:38:02.622,960.769
15,4 Dec 2013 13:01:48.835,4 Dec 2013 13:17:41.976,953.142
16,4 Dec 2013 14:42:29.425,4 Dec 2013 14:57:42.783,913.358
17,4 Dec 2013 16:25:58.444,4 Dec 2013 16:42:38.566,1000.122
18,4 Dec 2013 18:12:02.316,4 Dec 2013 18:25:56.911,834.594
19,5 Dec 2013 03:40:49.552,5 Dec 2013 03:48:15.024,445.472
20,5 Dec 2013 05:20:16.919,5 Dec 2013 05:29:39.265,562.346
21,5 Dec 2013 06:58:50.687,5 Dec 2013 07:09:59.137,668.450
22,5 Dec 2013 08:36:33.706,5 Dec 2013 08:49:57.827,804.120
23,5 Dec 2013 10:14:21.448,5 Dec 2013 10:29:45.711,924.264
24,5 Dec 2013 11:57:09.329,5 Dec 2013 12:14:19.542,1030.212
25,5 Dec 2013 13:45:08.612,5 Dec 2013 14:02:17.999,1029.387
26,5 Dec 2013 15:32:12.080,5 Dec 2013 15:47:38.292,926.212
27,6 Dec 2013 07:38:40.260,6 Dec 2013 07:44:37.402,357.142
28,6 Dec 2013 09:18:45.069,6 Dec 2013 09:35:31.496,1006.427
29,6 Dec 2013 11:05:44.171,6 Dec 2013 11:23:01.859,1037.687
30,6 Dec 2013 12:53:16.053,6 Dec 2013 13:10:06.903,1010.850
31,6 Dec 2013 14:43:41.917,6 Dec 2013 14:50:56.268,434.351
32,7 Dec 2013 06:41:09.173,7 Dec 2013 06:56:33.275,924.102
33,7 Dec 2013 08:26:24.879,7 Dec 2013 08:43:32.031,1027.152
34,7 Dec 2013 10:14:27.913,7 Dec 2013 10:31:33.452,1025.539
35,7 Dec 2013 11:59:52.623,7 Dec 2013 12:15:19.478,926.855
36,7 Dec 2013 13:39:48.717,7 Dec 2013 13:52:53.424,784.707
37,7 Dec 2013 15:20:05.574,7 Dec 2013 15:29:56.323,590.749
38,7 Dec 2013 17:00:51.119,7 Dec 2013 17:07:26.981,395.863
39,7 Dec 2013 18:43:58.751,7 Dec 2013 18:44:26.748,27.997
40,8 Dec 2013 04:02:40.904,8 Dec 2013 04:16:35.497,834.593
41,8 Dec 2013 05:45:55.741,8 Dec 2013 06:02:30.878,995.137
42,8 Dec 2013 07:31:55.887,8 Dec 2013 07:46:38.483,882.596
43,8 Dec 2013 09:11:55.212,8 Dec 2013 09:27:42.085,946.873
44,8 Dec 2013 10:51:34.347,8 Dec 2013 11:07:34.947,960.600
45,8 Dec 2013 12:31:10.681,8 Dec 2013 12:47:14.329,963.648
46,8 Dec 2013 14:11:15.374,8 Dec 2013 14:27:24.252,968.878
47,8 Dec 2013 15:52:19.177,8 Dec 2013 16:08:29.628,970.451
48,8 Dec 2013 17:36:05.093,8 Dec 2013 17:51:14.519,909.427
49,9 Dec 2013 01:23:34.508,9 Dec 2013 01:34:28.614,654.106

"Access","Start Time (UTCG)","Stop Time (UTCG)","Duration (sec)"
1,3 Dec 2013 06:51:56.306,3 Dec 2013 07:06:27.614,871.308
2,3 Dec 2013 08:36:03.303,3 Dec 2013 08:52:56.103,1012.800
3,3 Dec 2013 10:24:46.025,3 Dec 2013 10:40:38.954,952.930
4,3 Dec 2013 12:05:30.034,3 Dec 2013 12:21:26.366,956.332
5,3 Dec 2013 13:44:56.799,3 Dec 2013 14:00:45.089,948.290
6,3 Dec 2013 15:24:25.762,3 Dec 2013 15:39:49.375,923.613
7,3 Dec 2013 17:04:14.265,3 Dec 2013 17:19:31.374,917.109
8,3 Dec 2013 18:44:50.778,3 Dec 2013 19:00:12.918,922.139
9,3 Dec 2013 20:26:45.645,3 Dec 2013 20:41:14.546,868.901
10,4 Dec 2013 04:13:01.946,4 Dec 2013 04:25:29.733,747.786
11,4 Dec 2013 05:54:39.662,4 Dec 2013 06:10:56.154,976.492
12,4 Dec 2013 07:36:41.255,4 Dec 2013 07:52:43.156,961.900
13,4 Dec 2013 09:17:15.575,4 Dec 2013 09:33:19.859,964.284
14,4 Dec 2013 10:57:07.153,4 Dec 2013 11:13:08.585,961.432
15,4 Dec 2013 12:36:49.215,4 Dec 2013 12:52:45.835,956.620
16,4 Dec 2013 14:17:11.324,4 Dec 2013 14:32:39.706,928.382
17,4 Dec 2013 15:59:33.290,4 Dec 2013 16:15:35.654,962.365
18,4 Dec 2013 17:45:13.100,4 Dec 2013 18:01:02.694,949.593
19,5 Dec 2013 03:15:56.698,5 Dec 2013 03:22:34.277,397.578
20,5 Dec 2013 04:55:28.646,5 Dec 2013 05:04:26.768,538.121
21,5 Dec 2013 06:34:18.276,5 Dec 2013 06:44:57.209,638.933
22,5 Dec 2013 08:12:10.194,5 Dec 2013 08:24:59.135,768.941
23,5 Dec 2013 09:49:50.235,5 Dec 2013 10:04:50.025,899.791
24,5 Dec 2013 11:30:10.751,5 Dec 2013 11:47:26.145,1035.394
25,5 Dec 2013 13:18:15.968,5 Dec 2013 13:35:19.439,1023.472
26,5 Dec 2013 15:05:21.389,5 Dec 2013 15:21:53.411,992.022
27,6 Dec 2013 08:52:36.732,6 Dec 2013 09:08:35.369,958.638
28,6 Dec 2013 10:38:48.311,6 Dec 2013 10:56:06.336,1038.025
29,6 Dec 2013 12:26:24.775,6 Dec 2013 12:43:35.657,1030.881
30,6 Dec 2013 14:14:54.136,6 Dec 2013 14:27:12.137,738.000
31,7 Dec 2013 06:16:05.917,7 Dec 2013 06:29:24.306,798.390
32,7 Dec 2013 07:59:35.697,7 Dec 2013 08:16:46.788,1031.091
33,7 Dec 2013 09:47:29.779,7 Dec 2013 10:04:27.514,1017.735
34,7 Dec 2013 11:34:57.747,7 Dec 2013 11:50:43.556,945.809
35,7 Dec 2013 13:14:47.584,7 Dec 2013 13:28:35.443,827.859
36,7 Dec 2013 14:54:59.427,7 Dec 2013 15:05:39.874,640.447
37,7 Dec 2013 16:35:35.279,7 Dec 2013 16:43:00.008,444.730
38,7 Dec 2013 18:17:22.705,7 Dec 2013 18:20:48.675,205.970
39,8 Dec 2013 03:38:56.369,8 Dec 2013 03:49:02.716,606.348
40,8 Dec 2013 05:19:17.195,8 Dec 2013 05:36:12.528,1015.333
41,8 Dec 2013 07:06:51.847,8 Dec 2013 07:21:05.000,853.153
42,8 Dec 2013 08:46:57.672,8 Dec 2013 09:02:35.106,937.434
43,8 Dec 2013 10:26:40.757,8 Dec 2013 10:42:40.127,959.370
44,8 Dec 2013 12:06:15.333,8 Dec 2013 12:22:17.991,962.657
45,8 Dec 2013 13:46:09.617,8 Dec 2013 14:02:17.262,967.646
46,8 Dec 2013 15:26:56.736,8 Dec 2013 15:43:07.280,970.544
47,8 Dec 2013 17:09:37.913,8 Dec 2013 17:26:04.083,986.170

"Access","Start Time (UTCG)","Stop Time (UTCG)","Duration (sec)"
1,3 Dec 2013 06:27:36.603,3 Dec 2013 06:39:06.122,689.519
2,3 Dec 2013 08:09:20.144,3 Dec 2013 08:26:23.599,1023.456
3,3 Dec 2013 09:57:33.793,3 Dec 2013 10:13:25.701,951.908
4,3 Dec 2013 11:40:38.634,3 Dec 2013 11:56:26.317,947.683
5,3 Dec 2013 13:20:05.128,3 Dec 2013 13:35:59.336,954.209
6,3 Dec 2013 14:59:32.701,3 Dec 2013 15:15:01.332,928.631
7,3 Dec 2013 16:39:13.745,3 Dec 2013 16:54:30.619,916.874
8,3 Dec 2013 18:19:35.791,3 Dec 2013 18:34:56.840,921.049
9,3 Dec 2013 20:01:02.020,3 Dec 2013 20:16:21.230,919.210
10,4 Dec 2013 03:50:38.795,4 Dec 2013 03:57:04.118,385.323
11,4 Dec 2013 05:28:14.884,4 Dec 2013 05:45:01.712,1006.828
12,4 Dec 2013 07:11:23.541,4 Dec 2013 07:27:23.191,959.650
13,4 Dec 2013 08:52:11.926,4 Dec 2013 09:08:16.512,964.586
14,4 Dec 2013 10:32:11.767,4 Dec 2013 10:48:13.886,962.120
15,4 Dec 2013 12:11:52.078,4 Dec 2013 12:27:50.807,958.728
16,4 Dec 2013 13:51:59.042,4 Dec 2013 14:07:38.682,939.640
17,4 Dec 2013 15:33:25.669,4 Dec 2013 15:48:13.895,888.225
18,4 Dec 2013 17:18:42.371,4 Dec 2013 17:35:26.405,1004.033
19,5 Dec 2013 02:51:09.087,5 Dec 2013 02:56:39.921,330.834
20,5 Dec 2013 04:30:37.284,5 Dec 2013 04:39:09.421,512.136
21,5 Dec 2013 06:09:41.940,5 Dec 2013 06:19:53.676,611.737
22,5 Dec 2013 07:47:45.850,5 Dec 2013 07:59:59.856,734.006
23,5 Dec 2013 09:25:22.606,5 Dec 2013 09:39:53.378,870.772
24,5 Dec 2013 11:03:38.885,5 Dec 2013 11:20:33.973,1015.088
25,5 Dec 2013 12:51:16.772,5 Dec 2013 13:08:17.372,1020.600
26,5 Dec 2013 14:38:37.905,5 Dec 2013 14:55:40.855,1022.949
27,5 Dec 2013 16:27:18.279,5 Dec 2013 16:36:45.448,567.169
28,6 Dec 2013 08:26:56.077,6 Dec 2013 08:41:26.016,869.938
29,6 Dec 2013 10:11:56.413,6 Dec 2013 10:29:13.342,1036.929
30,6 Dec 2013 11:59:33.488,6 Dec 2013 12:16:50.913,1037.425
31,6 Dec 2013 13:47:19.593,6 Dec 2013 14:02:05.130,885.537
32,7 Dec 2013 05:52:11.530,7 Dec 2013 06:01:25.569,554.039
33,7 Dec 2013 07:33:02.734,7 Dec 2013 07:50:05.299,1022.565
34,7 Dec 2013 09:20:27.580,7 Dec 2013 09:37:22.921,1015.341
35,7 Dec 2013 11:08:13.687,7 Dec 2013 11:25:27.512,1033.826
36,7 Dec 2013 12:49:47.763,7 Dec 2013 13:04:14.463,866.700
37,7 Dec 2013 14:29:54.634,7 Dec 2013 14:41:24.579,689.946
38,7 Dec 2013 16:10:22.994,7 Dec 2013 16:18:35.903,492.909
39,7 Dec 2013 17:51:40.626,7 Dec 2013 17:56:25.037,284.411
40,8 Dec 2013 04:53:08.275,8 Dec 2013 05:09:52.148,1003.873
41,8 Dec 2013 06:40:25.391,8 Dec 2013 06:55:23.066,897.675
42,8 Dec 2013 08:21:58.682,8 Dec 2013 08:37:22.753,924.071
43,8 Dec 2013 10:01:46.554,8 Dec 2013 10:17:43.655,957.101
44,8 Dec 2013 11:41:21.180,8 Dec 2013 11:57:23.104,961.924
45,8 Dec 2013 13:21:07.256,8 Dec 2013 13:37:13.520,966.264
46,8 Dec 2013 15:01:38.686,8 Dec 2013 15:17:49.040,970.354
47,8 Dec 2013 16:43:25.765,8 Dec 2013 17:00:14.128,1008.363
48,8 Dec 2013 18:31:25.318,8 Dec 2013 18:38:00.542,395.224
49,9 Dec 2013 02:12:00.973,9 Dec 2013 02:17:41.024,340.051

"Access","Start Time (UTCG)","Stop Time (UTCG)","Duration (sec)"
1,3 Dec 2013 01:22:50.373,3 Dec 2013 01:39:24.716,994.343
2,3 Dec 2013 03:08:43.556,3 Dec 2013 03:22:24.104,820.548
3,3 Dec 2013 10:54:41.513,3 Dec 2013 11:04:54.370,612.856
4,3 Dec 2013 12:35:31.596,3 Dec 2013 12:47:23.945,712.349
5,3 Dec 2013 14:15:48.141,3 Dec 2013 14:28:20.347,752.206
6,3 Dec 2013 15:55:03.630,3 Dec 2013 16:08:21.846,798.216
7,3 Dec 2013 17:33:27.502,3 Dec 2013 17:48:02.455,874.954
8,3 Dec 2013 19:11:50.175,3 Dec 2013 19:27:37.123,946.948
9,3 Dec 2013 20:53:42.519,3 Dec 2013 21:10:42.857,1020.338
10,3 Dec 2013 22:41:43.493,3 Dec 2013 22:58:49.471,1025.978
11,4 Dec 2013 00:28:39.382,4 Dec 2013 00:43:54.096,914.714
12,4 Dec 2013 16:33:21.625,4 Dec 2013 16:41:59.804,518.180
13,4 Dec 2013 18:14:57.983,4 Dec 2013 18:31:54.310,1016.327
14,4 Dec 2013 20:02:10.010,4 Dec 2013 20:19:27.624,1037.614
15,4 Dec 2013 21:49:38.935,4 Dec 2013 22:06:19.070,1000.135
16,4 Dec 2013 23:41:35.434,4 Dec 2013 23:45:05.194,209.760
17,5 Dec 2013 15:37:24.628,5 Dec 2013 15:53:00.013,935.385
18,5 Dec 2013 17:22:55.648,5 Dec 2013 17:40:06.031,1030.383
19,5 Dec 2013 19:10:51.105,5 Dec 2013 19:28:04.330,1033.225
20,5 Dec 2013 20:57:50.476,5 Dec 2013 21:12:37.380,886.904
21,5 Dec 2013 22:38:18.264,5 Dec 2013 22:49:17.685,659.421
22,6 Dec 2013 00:20:13.746,6 Dec 2013 00:24:16.886,243.140
23,6 Dec 2013 12:59:07.865,6 Dec 2013 13:13:15.471,847.606
24,6 Dec 2013 14:42:40.817,6 Dec 2013 14:59:22.016,1001.199
25,6 Dec 2013 16:30:04.625,6 Dec 2013 16:44:32.829,868.204
26,6 Dec 2013 18:09:49.086,6 Dec 2013 18:25:36.923,947.837
27,6 Dec 2013 19:49:22.498,6 Dec 2013 20:05:23.326,960.828
28,6 Dec 2013 21:28:54.957,6 Dec 2013 21:44:55.615,960.658
29,6 Dec 2013 23:08:52.717,6 Dec 2013 23:25:00.884,968.167
30,7 Dec 2013 00:49:44.729,7 Dec 2013 01:06:03.195,978.466
31,7 Dec 2013 02:32:55.630,7 Dec 2013 02:47:53.679,898.049
32,7 Dec 2013 10:20:02.763,7 Dec 2013 10:31:33.894,691.131
33,7 Dec 2013 11:59:58.490,7 Dec 2013 12:16:19.021,980.530
34,7 Dec 2013 13:41:28.347,7 Dec 2013 13:57:38.308,969.961
35,7 Dec 2013 15:21:56.859,7 Dec 2013 15:37:56.272,959.412
36,7 Dec 2013 17:01:37.101,7 Dec 2013 17:17:35.326,958.225
37,7 Dec 2013 18:41:05.368,7 Dec 2013 18:57:04.599,959.230
38,7 Dec 2013 20:21:20.358,7 Dec 2013 20:36:40.135,919.778
39,7 Dec 2013 22:05:46.137,7 Dec 2013 22:22:12.941,986.804
40,7 Dec 2013 23:51:57.959,8 Dec 2013 00:07:58.978,961.020
41,8 Dec 2013 14:20:49.084,8 Dec 2013 14:26:54.415,365.331
42,8 Dec 2013 15:55:56.667,8 Dec 2013 16:08:31.483,754.815
43,8 Dec 2013 17:37:31.074,8 Dec 2013 17:54:40.862,1029.788
44,8 Dec 2013 19:25:10.044,8 Dec 2013 19:42:22.246,1032.202
45,8 Dec 2013 21:12:29.545,8 Dec 2013 21:29:12.893,1003.348
46,8 Dec 2013 23:03:57.965,8 Dec 2013 23:07:21.093,203.128

"Access","Start Time (UTCG)","Stop Time (UTCG)","Duration (sec)"
1,3 Dec 2013 01:00:00.000,3 Dec 2013 01:12:21.101,741.101
2,3 Dec 2013 02:41:54.335,3 Dec 2013 02:57:37.483,943.148
3,3 Dec 2013 10:31:03.051,3 Dec 2013 10:38:38.871,455.820
4,3 Dec 2013 12:10:20.461,3 Dec 2013 12:21:56.874,696.413
5,3 Dec 2013 13:50:49.189,3 Dec 2013 14:03:12.883,743.694
6,3 Dec 2013 15:30:20.724,3 Dec 2013 15:43:24.547,783.823
7,3 Dec 2013 17:08:54.176,3 Dec 2013 17:23:08.020,853.843
8,3 Dec 2013 18:47:10.882,3 Dec 2013 19:02:44.076,933.194
9,3 Dec 2013 20:26:37.849,3 Dec 2013 20:43:48.164,1030.316
10,3 Dec 2013 22:14:53.066,3 Dec 2013 22:31:50.138,1017.072
11,4 Dec 2013 00:01:49.275,4 Dec 2013 00:18:16.056,986.781
12,4 Dec 2013 17:48:41.197,4 Dec 2013 18:04:59.437,978.240
13,4 Dec 2013 19:35:13.639,4 Dec 2013 19:52:31.529,1037.889
14,4 Dec 2013 21:22:47.812,4 Dec 2013 21:39:54.131,1026.319
15,4 Dec 2013 23:11:35.225,4 Dec 2013 23:22:42.608,667.383
16,5 Dec 2013 15:12:11.526,5 Dec 2013 15:25:52.816,821.290
17,5 Dec 2013 16:56:05.482,5 Dec 2013 17:13:18.296,1032.814
18,5 Dec 2013 18:43:55.109,5 Dec 2013 19:01:02.404,1027.295
19,5 Dec 2013 20:31:33.394,5 Dec 2013 20:48:11.216,997.822
20,5 Dec 2013 22:13:06.468,5 Dec 2013 22:25:16.062,729.594
21,5 Dec 2013 23:54:25.908,6 Dec 2013 00:00:48.732,382.823
22,6 Dec 2013 12:35:10.943,6 Dec 2013 12:45:47.266,636.323
23,6 Dec 2013 14:16:00.520,6 Dec 2013 14:32:58.651,1018.131
24,6 Dec 2013 16:04:33.818,6 Dec 2013 16:18:56.548,862.730
25,6 Dec 2013 17:44:54.044,6 Dec 2013 18:00:30.844,936.800
26,6 Dec 2013 19:24:29.919,6 Dec 2013 19:40:30.358,960.439
27,6 Dec 2013 21:04:00.718,6 Dec 2013 21:20:00.890,960.172
28,6 Dec 2013 22:43:49.142,6 Dec 2013 22:59:54.791,965.649
29,7 Dec 2013 00:24:25.635,7 Dec 2013 00:40:41.695,976.060
30,7 Dec 2013 02:06:29.019,7 Dec 2013 02:22:50.058,981.039
31,7 Dec 2013 09:59:19.170,7 Dec 2013 10:01:41.718,142.548
32,7 Dec 2013 11:34:26.678,7 Dec 2013 11:50:49.083,982.405
33,7 Dec 2013 13:16:11.729,7 Dec 2013 13:32:24.650,972.921
34,7 Dec 2013 14:56:55.113,7 Dec 2013 15:12:56.605,961.492
35,7 Dec 2013 16:36:45.024,7 Dec 2013 16:52:42.501,957.477
36,7 Dec 2013 18:16:11.497,7 Dec 2013 18:32:12.002,960.505
37,7 Dec 2013 19:56:08.493,7 Dec 2013 20:11:45.480,936.987
38,7 Dec 2013 21:38:59.534,7 Dec 2013 21:54:59.020,959.486
39,7 Dec 2013 23:25:22.795,7 Dec 2013 23:42:12.222,1009.427
40,8 Dec 2013 01:16:44.855,8 Dec 2013 01:18:02.190,77.335
41,8 Dec 2013 13:57:52.987,8 Dec 2013 14:00:39.558,166.570
42,8 Dec 2013 15:31:56.705,8 Dec 2013 15:43:18.150,681.445
43,8 Dec 2013 17:11:00.368,8 Dec 2013 17:27:46.327,1005.959
44,8 Dec 2013 18:58:10.935,8 Dec 2013 19:15:23.614,1032.678
45,8 Dec 2013 20:45:43.048,8 Dec 2013 21:02:50.682,1027.633
46,8 Dec 2013 22:34:04.844,8 Dec 2013 22:45:14.777,669.933

"Access","Start Time (UTCG)","Stop Time (UTCG)","Duration (sec)"
1,3 Dec 2013 02:15:25.690,3 Dec 2013 02:32:06.676,1000.986
2,3 Dec 2013 11:45:07.789,3 Dec 2013 11:56:23.433,675.644
3,3 Dec 2013 13:25:46.503,3 Dec 2013 13:38:01.379,734.877
4,3 Dec 2013 15:05:33.955,3 Dec 2013 15:18:25.575,771.620
5,3 Dec 2013 16:44:19.678,3 Dec 2013 16:58:13.248,833.571
6,3 Dec 2013 18:22:34.752,3 Dec 2013 18:37:50.527,915.775
7,3 Dec 2013 20:01:22.850,3 Dec 2013 20:17:20.749,957.899
8,3 Dec 2013 21:47:54.790,3 Dec 2013 22:04:45.886,1011.096
9,3 Dec 2013 23:35:07.609,3 Dec 2013 23:52:08.305,1020.696
10,4 Dec 2013 01:23:58.743,4 Dec 2013 01:32:30.988,512.245
11,4 Dec 2013 17:22:48.751,4 Dec 2013 17:37:54.149,905.398
12,4 Dec 2013 19:08:19.562,4 Dec 2013 19:25:37.405,1037.843
13,4 Dec 2013 20:55:57.513,4 Dec 2013 21:13:13.663,1036.151
14,4 Dec 2013 22:43:48.393,4 Dec 2013 22:57:56.271,847.878
15,5 Dec 2013 14:47:58.608,5 Dec 2013 14:58:03.709,605.101
16,5 Dec 2013 16:29:29.655,5 Dec 2013 16:46:34.407,1024.753
17,5 Dec 2013 18:16:55.478,5 Dec 2013 18:33:59.377,1023.899
18,5 Dec 2013 20:04:36.591,5 Dec 2013 20:21:43.631,1027.039
19,5 Dec 2013 21:47:58.124,5 Dec 2013 22:01:09.108,790.984
20,5 Dec 2013 23:28:55.788,5 Dec 2013 23:37:05.161,489.373
21,6 Dec 2013 13:49:47.902,6 Dec 2013 14:06:34.618,1006.716
22,6 Dec 2013 15:37:05.072,6 Dec 2013 15:52:28.169,923.097
23,6 Dec 2013 17:19:58.239,6 Dec 2013 17:35:18.860,920.621
24,6 Dec 2013 18:59:36.937,6 Dec 2013 19:15:35.634,958.698
25,6 Dec 2013 20:39:07.524,6 Dec 2013 20:55:07.754,960.230
26,6 Dec 2013 22:18:48.645,6 Dec 2013 22:34:52.113,963.468
27,6 Dec 2013 23:59:10.687,7 Dec 2013 00:15:24.192,973.504
28,7 Dec 2013 01:40:35.275,7 Dec 2013 01:57:05.370,990.094
29,7 Dec 2013 03:28:43.686,7 Dec 2013 03:33:57.991,314.305
30,7 Dec 2013 11:08:50.498,7 Dec 2013 11:25:04.484,973.985
31,7 Dec 2013 12:50:51.169,7 Dec 2013 13:07:06.891,975.722
32,7 Dec 2013 14:31:49.917,7 Dec 2013 14:47:53.992,964.075
33,7 Dec 2013 16:11:51.353,7 Dec 2013 16:27:48.706,957.353
34,7 Dec 2013 17:51:19.473,7 Dec 2013 18:07:19.744,960.271
35,7 Dec 2013 19:31:02.782,7 Dec 2013 19:46:51.303,948.520
36,7 Dec 2013 21:12:07.250,7 Dec 2013 21:27:40.516,933.266
37,7 Dec 2013 22:58:53.069,7 Dec 2013 23:15:55.518,1022.449
38,8 Dec 2013 00:46:13.415,8 Dec 2013 00:57:19.009,665.594
39,8 Dec 2013 15:08:04.135,8 Dec 2013 15:17:59.467,595.332
40,8 Dec 2013 16:44:49.461,8 Dec 2013 17:00:43.890,954.429
41,8 Dec 2013 18:31:11.480,8 Dec 2013 18:48:26.987,1035.506
42,8 Dec 2013 20:18:56.090,8 Dec 2013 20:36:11.051,1034.961
43,8 Dec 2013 22:06:26.277,8 Dec 2013 22:20:38.270,851.993

"Access","Start Time (UTCG)","Stop Time (UTCG)","Duration (sec)"
1,3 Dec 2013 01:49:06.560,3 Dec 2013 02:06:00.996,1014.436
2,3 Dec 2013 03:36:22.711,3 Dec 2013 03:45:57.888,575.177
3,3 Dec 2013 11:19:54.443,3 Dec 2013 11:30:42.910,648.467
4,3 Dec 2013 13:00:40.479,3 Dec 2013 13:12:45.259,724.780
5,3 Dec 2013 14:40:43.111,3 Dec 2013 14:53:24.373,761.263
6,3 Dec 2013 16:19:43.084,3 Dec 2013 16:33:17.950,814.866
7,3 Dec 2013 17:58:00.670,3 Dec 2013 18:12:56.622,895.952
8,3 Dec 2013 19:36:33.780,3 Dec 2013 19:52:29.451,955.671
9,3 Dec 2013 21:20:49.983,3 Dec 2013 21:37:42.312,1012.329
10,3 Dec 2013 23:08:27.283,3 Dec 2013 23:25:37.546,1030.263
11,4 Dec 2013 00:55:50.635,4 Dec 2013 01:08:50.682,780.047
12,4 Dec 2013 16:57:31.650,4 Dec 2013 17:10:25.738,774.087
13,4 Dec 2013 18:41:32.584,4 Dec 2013 18:58:45.614,1033.030
14,4 Dec 2013 20:29:05.151,4 Dec 2013 20:46:23.100,1037.949
15,4 Dec 2013 22:16:36.116,4 Dec 2013 22:32:22.544,946.427
16,5 Dec 2013 16:03:13.927,5 Dec 2013 16:19:50.373,996.447
17,5 Dec 2013 17:49:54.210,5 Dec 2013 18:06:59.745,1025.536
18,5 Dec 2013 19:37:44.024,5 Dec 2013 19:54:59.793,1035.769
19,5 Dec 2013 21:22:52.847,5 Dec 2013 21:36:56.397,843.550
20,5 Dec 2013 23:03:34.245,5 Dec 2013 23:13:14.175,579.930
21,6 Dec 2013 13:24:07.591,6 Dec 2013 13:40:03.542,955.951
22,6 Dec 2013 15:09:44.407,6 Dec 2013 15:25:50.109,965.702
23,6 Dec 2013 16:55:01.729,6 Dec 2013 17:09:59.887,898.158
24,6 Dec 2013 18:34:43.364,6 Dec 2013 18:50:38.173,954.809
25,6 Dec 2013 20:14:14.922,6 Dec 2013 20:30:15.499,960.577
26,6 Dec 2013 21:53:50.763,6 Dec 2013 22:09:52.519,961.756
27,6 Dec 2013 23:33:59.788,6 Dec 2013 23:50:10.625,970.837
28,7 Dec 2013 01:15:07.974,7 Dec 2013 01:31:28.672,980.698
29,7 Dec 2013 02:59:55.634,7 Dec 2013 03:12:01.312,725.677
30,7 Dec 2013 10:43:56.200,7 Dec 2013 10:58:38.725,882.525
31,7 Dec 2013 12:25:26.717,7 Dec 2013 12:41:45.000,978.283
32,7 Dec 2013 14:06:41.046,7 Dec 2013 14:22:48.002,966.956
33,7 Dec 2013 15:46:55.471,7 Dec 2013 16:02:53.469,957.999
34,7 Dec 2013 17:26:28.308,7 Dec 2013 17:42:27.619,959.311
35,7 Dec 2013 19:06:02.108,7 Dec 2013 19:21:57.679,955.571
36,7 Dec 2013 20:46:39.540,7 Dec 2013 21:01:35.147,895.606
37,7 Dec 2013 22:32:22.542,7 Dec 2013 22:49:14.013,1011.472
38,8 Dec 2013 00:18:47.992,8 Dec 2013 00:33:07.741,859.750
39,8 Dec 2013 14:44:20.191,8 Dec 2013 14:52:33.298,493.107
40,8 Dec 2013 16:20:03.744,8 Dec 2013 16:33:40.524,816.780
41,8 Dec 2013 18:04:16.449,8 Dec 2013 18:21:33.236,1036.788
42,8 Dec 2013 19:52:05.469,8 Dec 2013 20:09:19.700,1034.231
43,8 Dec 2013 21:39:20.954,8 Dec 2013 21:55:11.583,950.629

"Access","Start Time (UTCG)","Stop Time (UTCG)","Duration (sec)"
1,3 Dec 2013 02:44:47.284,3 Dec 2013 03:01:23.269,995.985
2,3 Dec 2013 04:31:39.641,3 Dec 2013 04:48:56.849,1037.209
3,3 Dec 2013 06:19:11.031,3 Dec 2013 06:36:12.229,1021.198
4,3 Dec 2013 08:08:20.400,3 Dec 2013 08:18:07.977,587.577
5,4 Dec 2013 00:08:15.552,4 Dec 2013 00:22:20.223,844.671
6,4 Dec 2013 01:52:33.706,4 Dec 2013 02:09:48.002,1034.295
7,4 Dec 2013 03:40:19.843,4 Dec 2013 03:57:33.286,1033.443
8,4 Dec 2013 05:28:00.969,4 Dec 2013 05:44:11.161,970.192
9,4 Dec 2013 07:11:55.613,4 Dec 2013 07:21:22.112,566.499
10,4 Dec 2013 21:31:24.492,4 Dec 2013 21:42:28.229,663.737
11,4 Dec 2013 23:12:41.493,4 Dec 2013 23:29:42.353,1020.860
12,5 Dec 2013 01:01:04.336,5 Dec 2013 01:16:26.621,922.286
13,5 Dec 2013 02:42:47.809,5 Dec 2013 02:58:28.605,940.796
14,5 Dec 2013 04:22:17.768,5 Dec 2013 04:38:17.514,959.747
15,5 Dec 2013 06:01:45.874,5 Dec 2013 06:17:36.217,950.343
16,5 Dec 2013 07:41:29.562,5 Dec 2013 07:57:20.227,950.665
17,5 Dec 2013 09:21:57.504,5 Dec 2013 09:37:59.134,961.630
18,5 Dec 2013 11:03:28.790,5 Dec 2013 11:19:37.454,968.664
19,5 Dec 2013 18:54:43.485,5 Dec 2013 18:59:40.658,297.173
20,5 Dec 2013 20:31:22.301,5 Dec 2013 20:48:06.707,1004.406
21,5 Dec 2013 22:13:39.885,5 Dec 2013 22:29:54.547,974.662
22,5 Dec 2013 23:54:28.344,6 Dec 2013 00:10:36.316,967.972
23,6 Dec 2013 01:34:25.406,6 Dec 2013 01:50:27.671,962.266
24,6 Dec 2013 03:14:00.929,6 Dec 2013 03:30:00.666,959.738
25,6 Dec 2013 04:54:05.307,6 Dec 2013 05:09:41.107,935.800
26,6 Dec 2013 06:35:56.850,6 Dec 2013 06:51:35.331,938.481
27,6 Dec 2013 08:22:01.418,6 Dec 2013 08:38:48.238,1006.820
28,6 Dec 2013 21:15:26.617,6 Dec 2013 21:19:54.675,268.058
29,6 Dec 2013 22:51:49.560,6 Dec 2013 23:01:16.353,566.792
30,7 Dec 2013 00:28:27.417,7 Dec 2013 00:41:45.442,798.025
31,7 Dec 2013 02:07:09.147,7 Dec 2013 02:24:10.587,1021.440
32,7 Dec 2013 03:54:42.306,7 Dec 2013 04:11:50.005,1027.698
33,7 Dec 2013 05:42:09.803,7 Dec 2013 05:59:15.062,1025.259
34,7 Dec 2013 07:30:40.505,7 Dec 2013 07:41:00.046,619.540
35,7 Dec 2013 23:31:05.120,7 Dec 2013 23:44:57.093,831.974
36,8 Dec 2013 01:15:33.695,8 Dec 2013 01:32:49.174,1035.479
37,8 Dec 2013 03:03:09.448,8 Dec 2013 03:20:27.453,1038.005
38,8 Dec 2013 04:50:51.613,8 Dec 2013 05:06:11.883,920.270
39,8 Dec 2013 20:56:24.145,8 Dec 2013 21:04:44.601,500.456
40,8 Dec 2013 22:36:34.046,8 Dec 2013 22:53:34.455,1020.409
41,9 Dec 2013 00:23:58.490,9 Dec 2013 00:40:42.633,1004.143
42,9 Dec 2013 02:11:51.939,9 Dec 2013 02:17:41.024,349.085

"Access","Start Time (UTCG)","Stop Time (UTCG)","Duration (sec)"
1,3 Dec 2013 02:18:43.732,3 Dec 2013 02:34:21.526,937.794
2,3 Dec 2013 04:04:43.616,3 Dec 2013 04:22:01.588,1037.972
3,3 Dec 2013 05:52:21.738,3 Dec 2013 06:09:36.174,1034.436
4,3 Dec 2013 07:40:18.057,3 Dec 2013 07:53:45.883,807.826
5,3 Dec 2013 23:43:45.293,3 Dec 2013 23:54:39.648,654.355
6,4 Dec 2013 01:25:55.017,4 Dec 2013 01:43:02.011,1026.995
7,4 Dec 2013 03:13:22.311,4 Dec 2013 03:30:32.436,1030.125
8,4 Dec 2013 05:01:00.475,4 Dec 2013 05:17:54.622,1014.148
9,4 Dec 2013 06:46:29.199,4 Dec 2013 06:57:38.763,669.565
10,4 Dec 2013 22:46:25.387,4 Dec 2013 23:03:14.736,1009.349
11,5 Dec 2013 00:33:42.382,5 Dec 2013 00:49:28.489,946.107
12,5 Dec 2013 02:17:54.844,5 Dec 2013 02:33:18.497,923.653
13,5 Dec 2013 03:57:25.706,5 Dec 2013 04:13:25.720,960.014
14,5 Dec 2013 05:36:53.383,5 Dec 2013 05:52:45.945,952.562
15,5 Dec 2013 07:16:30.619,5 Dec 2013 07:32:19.758,949.139
16,5 Dec 2013 08:56:44.982,5 Dec 2013 09:12:43.625,958.642
17,5 Dec 2013 10:37:59.759,5 Dec 2013 10:54:08.295,968.536
18,5 Dec 2013 12:26:28.570,5 Dec 2013 12:29:33.440,184.871
19,5 Dec 2013 20:05:38.945,5 Dec 2013 20:21:59.236,980.292
20,5 Dec 2013 21:48:17.959,5 Dec 2013 22:04:33.778,975.819
21,5 Dec 2013 23:29:21.784,5 Dec 2013 23:45:31.657,969.874
22,6 Dec 2013 01:09:29.686,6 Dec 2013 01:25:32.856,963.171
23,6 Dec 2013 02:49:06.618,6 Dec 2013 03:05:07.462,960.844
24,6 Dec 2013 04:28:58.195,6 Dec 2013 04:44:44.487,946.292
25,6 Dec 2013 06:10:04.332,6 Dec 2013 06:24:38.312,873.980
26,6 Dec 2013 07:55:35.148,6 Dec 2013 08:12:35.014,1019.865
27,6 Dec 2013 09:42:52.941,6 Dec 2013 09:53:30.954,638.012
28,6 Dec 2013 20:51:35.760,6 Dec 2013 20:54:05.704,149.943
29,6 Dec 2013 22:27:42.876,6 Dec 2013 22:36:03.125,500.249
30,7 Dec 2013 00:04:14.681,7 Dec 2013 00:16:41.187,746.505
31,7 Dec 2013 01:41:31.197,7 Dec 2013 01:57:12.174,940.977
32,7 Dec 2013 03:27:40.485,7 Dec 2013 03:44:51.490,1031.006
33,7 Dec 2013 05:15:24.776,7 Dec 2013 05:32:38.389,1033.613
34,7 Dec 2013 07:02:53.346,7 Dec 2013 07:16:40.925,827.579
35,7 Dec 2013 23:06:28.620,7 Dec 2013 23:17:04.840,636.220
36,8 Dec 2013 00:48:55.084,8 Dec 2013 01:05:59.411,1024.327
37,8 Dec 2013 02:36:14.785,8 Dec 2013 02:53:32.390,1037.606
38,8 Dec 2013 04:23:47.764,8 Dec 2013 04:40:14.236,986.472
39,8 Dec 2013 22:10:27.735,8 Dec 2013 22:26:54.173,986.438
40,8 Dec 2013 23:56:52.679,9 Dec 2013 00:13:44.820,1012.141
41,9 Dec 2013 01:45:00.170,9 Dec 2013 02:02:05.276,1025.106

"Access","Start Time (UTCG)","Stop Time (UTCG)","Duration (sec)"
1,3 Dec 2013 01:53:10.002,3 Dec 2013 02:07:01.856,831.854
2,3 Dec 2013 03:37:52.755,3 Dec 2013 03:55:08.730,1035.975
3,3 Dec 2013 05:25:30.626,3 Dec 2013 05:42:48.118,1037.491
4,3 Dec 2013 07:13:00.744,3 Dec 2013 07:28:25.228,924.484
5,3 Dec 2013 23:22:26.364,3 Dec 2013 23:24:04.090,97.726
6,4 Dec 2013 00:59:34.552,4 Dec 2013 01:16:16.412,1001.860
7,4 Dec 2013 02:46:22.816,4 Dec 2013 03:03:32.907,1030.092
8,4 Dec 2013 04:34:06.661,4 Dec 2013 04:51:19.525,1032.864
9,4 Dec 2013 06:21:11.046,4 Dec 2013 06:33:44.203,753.157
10,4 Dec 2013 08:03:48.429,4 Dec 2013 08:07:43.099,234.670
11,4 Dec 2013 22:20:39.923,4 Dec 2013 22:36:41.362,961.439
12,5 Dec 2013 00:06:25.825,5 Dec 2013 00:22:44.279,978.454
13,5 Dec 2013 01:53:02.042,5 Dec 2013 02:08:00.816,898.775
14,5 Dec 2013 03:32:33.354,5 Dec 2013 03:48:31.048,957.694
15,5 Dec 2013 05:12:01.404,5 Dec 2013 05:27:56.653,955.248
16,5 Dec 2013 06:51:34.020,5 Dec 2013 07:07:22.549,948.529
17,5 Dec 2013 08:31:36.349,5 Dec 2013 08:47:32.005,955.656
18,5 Dec 2013 10:12:34.842,5 Dec 2013 10:28:41.610,966.768
19,5 Dec 2013 11:56:53.555,5 Dec 2013 12:08:30.258,696.703
20,5 Dec 2013 19:40:37.167,5 Dec 2013 19:55:33.859,896.692
21,5 Dec 2013 21:22:51.907,5 Dec 2013 21:39:08.788,976.882
22,5 Dec 2013 23:04:11.653,5 Dec 2013 23:20:23.342,971.690
23,6 Dec 2013 00:44:31.922,6 Dec 2013 01:00:36.398,964.476
24,6 Dec 2013 02:24:13.151,6 Dec 2013 02:40:14.493,961.342
25,6 Dec 2013 04:03:55.750,6 Dec 2013 04:19:48.966,953.215
26,6 Dec 2013 05:44:37.436,6 Dec 2013 05:59:37.978,900.543
27,6 Dec 2013 07:29:09.121,6 Dec 2013 07:45:55.027,1005.907
28,6 Dec 2013 09:15:23.871,6 Dec 2013 09:29:31.399,847.528
29,6 Dec 2013 22:03:36.255,6 Dec 2013 22:10:46.372,430.117
30,6 Dec 2013 23:40:04.713,6 Dec 2013 23:51:35.026,690.313
31,7 Dec 2013 01:17:04.803,7 Dec 2013 01:31:48.325,883.522
32,7 Dec 2013 03:00:40.853,7 Dec 2013 03:17:56.329,1035.476
33,7 Dec 2013 04:48:36.035,7 Dec 2013 05:05:48.157,1032.122
34,7 Dec 2013 06:35:46.021,7 Dec 2013 06:51:24.217,938.196
35,8 Dec 2013 00:22:32.907,8 Dec 2013 00:39:08.547,995.641
36,8 Dec 2013 02:09:18.432,8 Dec 2013 02:26:35.796,1037.364
37,8 Dec 2013 03:56:53.268,8 Dec 2013 04:13:53.653,1020.385
38,8 Dec 2013 05:46:29.550,8 Dec 2013 05:56:03.978,574.428
39,8 Dec 2013 21:44:51.891,8 Dec 2013 22:00:05.164,913.273
40,8 Dec 2013 23:29:52.371,8 Dec 2013 23:46:55.558,1023.187
41,9 Dec 2013 01:18:04.691,9 Dec 2013 01:34:57.464,1012.773

"Access","Start Time (UTCG)","Stop Time (UTCG)","Duration (sec)"
1,3 Dec 2013 01:28:25.573,3 Dec 2013 01:39:02.052,636.479
2,3 Dec 2013 03:11:12.219,3 Dec 2013 03:28:17.076,1024.857
3,3 Dec 2013 04:58:36.307,3 Dec 2013 05:15:53.433,1037.127
4,3 Dec 2013 06:46:02.014,3 Dec 2013 07:02:30.710,988.696
5,4 Dec 2013 00:33:38.464,4 Dec 2013 00:49:25.609,947.145
6,4 Dec 2013 02:19:24.894,4 Dec 2013 02:36:37.814,1032.919
7,4 Dec 2013 04:07:14.214,4 Dec 2013 04:24:30.740,1036.526
8,4 Dec 2013 05:55:16.481,4 Dec 2013 06:09:39.998,863.517
9,4 Dec 2013 07:37:35.452,4 Dec 2013 07:44:49.834,434.382
10,4 Dec 2013 21:55:33.049,4 Dec 2013 22:09:52.770,859.721
11,4 Dec 2013 23:39:23.305,4 Dec 2013 23:56:10.460,1007.156
12,5 Dec 2013 01:28:09.771,5 Dec 2013 01:42:34.187,864.415
13,5 Dec 2013 03:07:40.694,5 Dec 2013 03:23:32.388,951.694
14,5 Dec 2013 04:47:09.613,5 Dec 2013 05:03:07.488,957.875
15,5 Dec 2013 06:26:39.268,5 Dec 2013 06:42:28.210,948.942
16,5 Dec 2013 08:06:31.332,5 Dec 2013 08:22:24.244,952.912
17,5 Dec 2013 09:47:14.094,5 Dec 2013 10:03:18.497,964.404
18,5 Dec 2013 11:29:49.101,5 Dec 2013 11:44:33.791,884.689
19,5 Dec 2013 19:16:32.154,5 Dec 2013 19:28:34.059,721.905
20,5 Dec 2013 20:57:21.744,5 Dec 2013 21:13:39.726,977.982
21,5 Dec 2013 22:38:57.746,5 Dec 2013 22:55:11.036,973.290
22,6 Dec 2013 00:19:31.609,6 Dec 2013 00:35:37.730,966.121
23,6 Dec 2013 01:59:19.668,6 Dec 2013 02:15:21.380,961.712
24,6 Dec 2013 03:38:56.988,6 Dec 2013 03:54:54.420,957.432
25,6 Dec 2013 05:19:18.070,6 Dec 2013 05:34:38.920,920.850
26,6 Dec 2013 07:02:38.008,6 Dec 2013 07:18:53.003,974.995
27,6 Dec 2013 08:48:34.344,6 Dec 2013 09:04:29.831,955.488
28,6 Dec 2013 21:39:30.096,6 Dec 2013 21:45:24.622,354.526
29,6 Dec 2013 23:15:56.618,6 Dec 2013 23:26:26.829,630.211
30,7 Dec 2013 00:52:43.828,7 Dec 2013 01:06:47.838,844.010
31,7 Dec 2013 02:33:48.717,7 Dec 2013 02:51:03.675,1034.958
32,7 Dec 2013 04:21:41.746,7 Dec 2013 04:38:50.211,1028.465
33,7 Dec 2013 06:08:54.891,7 Dec 2013 06:25:32.441,997.550
34,7 Dec 2013 23:56:33.283,8 Dec 2013 00:12:11.015,937.731
35,8 Dec 2013 01:42:23.234,8 Dec 2013 01:59:40.971,1037.737
36,8 Dec 2013 03:30:01.747,8 Dec 2013 03:47:16.279,1034.533
37,8 Dec 2013 05:18:16.199,8 Dec 2013 05:31:36.879,800.681
38,8 Dec 2013 21:19:58.505,8 Dec 2013 21:32:54.438,775.933
39,8 Dec 2013 23:03:04.138,8 Dec 2013 23:20:13.257,1029.119
40,9 Dec 2013 00:51:03.796,9 Dec 2013 01:07:48.071,1004.275

