Raw and processed data/Altitude Variations/us_greatcircle_3sat_600km/Aircraft-B747LAX_Sydney-Transmitter-adsb_out6212-To-Satellite-600km_p1_1-Receiver-adsb_satrcvr2 Access.csv

"Access","Start Time (UTCG)","Stop Time (UTCG)","Duration (sec)"
1,3 Dec 2013 05:38:07.249,3 Dec 2013 05:53:05.618,898.370
2,3 Dec 2013 07:23:17.748,3 Dec 2013 07:34:51.156,693.409
3,3 Dec 2013 12:46:40.692,3 Dec 2013 12:59:02.992,742.301
4,3 Dec 2013 14:26:07.647,3 Dec 2013 14:40:06.993,839.346
5,3 Dec 2013 16:06:50.507,3 Dec 2013 16:19:04.079,733.572
6,3 Dec 2013 17:49:58.285,3 Dec 2013 17:56:47.733,409.448
7,4 Dec 2013 04:01:40.412,4 Dec 2013 04:09:26.634,466.222
8,4 Dec 2013 05:43:56.097,4 Dec 2013 05:58:55.388,899.290
9,4 Dec 2013 07:28:40.088,4 Dec 2013 07:40:43.530,723.441
10,4 Dec 2013 14:37:05.856,4 Dec 2013 14:52:03.339,897.483
11,5 Dec 2013 04:16:13.931,5 Dec 2013 04:25:57.321,583.389
12,5 Dec 2013 05:51:24.829,5 Dec 2013 06:05:24.275,839.445
13,5 Dec 2013 07:33:54.776,5 Dec 2013 07:47:18.155,803.379
14,5 Dec 2013 14:50:18.639,5 Dec 2013 15:03:25.718,787.079
15,5 Dec 2013 16:30:24.934,5 Dec 2013 16:40:13.932,588.998
16,6 Dec 2013 04:31:32.966,6 Dec 2013 04:44:46.246,793.280
17,6 Dec 2013 06:07:31.916,6 Dec 2013 06:21:52.699,860.783
18,6 Dec 2013 07:45:18.317,6 Dec 2013 07:56:26.846,668.529
19,6 Dec 2013 15:07:59.492,6 Dec 2013 15:11:26.423,206.930
20,6 Dec 2013 16:41:09.598,6 Dec 2013 16:55:18.779,849.180
21,7 Dec 2013 03:12:22.489,7 Dec 2013 03:24:00.742,698.253
22,7 Dec 2013 04:47:17.801,7 Dec 2013 05:01:46.000,868.199
23,7 Dec 2013 06:25:23.433,7 Dec 2013 06:36:18.510,655.077
24,7 Dec 2013 16:53:47.612,7 Dec 2013 17:08:27.881,880.269
25,8 Dec 2013 01:52:21.691,8 Dec 2013 02:03:57.251,695.559
26,8 Dec 2013 03:27:08.552,8 Dec 2013 03:41:34.836,866.284
27,8 Dec 2013 05:04:32.650,8 Dec 2013 05:17:19.473,766.823
28,8 Dec 2013 17:08:00.286,8 Dec 2013 17:19:57.128,716.843
29,8 Dec 2013 18:46:50.396,8 Dec 2013 18:58:24.539,694.143
30,9 Dec 2013 02:02:13.940,9 Dec 2013 02:16:31.750,857.810
31,9 Dec 2013 03:43:49.330,9 Dec 2013 03:57:37.523,828.192
32,9 Dec 2013 05:23:43.926,9 Dec 2013 05:32:26.957,523.031
33,9 Dec 2013 18:57:29.344,9 Dec 2013 19:12:20.191,890.846
34,10 Dec 2013 02:08:41.418,10 Dec 2013 02:22:01.946,800.528
35,10 Dec 2013 03:51:31.877,10 Dec 2013 04:06:02.689,870.813
36,10 Dec 2013 05:41:27.040,10 Dec 2013 05:48:39.192,432.151

"Access","Start Time (UTCG)","Stop Time (UTCG)","Duration (sec)"
1,3 Dec 2013 02:55:32.725,3 Dec 2013 02:59:46.128,253.403
2,3 Dec 2013 04:28:41.109,3 Dec 2013 04:43:05.886,864.776
3,3 Dec 2013 11:43:14.453,3 Dec 2013 11:55:51.248,756.796
4,3 Dec 2013 13:25:15.755,3 Dec 2013 13:40:15.362,899.607
5,3 Dec 2013 15:09:26.841,3 Dec 2013 15:18:04.308,517.467
6,4 Dec 2013 04:40:41.794,4 Dec 2013 04:55:16.167,874.373
7,4 Dec 2013 06:25:14.128,4 Dec 2013 06:31:18.051,363.923
8,4 Dec 2013 11:49:33.309,4 Dec 2013 12:01:03.476,690.167
9,4 Dec 2013 13:31:06.079,4 Dec 2013 13:46:09.083,903.005
10,4 Dec 2013 15:21:46.859,4 Dec 2013 15:26:49.073,302.213
11,4 Dec 2013 17:09:27.143,4 Dec 2013 17:11:59.975,152.832
12,4 Dec 2013 23:53:02.940,5 Dec 2013 00:01:11.198,488.259
13,5 Dec 2013 01:31:44.350,5 Dec 2013 01:44:41.815,777.465
14,5 Dec 2013 03:11:29.106,5 Dec 2013 03:26:12.296,883.191
15,5 Dec 2013 04:51:33.967,5 Dec 2013 05:06:37.787,903.819
16,5 Dec 2013 06:31:59.208,5 Dec 2013 06:46:16.608,857.400
17,5 Dec 2013 11:55:09.281,5 Dec 2013 12:06:33.304,684.023
18,5 Dec 2013 13:36:55.464,5 Dec 2013 13:51:57.181,901.716
19,5 Dec 2013 18:59:35.372,5 Dec 2013 19:11:36.121,720.749
20,5 Dec 2013 20:38:52.994,5 Dec 2013 20:53:07.495,854.501
21,5 Dec 2013 22:19:00.709,5 Dec 2013 22:33:55.540,894.831
22,5 Dec 2013 23:59:38.499,6 Dec 2013 00:14:42.892,904.393
23,6 Dec 2013 01:41:07.486,6 Dec 2013 01:55:00.727,833.241
24,6 Dec 2013 03:23:50.257,6 Dec 2013 03:34:42.375,652.118
25,6 Dec 2013 05:07:37.519,6 Dec 2013 05:14:00.795,383.275
26,6 Dec 2013 06:50:16.178,6 Dec 2013 06:54:16.576,240.398
27,6 Dec 2013 08:29:21.182,6 Dec 2013 08:36:26.307,425.125
28,6 Dec 2013 12:00:22.024,6 Dec 2013 12:12:23.845,721.821
29,6 Dec 2013 13:42:43.144,6 Dec 2013 13:57:47.702,904.558
30,6 Dec 2013 20:50:02.474,6 Dec 2013 21:04:59.964,897.490
31,6 Dec 2013 22:31:58.370,6 Dec 2013 22:41:54.367,595.997
32,7 Dec 2013 12:05:36.949,7 Dec 2013 12:18:22.142,765.193
33,7 Dec 2013 13:48:31.754,7 Dec 2013 14:03:48.673,916.920
34,7 Dec 2013 21:03:31.205,7 Dec 2013 21:14:58.936,687.731
35,7 Dec 2013 22:42:03.139,7 Dec 2013 22:54:32.906,749.767
36,8 Dec 2013 10:45:25.012,8 Dec 2013 10:51:06.201,341.189
37,8 Dec 2013 12:18:48.467,8 Dec 2013 12:32:19.493,811.026
38,8 Dec 2013 13:55:04.987,8 Dec 2013 14:10:03.408,898.421
39,8 Dec 2013 22:53:29.183,8 Dec 2013 23:08:17.438,888.255
40,9 Dec 2013 10:59:27.741,9 Dec 2013 11:11:27.715,719.974
41,9 Dec 2013 12:34:44.885,9 Dec 2013 12:49:13.598,868.713
42,9 Dec 2013 14:12:25.020,9 Dec 2013 14:23:59.725,694.705
43,9 Dec 2013 23:06:48.922,9 Dec 2013 23:20:35.782,826.859
44,10 Dec 2013 00:48:41.956,10 Dec 2013 00:55:18.763,396.807

"Access","Start Time (UTCG)","Stop Time (UTCG)","Duration (sec)"
1,3 Dec 2013 09:09:51.763,3 Dec 2013 09:24:33.213,881.450
2,3 Dec 2013 19:43:20.089,3 Dec 2013 19:49:49.052,388.963
3,3 Dec 2013 21:15:56.499,3 Dec 2013 21:29:58.330,841.831
4,3 Dec 2013 22:52:34.885,3 Dec 2013 23:06:03.135,808.251
5,4 Dec 2013 00:33:28.585,4 Dec 2013 00:37:16.934,228.349
6,4 Dec 2013 09:23:01.666,4 Dec 2013 09:37:08.692,847.027
7,4 Dec 2013 11:06:35.470,4 Dec 2013 11:10:22.937,227.467
8,4 Dec 2013 18:23:42.762,4 Dec 2013 18:30:03.165,380.404
9,4 Dec 2013 19:56:08.302,4 Dec 2013 20:09:35.986,807.683
10,4 Dec 2013 21:32:08.947,4 Dec 2013 21:46:19.545,850.598
11,4 Dec 2013 23:11:59.026,4 Dec 2013 23:19:40.143,461.117
12,5 Dec 2013 09:38:12.063,5 Dec 2013 09:47:54.708,582.645
13,5 Dec 2013 11:14:55.106,5 Dec 2013 11:27:58.022,782.916
14,5 Dec 2013 18:32:56.962,5 Dec 2013 18:45:46.522,769.560
15,5 Dec 2013 20:11:43.610,5 Dec 2013 20:26:12.498,868.888
16,5 Dec 2013 21:50:06.080,5 Dec 2013 22:01:47.050,700.970
17,6 Dec 2013 11:26:26.618,6 Dec 2013 11:41:22.444,895.826
18,6 Dec 2013 18:39:57.600,6 Dec 2013 18:50:42.448,644.848
19,6 Dec 2013 20:20:45.673,6 Dec 2013 20:36:04.299,918.626
20,6 Dec 2013 22:08:59.346,6 Dec 2013 22:17:58.210,538.864
21,7 Dec 2013 10:03:10.888,7 Dec 2013 10:09:08.063,357.175
22,7 Dec 2013 11:39:23.033,7 Dec 2013 11:52:25.791,782.758
23,7 Dec 2013 13:19:48.192,7 Dec 2013 13:31:34.640,706.449
24,7 Dec 2013 18:46:04.901,7 Dec 2013 18:55:44.093,579.192
25,7 Dec 2013 20:26:37.733,7 Dec 2013 20:41:58.182,920.450
26,7 Dec 2013 22:17:03.178,7 Dec 2013 22:21:51.525,288.347
27,8 Dec 2013 01:47:42.760,8 Dec 2013 01:52:26.833,284.073
28,8 Dec 2013 03:29:42.776,8 Dec 2013 03:32:41.376,178.600
29,8 Dec 2013 05:08:51.318,8 Dec 2013 05:16:48.557,477.240
30,8 Dec 2013 06:48:09.718,8 Dec 2013 07:00:23.200,733.482
31,8 Dec 2013 08:28:03.308,8 Dec 2013 08:42:35.729,872.421
32,8 Dec 2013 10:08:33.041,8 Dec 2013 10:23:40.758,907.717
33,8 Dec 2013 11:49:21.939,8 Dec 2013 12:04:03.717,881.778
34,8 Dec 2013 13:29:53.791,8 Dec 2013 13:43:59.536,845.745
35,8 Dec 2013 18:51:17.279,8 Dec 2013 19:01:22.112,604.833
36,8 Dec 2013 20:32:27.980,8 Dec 2013 20:47:48.411,920.430
37,9 Dec 2013 01:58:55.730,9 Dec 2013 02:05:55.682,419.953
38,9 Dec 2013 03:36:23.453,9 Dec 2013 03:51:21.958,898.505
39,9 Dec 2013 05:16:23.199,9 Dec 2013 05:31:25.954,902.756
40,9 Dec 2013 06:57:12.533,9 Dec 2013 07:11:29.839,857.306
41,9 Dec 2013 08:39:21.514,9 Dec 2013 08:50:58.989,697.475
42,9 Dec 2013 10:24:24.460,9 Dec 2013 10:28:40.537,256.076
43,9 Dec 2013 18:56:09.336,9 Dec 2013 19:07:26.128,676.792
44,9 Dec 2013 20:38:17.804,9 Dec 2013 20:53:41.797,923.993
45,10 Dec 2013 03:48:14.056,10 Dec 2013 04:02:09.087,835.031
46,10 Dec 2013 05:29:21.170,10 Dec 2013 05:38:54.313,573.143

