Raw and processed data/perplane variations/us_greatcircle_18sat/Aircraft-B747LAX_Narita-Transmitter-adsb_out6211-To-Satellite-700km_p1_1-Receiver-adsb_satrcvr2 Access.csv

"Access","Start Time (UTCG)","Stop Time (UTCG)","Duration (sec)"
1,3 Dec 2013 06:03:06.297,3 Dec 2013 06:14:24.581,678.284
2,3 Dec 2013 07:43:17.800,3 Dec 2013 07:59:55.035,997.235
3,3 Dec 2013 09:32:39.689,3 Dec 2013 09:44:44.489,724.800
4,3 Dec 2013 11:17:44.257,3 Dec 2013 11:30:57.759,793.502
5,3 Dec 2013 12:56:10.183,3 Dec 2013 13:11:34.990,924.806
6,3 Dec 2013 14:35:05.676,3 Dec 2013 14:51:01.523,955.847
7,3 Dec 2013 16:14:28.545,3 Dec 2013 16:30:31.995,963.450
8,3 Dec 2013 17:54:37.086,3 Dec 2013 18:10:47.798,970.712
9,3 Dec 2013 19:35:45.891,3 Dec 2013 19:52:01.271,975.380
10,3 Dec 2013 21:19:55.245,3 Dec 2013 21:29:30.327,575.082
11,4 Dec 2013 03:29:55.593,4 Dec 2013 03:32:25.700,150.107
12,4 Dec 2013 05:03:39.967,4 Dec 2013 05:20:09.284,989.317
13,4 Dec 2013 06:48:01.996,4 Dec 2013 07:02:11.896,849.900
14,4 Dec 2013 08:29:05.021,4 Dec 2013 08:43:47.250,882.228
15,4 Dec 2013 10:09:12.885,4 Dec 2013 10:24:11.542,898.658
16,4 Dec 2013 11:49:03.219,4 Dec 2013 12:03:48.219,885.000
17,4 Dec 2013 13:29:27.535,4 Dec 2013 13:43:07.301,819.766
18,4 Dec 2013 15:11:37.140,4 Dec 2013 15:22:22.197,645.057
19,4 Dec 2013 16:55:07.351,4 Dec 2013 17:10:54.450,947.099
20,4 Dec 2013 18:39:12.818,4 Dec 2013 18:53:05.909,833.091
21,5 Dec 2013 02:27:38.385,5 Dec 2013 02:36:38.623,540.238
22,5 Dec 2013 04:07:16.094,5 Dec 2013 04:19:02.670,706.577
23,5 Dec 2013 05:46:42.432,5 Dec 2013 05:59:39.738,777.307
24,5 Dec 2013 07:25:18.000,5 Dec 2013 07:39:19.438,841.438
25,5 Dec 2013 09:03:16.413,5 Dec 2013 09:18:31.452,915.039
26,5 Dec 2013 10:41:31.922,5 Dec 2013 10:57:22.614,950.692
27,5 Dec 2013 12:27:47.714,5 Dec 2013 12:42:56.543,908.830
28,5 Dec 2013 14:15:36.559,5 Dec 2013 14:31:41.718,965.159
29,5 Dec 2013 16:00:57.792,5 Dec 2013 16:16:45.410,947.618
30,6 Dec 2013 08:05:25.576,6 Dec 2013 08:19:37.645,852.070
31,6 Dec 2013 09:49:11.420,6 Dec 2013 10:06:02.779,1011.359
32,6 Dec 2013 11:37:23.859,6 Dec 2013 11:53:21.531,957.672
33,6 Dec 2013 13:23:52.407,6 Dec 2013 13:40:51.868,1019.461
34,6 Dec 2013 15:12:58.068,6 Dec 2013 15:20:13.348,435.280
35,7 Dec 2013 05:33:12.983,7 Dec 2013 05:41:05.943,472.960
36,7 Dec 2013 07:11:38.305,7 Dec 2013 07:28:31.046,1012.741
37,7 Dec 2013 08:59:28.062,7 Dec 2013 09:14:03.512,875.450
38,7 Dec 2013 10:47:32.147,7 Dec 2013 11:03:16.974,944.827
39,7 Dec 2013 12:29:12.790,7 Dec 2013 12:45:03.575,950.784
40,7 Dec 2013 14:08:08.741,7 Dec 2013 14:23:11.685,902.944
41,7 Dec 2013 15:47:24.752,7 Dec 2013 16:01:17.220,832.468
42,7 Dec 2013 17:27:13.442,7 Dec 2013 17:40:06.964,773.522
43,7 Dec 2013 19:08:07.631,7 Dec 2013 19:19:44.409,696.777
44,7 Dec 2013 20:51:03.419,7 Dec 2013 20:59:16.959,493.540
45,8 Dec 2013 04:33:18.900,8 Dec 2013 04:49:45.939,987.040
46,8 Dec 2013 06:20:17.197,8 Dec 2013 06:32:21.900,724.703
47,8 Dec 2013 08:04:16.763,8 Dec 2013 08:15:57.549,700.785
48,8 Dec 2013 09:43:34.682,8 Dec 2013 09:57:35.574,840.892
49,8 Dec 2013 11:22:56.515,8 Dec 2013 11:37:46.853,890.338
50,8 Dec 2013 13:02:41.651,8 Dec 2013 13:17:37.092,895.442
51,8 Dec 2013 14:43:21.696,8 Dec 2013 14:57:53.714,872.018
52,8 Dec 2013 16:25:14.513,8 Dec 2013 16:39:25.651,851.138
53,8 Dec 2013 18:07:57.871,8 Dec 2013 18:23:08.914,911.043
54,9 Dec 2013 01:54:14.031,9 Dec 2013 02:09:26.550,912.519

"Access","Start Time (UTCG)","Stop Time (UTCG)","Duration (sec)"
1,3 Dec 2013 05:48:25.052,3 Dec 2013 05:55:31.758,426.707
2,3 Dec 2013 07:25:48.987,3 Dec 2013 07:42:35.020,1006.033
3,3 Dec 2013 09:14:05.512,3 Dec 2013 09:26:59.556,774.044
4,3 Dec 2013 11:01:26.042,3 Dec 2013 11:13:56.253,750.211
5,3 Dec 2013 12:39:43.174,3 Dec 2013 12:54:56.317,913.143
6,3 Dec 2013 14:18:34.869,3 Dec 2013 14:34:28.390,953.522
7,3 Dec 2013 15:57:52.128,3 Dec 2013 16:13:54.508,962.380
8,3 Dec 2013 17:37:51.695,3 Dec 2013 17:54:01.153,969.458
9,3 Dec 2013 19:18:50.061,3 Dec 2013 19:35:05.322,975.261
10,3 Dec 2013 21:01:46.018,3 Dec 2013 21:14:27.990,761.973
11,4 Dec 2013 04:46:42.270,4 Dec 2013 05:03:02.636,980.366
12,4 Dec 2013 06:31:03.858,4 Dec 2013 06:45:09.346,845.489
13,4 Dec 2013 08:12:19.256,4 Dec 2013 08:26:56.519,877.263
14,4 Dec 2013 09:52:33.928,4 Dec 2013 10:07:31.688,897.760
15,4 Dec 2013 11:32:24.092,4 Dec 2013 11:47:14.024,889.932
16,4 Dec 2013 13:12:38.363,4 Dec 2013 13:26:34.463,836.100
17,4 Dec 2013 14:54:24.440,4 Dec 2013 15:05:50.344,685.904
18,4 Dec 2013 16:37:57.340,4 Dec 2013 16:52:51.115,893.775
19,4 Dec 2013 18:21:34.512,4 Dec 2013 18:36:53.242,918.730
20,5 Dec 2013 02:11:09.317,5 Dec 2013 02:19:16.537,487.219
21,5 Dec 2013 03:50:38.563,5 Dec 2013 04:02:07.963,689.400
22,5 Dec 2013 05:30:11.220,5 Dec 2013 05:42:58.584,767.364
23,5 Dec 2013 07:08:55.616,5 Dec 2013 07:22:45.311,829.696
24,5 Dec 2013 08:46:57.313,5 Dec 2013 09:02:00.752,903.439
25,5 Dec 2013 10:25:05.108,5 Dec 2013 10:40:56.069,950.961
26,5 Dec 2013 12:09:32.455,5 Dec 2013 12:25:04.659,932.204
27,5 Dec 2013 13:57:55.764,5 Dec 2013 14:13:34.433,938.669
28,5 Dec 2013 15:43:20.147,5 Dec 2013 15:59:49.425,989.278
29,6 Dec 2013 07:49:12.185,6 Dec 2013 08:01:21.424,729.239
30,6 Dec 2013 09:31:23.125,6 Dec 2013 09:48:23.632,1020.507
31,6 Dec 2013 11:19:24.316,6 Dec 2013 11:35:16.999,952.683
32,6 Dec 2013 13:06:13.191,6 Dec 2013 13:23:15.383,1022.192
33,6 Dec 2013 14:53:40.660,6 Dec 2013 15:05:05.073,684.413
34,7 Dec 2013 06:54:19.851,7 Dec 2013 07:11:01.800,1001.949
35,7 Dec 2013 08:41:11.667,7 Dec 2013 08:56:14.898,903.231
36,7 Dec 2013 10:29:48.112,7 Dec 2013 10:44:59.901,911.789
37,7 Dec 2013 12:12:46.016,7 Dec 2013 12:28:37.114,951.099
38,7 Dec 2013 13:51:37.983,7 Dec 2013 14:06:52.258,914.274
39,7 Dec 2013 15:30:50.468,7 Dec 2013 15:44:54.025,843.557
40,7 Dec 2013 17:10:31.837,7 Dec 2013 17:23:34.861,783.025
41,7 Dec 2013 18:51:12.253,7 Dec 2013 19:03:06.170,713.917
42,7 Dec 2013 20:33:40.583,7 Dec 2013 20:42:47.445,546.862
43,8 Dec 2013 04:16:33.593,8 Dec 2013 04:32:25.871,952.277
44,8 Dec 2013 06:01:38.812,8 Dec 2013 06:15:22.120,823.308
45,8 Dec 2013 07:47:44.213,8 Dec 2013 07:58:46.974,662.761
46,8 Dec 2013 09:27:01.629,8 Dec 2013 09:40:47.325,825.697
47,8 Dec 2013 11:06:22.027,8 Dec 2013 11:21:07.970,885.943
48,8 Dec 2013 12:46:01.174,8 Dec 2013 13:00:57.968,896.794
49,8 Dec 2013 14:26:30.034,8 Dec 2013 14:41:07.517,877.483
50,8 Dec 2013 16:08:11.099,8 Dec 2013 16:22:13.850,842.751
51,8 Dec 2013 17:50:35.877,8 Dec 2013 18:06:40.612,964.734
52,9 Dec 2013 01:38:15.704,9 Dec 2013 01:51:59.092,823.388

"Access","Start Time (UTCG)","Stop Time (UTCG)","Duration (sec)"
1,3 Dec 2013 07:08:35.913,3 Dec 2013 07:25:12.792,996.879
2,3 Dec 2013 08:55:34.423,3 Dec 2013 09:09:24.921,830.499
3,3 Dec 2013 10:45:11.301,3 Dec 2013 10:56:47.695,696.393
4,3 Dec 2013 12:23:16.967,3 Dec 2013 12:38:15.357,898.390
5,3 Dec 2013 14:02:04.711,3 Dec 2013 14:17:55.168,950.457
6,3 Dec 2013 15:41:16.885,3 Dec 2013 15:57:18.220,961.335
7,3 Dec 2013 17:21:07.973,3 Dec 2013 17:37:16.165,968.192
8,3 Dec 2013 19:01:55.973,3 Dec 2013 19:18:10.741,974.768
9,3 Dec 2013 20:44:07.983,3 Dec 2013 20:58:42.778,874.795
10,4 Dec 2013 04:30:04.154,4 Dec 2013 04:45:48.307,944.153
11,4 Dec 2013 06:14:03.217,4 Dec 2013 06:28:05.306,842.089
12,4 Dec 2013 07:55:31.797,4 Dec 2013 08:10:03.685,871.887
13,4 Dec 2013 09:35:54.261,4 Dec 2013 09:50:50.338,896.078
14,4 Dec 2013 11:15:45.589,4 Dec 2013 11:30:39.246,893.658
15,4 Dec 2013 12:55:51.692,4 Dec 2013 13:10:01.562,849.870
16,4 Dec 2013 14:37:16.833,4 Dec 2013 14:49:18.061,721.228
17,4 Dec 2013 16:20:47.062,4 Dec 2013 16:34:30.598,823.537
18,4 Dec 2013 18:04:07.112,4 Dec 2013 18:20:17.621,970.510
19,5 Dec 2013 01:54:46.661,5 Dec 2013 02:01:45.070,418.408
20,5 Dec 2013 03:34:00.842,5 Dec 2013 03:45:10.141,669.299
21,5 Dec 2013 05:13:38.558,5 Dec 2013 05:26:15.680,757.122
22,5 Dec 2013 06:52:31.940,5 Dec 2013 07:06:10.365,818.425
23,5 Dec 2013 08:30:38.337,5 Dec 2013 08:45:29.550,891.213
24,5 Dec 2013 10:08:40.468,5 Dec 2013 10:24:28.577,948.109
25,5 Dec 2013 11:51:19.234,5 Dec 2013 12:07:18.493,959.259
26,5 Dec 2013 13:40:08.486,5 Dec 2013 13:55:22.804,914.318
27,5 Dec 2013 15:25:46.980,5 Dec 2013 15:42:37.376,1010.396
28,5 Dec 2013 17:15:09.399,5 Dec 2013 17:18:58.697,229.298
29,6 Dec 2013 07:33:44.336,6 Dec 2013 07:42:27.415,523.079
30,6 Dec 2013 09:13:44.648,6 Dec 2013 09:30:45.391,1020.744
31,6 Dec 2013 11:01:20.725,6 Dec 2013 11:17:16.187,955.462
32,6 Dec 2013 12:48:33.729,6 Dec 2013 13:05:28.808,1015.079
33,6 Dec 2013 14:35:14.483,6 Dec 2013 14:48:58.923,824.440
34,7 Dec 2013 06:37:16.857,7 Dec 2013 06:53:29.326,972.469
35,7 Dec 2013 08:22:58.708,7 Dec 2013 08:38:33.894,935.185
36,7 Dec 2013 10:11:58.157,7 Dec 2013 10:26:40.129,881.972
37,7 Dec 2013 11:56:20.310,7 Dec 2013 12:12:08.202,947.892
38,7 Dec 2013 13:35:07.732,7 Dec 2013 13:50:32.498,924.766
39,7 Dec 2013 15:14:16.927,7 Dec 2013 15:28:32.015,855.088
40,7 Dec 2013 16:53:51.845,7 Dec 2013 17:07:04.264,792.420
41,7 Dec 2013 18:34:19.723,7 Dec 2013 18:46:28.402,728.679
42,7 Dec 2013 20:16:24.610,7 Dec 2013 20:26:14.045,589.435
43,8 Dec 2013 04:00:09.073,8 Dec 2013 04:14:57.121,888.048
44,8 Dec 2013 05:43:21.435,8 Dec 2013 05:58:20.300,898.866
45,8 Dec 2013 07:31:12.132,8 Dec 2013 07:41:31.043,618.910
46,8 Dec 2013 09:10:28.592,8 Dec 2013 09:23:56.353,807.761
47,8 Dec 2013 10:49:48.019,8 Dec 2013 11:04:28.277,880.257
48,8 Dec 2013 12:29:22.101,8 Dec 2013 12:44:19.416,897.315
49,8 Dec 2013 14:09:40.479,8 Dec 2013 14:24:22.901,882.422
50,8 Dec 2013 15:51:09.325,8 Dec 2013 16:05:17.438,848.113
51,8 Dec 2013 17:33:22.255,8 Dec 2013 17:49:51.984,989.729
52,9 Dec 2013 01:22:51.217,9 Dec 2013 01:34:08.711,677.494

"Access","Start Time (UTCG)","Stop Time (UTCG)","Duration (sec)"
1,3 Dec 2013 06:51:39.720,3 Dec 2013 07:07:46.436,966.716
2,3 Dec 2013 08:37:11.449,3 Dec 2013 08:51:57.484,886.035
3,3 Dec 2013 10:27:40.467,3 Dec 2013 10:39:23.318,702.851
4,3 Dec 2013 12:06:51.705,3 Dec 2013 12:21:31.626,879.920
5,3 Dec 2013 13:45:35.176,3 Dec 2013 14:01:21.550,946.374
6,3 Dec 2013 15:24:42.717,3 Dec 2013 15:40:42.962,960.245
7,3 Dec 2013 17:04:25.876,3 Dec 2013 17:20:32.811,966.935
8,3 Dec 2013 18:45:03.623,3 Dec 2013 19:01:17.628,974.005
9,3 Dec 2013 20:26:46.739,3 Dec 2013 20:42:29.712,942.973
10,4 Dec 2013 04:13:47.915,4 Dec 2013 04:28:23.657,875.743
11,4 Dec 2013 05:56:32.271,4 Dec 2013 06:10:59.994,867.722
12,4 Dec 2013 07:38:42.491,4 Dec 2013 07:53:08.744,866.254
13,4 Dec 2013 09:19:13.704,4 Dec 2013 09:34:07.348,893.644
14,4 Dec 2013 10:59:07.453,4 Dec 2013 11:14:03.765,896.313
15,4 Dec 2013 12:39:07.170,4 Dec 2013 12:53:28.557,861.387
16,4 Dec 2013 14:20:13.800,4 Dec 2013 14:32:45.524,751.723
17,4 Dec 2013 16:03:35.158,4 Dec 2013 16:15:53.367,738.209
18,4 Dec 2013 17:46:46.684,4 Dec 2013 18:03:22.697,996.013
19,5 Dec 2013 01:38:36.102,5 Dec 2013 01:43:58.549,322.447
20,5 Dec 2013 03:17:23.356,5 Dec 2013 03:28:08.847,645.492
21,5 Dec 2013 04:57:04.548,5 Dec 2013 05:09:30.838,746.290
22,5 Dec 2013 06:36:06.849,5 Dec 2013 06:49:34.479,807.630
23,5 Dec 2013 08:14:19.181,5 Dec 2013 08:28:57.856,878.674
24,5 Dec 2013 09:52:17.637,5 Dec 2013 10:08:00.267,942.631
25,5 Dec 2013 11:33:11.076,5 Dec 2013 11:49:36.573,985.498
26,5 Dec 2013 13:22:13.658,5 Dec 2013 13:37:10.237,896.579
27,5 Dec 2013 15:08:15.895,5 Dec 2013 15:25:11.116,1015.222
28,5 Dec 2013 16:55:09.631,5 Dec 2013 17:05:08.668,599.036
29,6 Dec 2013 08:56:17.607,6 Dec 2013 09:13:06.246,1008.639
30,6 Dec 2013 10:43:15.020,6 Dec 2013 10:59:20.392,965.372
31,6 Dec 2013 12:30:52.346,6 Dec 2013 12:47:33.880,1001.534
32,6 Dec 2013 14:17:10.238,6 Dec 2013 14:32:23.580,913.343
33,7 Dec 2013 06:20:31.534,7 Dec 2013 06:35:50.889,919.355
34,7 Dec 2013 08:04:52.612,7 Dec 2013 08:20:58.804,966.192
35,7 Dec 2013 09:54:00.876,7 Dec 2013 10:08:21.374,860.498
36,7 Dec 2013 11:39:55.868,7 Dec 2013 11:55:36.424,940.556
37,7 Dec 2013 13:18:38.027,7 Dec 2013 13:34:12.090,934.062
38,7 Dec 2013 14:57:44.047,7 Dec 2013 15:12:11.003,866.956
39,7 Dec 2013 16:37:13.302,7 Dec 2013 16:50:35.214,801.913
40,7 Dec 2013 18:17:29.790,7 Dec 2013 18:29:51.392,741.602
41,7 Dec 2013 19:59:14.097,7 Dec 2013 20:09:38.208,624.111
42,8 Dec 2013 03:44:10.299,8 Dec 2013 03:57:14.646,784.348
43,8 Dec 2013 05:25:23.645,8 Dec 2013 05:41:16.343,952.698
44,8 Dec 2013 07:14:40.876,8 Dec 2013 07:24:09.102,568.226
45,8 Dec 2013 08:53:55.561,8 Dec 2013 09:07:02.286,786.725
46,8 Dec 2013 10:33:14.374,8 Dec 2013 10:47:47.495,873.122
47,8 Dec 2013 12:12:44.256,8 Dec 2013 12:27:41.245,896.988
48,8 Dec 2013 13:52:52.963,8 Dec 2013 14:07:39.712,886.749
49,8 Dec 2013 15:34:09.380,8 Dec 2013 15:48:23.362,853.982
50,8 Dec 2013 17:16:14.925,8 Dec 2013 17:32:44.572,989.646
51,8 Dec 2013 19:02:12.970,8 Dec 2013 19:09:12.443,419.473
52,9 Dec 2013 01:08:31.894,9 Dec 2013 01:15:25.020,413.125

"Access","Start Time (UTCG)","Stop Time (UTCG)","Duration (sec)"
1,3 Dec 2013 06:35:02.511,3 Dec 2013 06:50:13.299,910.788
2,3 Dec 2013 08:18:59.884,3 Dec 2013 08:34:34.659,934.775
3,3 Dec 2013 10:09:32.051,3 Dec 2013 10:20:56.252,684.201
4,3 Dec 2013 11:50:27.612,3 Dec 2013 12:04:44.570,856.958
5,3 Dec 2013 13:29:06.230,3 Dec 2013 13:44:47.217,940.986
6,3 Dec 2013 15:08:09.522,3 Dec 2013 15:24:08.572,959.050
7,3 Dec 2013 16:47:45.325,3 Dec 2013 17:03:51.048,965.723
8,3 Dec 2013 18:28:13.034,3 Dec 2013 18:44:26.065,973.032
9,3 Dec 2013 20:09:42.698,3 Dec 2013 20:25:54.421,971.722
10,4 Dec 2013 03:57:59.065,4 Dec 2013 04:10:43.247,764.182
11,4 Dec 2013 05:38:33.393,4 Dec 2013 05:54:03.577,930.184
12,4 Dec 2013 07:21:51.184,4 Dec 2013 07:36:11.738,860.554
13,4 Dec 2013 09:02:32.089,4 Dec 2013 09:17:22.580,890.491
14,4 Dec 2013 10:42:29.440,4 Dec 2013 10:57:27.427,897.987
15,4 Dec 2013 12:22:24.461,4 Dec 2013 12:36:55.387,870.926
16,4 Dec 2013 14:03:14.855,4 Dec 2013 14:16:12.851,777.996
17,4 Dec 2013 15:46:19.607,4 Dec 2013 15:57:01.290,641.682
18,4 Dec 2013 17:29:30.899,4 Dec 2013 17:46:10.171,999.271
19,4 Dec 2013 19:15:49.986,4 Dec 2013 19:23:33.716,463.730
20,5 Dec 2013 03:00:46.609,5 Dec 2013 03:11:03.622,617.013
21,5 Dec 2013 04:40:29.336,5 Dec 2013 04:52:43.864,734.528
22,5 Dec 2013 06:19:40.260,5 Dec 2013 06:32:57.515,797.255
23,5 Dec 2013 07:57:59.572,5 Dec 2013 08:12:25.636,866.064
24,5 Dec 2013 09:35:56.246,5 Dec 2013 09:51:31.263,935.017
25,5 Dec 2013 11:15:10.342,5 Dec 2013 11:31:57.161,1006.819
26,5 Dec 2013 13:04:11.037,5 Dec 2013 13:19:00.104,889.067
27,5 Dec 2013 14:50:44.951,5 Dec 2013 15:07:32.083,1007.133
28,5 Dec 2013 16:36:42.839,5 Dec 2013 16:49:34.558,771.719
29,6 Dec 2013 08:39:03.688,6 Dec 2013 08:55:24.042,980.354
30,6 Dec 2013 10:25:09.761,6 Dec 2013 10:41:29.959,980.198
31,6 Dec 2013 12:13:07.593,6 Dec 2013 12:29:32.664,985.071
32,6 Dec 2013 13:59:18.169,6 Dec 2013 14:15:28.083,969.914
33,7 Dec 2013 06:04:07.772,7 Dec 2013 06:18:02.211,834.440
34,7 Dec 2013 07:46:56.004,7 Dec 2013 08:03:27.798,991.795
35,7 Dec 2013 09:35:55.819,7 Dec 2013 09:50:07.358,851.539
36,7 Dec 2013 11:22:49.908,7 Dec 2013 11:39:01.300,971.392
37,7 Dec 2013 13:02:08.912,7 Dec 2013 13:17:50.698,941.786
38,7 Dec 2013 14:41:11.753,7 Dec 2013 14:55:50.783,879.031
39,7 Dec 2013 16:20:36.035,7 Dec 2013 16:34:07.721,811.686
40,7 Dec 2013 18:00:42.230,7 Dec 2013 18:13:15.367,753.137
41,7 Dec 2013 19:42:08.148,7 Dec 2013 19:53:00.890,652.741
42,8 Dec 2013 03:28:49.299,8 Dec 2013 03:39:06.722,617.423
43,8 Dec 2013 05:07:44.318,8 Dec 2013 05:24:09.819,985.501
44,8 Dec 2013 06:58:11.019,8 Dec 2013 07:06:40.300,509.281
45,8 Dec 2013 08:37:22.545,8 Dec 2013 08:50:04.746,762.201
46,8 Dec 2013 10:16:40.992,8 Dec 2013 10:31:05.332,864.340
47,8 Dec 2013 11:56:07.480,8 Dec 2013 12:11:03.243,895.763
48,8 Dec 2013 13:36:07.398,8 Dec 2013 13:50:57.789,890.391
49,8 Dec 2013 15:17:11.406,8 Dec 2013 15:31:31.478,860.072
50,8 Dec 2013 16:59:12.799,8 Dec 2013 17:15:18.527,965.728
51,8 Dec 2013 18:43:27.606,8 Dec 2013 18:54:44.141,676.536

"Access","Start Time (UTCG)","Stop Time (UTCG)","Duration (sec)"
1,3 Dec 2013 06:18:48.369,3 Dec 2013 06:32:28.997,820.628
2,3 Dec 2013 08:01:01.654,3 Dec 2013 08:17:14.400,972.746
3,3 Dec 2013 09:51:10.583,3 Dec 2013 10:02:42.828,692.245
4,3 Dec 2013 11:34:04.987,3 Dec 2013 11:47:53.535,828.548
5,3 Dec 2013 13:12:37.890,3 Dec 2013 13:28:11.822,933.931
6,3 Dec 2013 14:51:37.207,3 Dec 2013 15:07:34.833,957.626
7,3 Dec 2013 16:31:06.247,3 Dec 2013 16:47:10.800,964.553
8,3 Dec 2013 18:11:24.191,3 Dec 2013 18:27:36.110,971.919
9,3 Dec 2013 19:52:43.439,3 Dec 2013 20:08:58.465,975.026
10,3 Dec 2013 21:40:22.309,3 Dec 2013 21:42:02.013,99.704
11,4 Dec 2013 03:42:52.009,4 Dec 2013 03:52:33.206,581.197
12,4 Dec 2013 05:20:56.723,4 Dec 2013 05:37:09.489,972.766
13,4 Dec 2013 07:04:57.734,4 Dec 2013 07:19:12.747,855.013
14,4 Dec 2013 08:45:49.249,4 Dec 2013 09:00:35.913,886.664
15,4 Dec 2013 10:25:51.326,4 Dec 2013 10:40:50.073,898.747
16,4 Dec 2013 12:05:43.246,4 Dec 2013 12:20:21.974,878.729
17,4 Dec 2013 13:46:19.569,4 Dec 2013 13:59:40.095,800.526
18,4 Dec 2013 15:28:55.562,4 Dec 2013 15:38:53.315,597.753
19,4 Dec 2013 17:12:18.187,4 Dec 2013 17:28:40.735,982.548
20,4 Dec 2013 18:57:10.025,4 Dec 2013 19:08:47.519,697.494
21,5 Dec 2013 02:44:11.300,5 Dec 2013 02:53:53.849,582.549
22,5 Dec 2013 04:23:53.112,5 Dec 2013 04:35:54.554,721.442
23,5 Dec 2013 06:03:12.121,5 Dec 2013 06:16:19.321,787.200
24,5 Dec 2013 07:41:39.254,5 Dec 2013 07:55:52.847,853.593
25,5 Dec 2013 09:19:35.948,5 Dec 2013 09:35:01.636,925.688
26,5 Dec 2013 10:58:01.313,5 Dec 2013 11:14:18.442,977.129
27,5 Dec 2013 12:46:01.632,5 Dec 2013 13:00:55.065,893.433
28,5 Dec 2013 14:33:12.407,5 Dec 2013 14:49:41.705,989.297
29,5 Dec 2013 16:18:43.378,5 Dec 2013 16:33:22.340,878.963
30,6 Dec 2013 08:22:05.138,6 Dec 2013 08:37:35.931,930.793
31,6 Dec 2013 10:07:07.697,6 Dec 2013 10:23:44.433,996.736
32,6 Dec 2013 11:55:18.314,6 Dec 2013 12:11:27.638,969.324
33,6 Dec 2013 13:41:33.286,6 Dec 2013 13:58:16.688,1003.403
34,7 Dec 2013 05:48:13.690,7 Dec 2013 05:59:55.058,701.368
35,7 Dec 2013 07:29:10.765,7 Dec 2013 07:45:59.118,1008.353
36,7 Dec 2013 09:17:44.006,7 Dec 2013 09:32:00.949,856.944
37,7 Dec 2013 11:05:12.106,7 Dec 2013 11:21:28.219,976.114
38,7 Dec 2013 12:45:40.468,7 Dec 2013 13:01:27.975,947.507
39,7 Dec 2013 14:24:39.990,7 Dec 2013 14:39:31.098,891.108
40,7 Dec 2013 16:03:59.904,7 Dec 2013 16:17:41.745,821.841
41,7 Dec 2013 17:43:56.849,7 Dec 2013 17:56:40.504,763.655
42,7 Dec 2013 19:25:06.144,7 Dec 2013 19:36:22.784,676.640
43,7 Dec 2013 21:08:35.634,7 Dec 2013 21:15:25.207,409.573
44,8 Dec 2013 03:14:58.502,8 Dec 2013 03:19:41.725,283.223
45,8 Dec 2013 04:50:22.756,8 Dec 2013 05:07:00.036,997.280
46,8 Dec 2013 06:39:18.129,8 Dec 2013 06:49:19.258,601.129
47,8 Dec 2013 08:20:49.587,8 Dec 2013 08:33:03.315,733.728
48,8 Dec 2013 10:00:07.785,8 Dec 2013 10:14:21.467,853.682
49,8 Dec 2013 11:39:31.617,8 Dec 2013 11:54:25.191,893.574
50,8 Dec 2013 13:19:23.674,8 Dec 2013 13:34:16.975,893.301
51,8 Dec 2013 15:00:15.492,8 Dec 2013 15:14:41.646,866.154
52,8 Dec 2013 16:42:15.501,8 Dec 2013 16:57:32.904,917.403
53,8 Dec 2013 18:25:32.207,8 Dec 2013 18:39:13.090,820.883
54,9 Dec 2013 02:10:37.020,9 Dec 2013 02:17:41.024,424.004

"Access","Start Time (UTCG)","Stop Time (UTCG)","Duration (sec)"
1,3 Dec 2013 01:24:26.981,3 Dec 2013 01:38:41.721,854.740
2,3 Dec 2013 03:07:33.951,3 Dec 2013 03:23:07.179,933.228
3,3 Dec 2013 10:54:47.168,3 Dec 2013 11:07:40.222,773.053
4,3 Dec 2013 12:35:31.726,3 Dec 2013 12:49:51.817,860.091
5,3 Dec 2013 14:15:48.378,3 Dec 2013 14:30:38.500,890.122
6,3 Dec 2013 15:55:12.375,3 Dec 2013 16:10:24.923,912.548
7,3 Dec 2013 17:33:53.371,3 Dec 2013 17:49:35.917,942.546
8,3 Dec 2013 19:12:37.317,3 Dec 2013 19:28:25.373,948.056
9,3 Dec 2013 20:55:19.149,3 Dec 2013 21:10:22.979,903.830
10,3 Dec 2013 22:43:51.244,3 Dec 2013 22:59:07.170,915.926
11,4 Dec 2013 00:29:01.468,4 Dec 2013 00:45:35.424,993.956
12,4 Dec 2013 16:34:27.892,4 Dec 2013 16:46:46.091,738.199
13,4 Dec 2013 18:16:53.204,4 Dec 2013 18:33:53.954,1020.750
14,4 Dec 2013 20:04:57.527,4 Dec 2013 20:20:50.436,952.909
15,4 Dec 2013 21:51:43.096,4 Dec 2013 22:08:44.896,1021.800
16,4 Dec 2013 23:39:05.365,4 Dec 2013 23:50:18.597,673.232
17,5 Dec 2013 15:40:05.744,5 Dec 2013 15:56:44.461,998.717
18,5 Dec 2013 17:26:43.132,5 Dec 2013 17:42:11.426,928.294
19,5 Dec 2013 19:15:06.185,5 Dec 2013 19:30:45.456,939.271
20,5 Dec 2013 21:00:17.776,5 Dec 2013 21:16:01.214,943.437
21,5 Dec 2013 22:39:23.451,5 Dec 2013 22:53:32.626,849.175
22,6 Dec 2013 00:18:53.718,6 Dec 2013 00:30:40.657,706.939
23,6 Dec 2013 01:58:54.603,6 Dec 2013 02:08:20.442,565.838
24,6 Dec 2013 03:40:15.275,6 Dec 2013 03:46:29.024,373.749
25,6 Dec 2013 13:02:46.807,6 Dec 2013 13:18:27.308,940.501
26,6 Dec 2013 14:47:26.580,6 Dec 2013 15:01:55.275,868.695
27,6 Dec 2013 16:36:22.679,6 Dec 2013 16:46:10.013,587.334
28,6 Dec 2013 18:14:58.724,6 Dec 2013 18:28:40.047,821.323
29,6 Dec 2013 19:54:02.266,6 Dec 2013 20:09:04.103,901.837
30,6 Dec 2013 21:33:26.790,6 Dec 2013 21:48:52.673,925.883
31,6 Dec 2013 23:13:33.803,6 Dec 2013 23:29:02.130,928.327
32,7 Dec 2013 00:54:42.977,7 Dec 2013 01:10:07.890,924.912
33,7 Dec 2013 02:36:51.263,7 Dec 2013 02:53:02.236,970.973
34,7 Dec 2013 10:24:51.786,7 Dec 2013 10:38:19.319,807.533
35,7 Dec 2013 12:04:58.281,7 Dec 2013 12:21:14.696,976.415
36,7 Dec 2013 13:46:30.610,7 Dec 2013 14:02:36.253,965.643
37,7 Dec 2013 15:27:00.695,7 Dec 2013 15:42:57.607,956.912
38,7 Dec 2013 17:06:46.432,7 Dec 2013 17:22:29.357,942.925
39,7 Dec 2013 18:46:30.763,7 Dec 2013 19:01:31.558,900.795
40,7 Dec 2013 20:27:27.361,7 Dec 2013 20:40:07.871,760.510
41,7 Dec 2013 22:13:02.612,7 Dec 2013 22:26:20.005,797.393
42,7 Dec 2013 23:57:23.781,8 Dec 2013 00:14:08.930,1005.148
43,8 Dec 2013 01:45:39.252,8 Dec 2013 01:49:56.541,257.289
44,8 Dec 2013 14:26:37.721,8 Dec 2013 14:35:48.374,550.653
45,8 Dec 2013 16:02:23.725,8 Dec 2013 16:15:56.493,812.769
46,8 Dec 2013 17:44:11.796,8 Dec 2013 18:01:10.590,1018.794
47,8 Dec 2013 19:32:36.478,8 Dec 2013 19:48:08.219,931.742
48,8 Dec 2013 21:19:20.069,8 Dec 2013 21:36:16.383,1016.314
49,8 Dec 2013 23:05:53.763,8 Dec 2013 23:18:09.207,735.444

"Access","Start Time (UTCG)","Stop Time (UTCG)","Duration (sec)"
1,3 Dec 2013 01:07:25.652,3 Dec 2013 01:20:11.474,765.822
2,3 Dec 2013 02:50:10.984,3 Dec 2013 03:06:28.747,977.763
3,3 Dec 2013 10:38:15.895,3 Dec 2013 10:50:27.453,731.559
4,3 Dec 2013 12:18:45.083,3 Dec 2013 12:32:56.520,851.437
5,3 Dec 2013 13:59:08.995,3 Dec 2013 14:13:55.571,886.575
6,3 Dec 2013 15:38:42.082,3 Dec 2013 15:53:50.288,908.206
7,3 Dec 2013 17:17:27.993,3 Dec 2013 17:33:05.691,937.698
8,3 Dec 2013 18:56:06.899,3 Dec 2013 19:11:58.760,951.862
9,3 Dec 2013 20:37:01.207,3 Dec 2013 20:52:37.109,935.902
10,3 Dec 2013 22:26:05.239,3 Dec 2013 22:40:51.854,886.615
11,4 Dec 2013 00:11:31.149,4 Dec 2013 00:28:22.110,1010.961
12,4 Dec 2013 01:59:53.138,4 Dec 2013 02:05:28.173,335.035
13,4 Dec 2013 16:18:54.143,4 Dec 2013 16:27:52.436,538.293
14,4 Dec 2013 17:59:13.287,4 Dec 2013 18:16:14.905,1021.619
15,4 Dec 2013 19:46:54.057,4 Dec 2013 20:02:49.405,955.348
16,4 Dec 2013 21:34:04.367,4 Dec 2013 21:50:59.636,1015.269
17,4 Dec 2013 23:20:39.758,4 Dec 2013 23:34:16.862,817.103
18,5 Dec 2013 15:23:04.011,5 Dec 2013 15:39:08.882,964.871
19,5 Dec 2013 17:08:33.779,5 Dec 2013 17:24:28.715,954.936
20,5 Dec 2013 18:57:16.341,5 Dec 2013 19:12:30.189,913.847
21,5 Dec 2013 20:43:29.923,5 Dec 2013 20:59:38.899,968.977
22,5 Dec 2013 22:22:50.564,5 Dec 2013 22:37:20.834,870.270
23,6 Dec 2013 00:02:17.084,6 Dec 2013 00:14:28.206,731.121
24,6 Dec 2013 01:42:11.050,6 Dec 2013 01:52:00.545,589.496
25,6 Dec 2013 03:23:11.345,6 Dec 2013 03:30:09.577,418.232
26,6 Dec 2013 12:46:25.544,6 Dec 2013 13:00:53.687,868.143
27,6 Dec 2013 14:29:16.903,6 Dec 2013 14:44:45.837,928.934
28,6 Dec 2013 16:20:05.373,6 Dec 2013 16:28:40.738,515.366
29,6 Dec 2013 17:58:29.809,6 Dec 2013 18:11:47.073,797.264
30,6 Dec 2013 19:37:30.568,6 Dec 2013 19:52:24.452,893.884
31,6 Dec 2013 21:16:50.468,6 Dec 2013 21:32:14.354,923.886
32,6 Dec 2013 22:56:48.619,6 Dec 2013 23:12:17.388,928.769
33,7 Dec 2013 00:37:46.991,7 Dec 2013 00:53:12.025,925.033
34,7 Dec 2013 02:19:41.884,7 Dec 2013 02:36:11.194,989.310
35,7 Dec 2013 10:09:31.656,7 Dec 2013 10:20:23.912,652.255
36,7 Dec 2013 11:47:57.026,7 Dec 2013 12:04:15.640,978.614
37,7 Dec 2013 13:29:39.667,7 Dec 2013 13:45:46.817,967.150
38,7 Dec 2013 15:10:19.547,7 Dec 2013 15:26:18.015,958.468
39,7 Dec 2013 16:50:10.399,7 Dec 2013 17:05:56.609,946.210
40,7 Dec 2013 18:29:50.814,7 Dec 2013 18:45:02.677,911.863
41,7 Dec 2013 20:10:28.351,7 Dec 2013 20:23:44.772,796.421
42,7 Dec 2013 21:55:21.119,7 Dec 2013 22:07:46.978,745.859
43,7 Dec 2013 23:40:02.910,7 Dec 2013 23:56:45.538,1002.628
44,8 Dec 2013 01:25:59.157,8 Dec 2013 01:36:06.753,607.596
45,8 Dec 2013 14:10:45.665,8 Dec 2013 14:19:00.306,494.640
46,8 Dec 2013 15:46:21.641,8 Dec 2013 15:59:18.926,777.286
47,8 Dec 2013 17:26:28.137,8 Dec 2013 17:43:30.780,1022.643
48,8 Dec 2013 19:14:30.223,8 Dec 2013 19:30:06.413,936.189
49,8 Dec 2013 21:01:43.967,8 Dec 2013 21:18:28.692,1004.725
50,8 Dec 2013 22:47:44.452,8 Dec 2013 23:02:00.080,855.628

"Access","Start Time (UTCG)","Stop Time (UTCG)","Duration (sec)"
1,3 Dec 2013 01:00:00.000,3 Dec 2013 01:01:19.736,79.736
2,3 Dec 2013 02:32:54.754,3 Dec 2013 02:49:31.202,996.448
3,3 Dec 2013 10:23:21.067,3 Dec 2013 10:32:39.501,558.435
4,3 Dec 2013 12:01:57.785,3 Dec 2013 12:15:58.793,841.008
5,3 Dec 2013 13:42:28.131,3 Dec 2013 13:57:10.834,882.703
6,3 Dec 2013 15:22:10.395,3 Dec 2013 15:37:14.570,904.175
7,3 Dec 2013 17:01:02.346,3 Dec 2013 17:16:34.907,932.561
8,3 Dec 2013 18:39:38.210,3 Dec 2013 18:55:31.391,953.181
9,3 Dec 2013 20:19:05.002,3 Dec 2013 20:34:55.914,950.912
10,3 Dec 2013 22:08:10.809,3 Dec 2013 22:22:35.654,864.846
11,3 Dec 2013 23:54:02.667,4 Dec 2013 00:10:54.368,1011.700
12,4 Dec 2013 01:40:29.281,4 Dec 2013 01:51:05.890,636.609
13,4 Dec 2013 17:41:44.529,4 Dec 2013 17:58:34.877,1010.348
14,4 Dec 2013 19:28:48.230,4 Dec 2013 19:44:53.219,964.989
15,4 Dec 2013 21:16:23.661,4 Dec 2013 21:33:05.764,1002.104
16,4 Dec 2013 23:02:36.483,4 Dec 2013 23:17:44.796,908.313
17,5 Dec 2013 15:06:20.126,5 Dec 2013 15:21:26.751,906.625
18,5 Dec 2013 16:50:30.833,5 Dec 2013 17:06:51.536,980.702
19,5 Dec 2013 18:39:20.026,5 Dec 2013 18:54:15.174,895.148
20,5 Dec 2013 20:25:49.261,5 Dec 2013 20:42:50.630,1021.369
21,5 Dec 2013 22:06:18.350,5 Dec 2013 22:21:08.092,889.741
22,5 Dec 2013 23:45:41.135,5 Dec 2013 23:58:16.550,755.415
23,6 Dec 2013 01:25:29.162,6 Dec 2013 01:35:41.929,612.766
24,6 Dec 2013 03:06:12.926,6 Dec 2013 03:13:48.060,455.134
25,6 Dec 2013 12:30:31.644,6 Dec 2013 12:43:04.774,753.130
26,6 Dec 2013 14:11:24.506,6 Dec 2013 14:27:35.836,971.331
27,6 Dec 2013 16:02:41.142,6 Dec 2013 16:10:58.617,497.475
28,6 Dec 2013 17:42:01.606,6 Dec 2013 17:54:50.267,768.660
29,6 Dec 2013 19:20:59.342,6 Dec 2013 19:35:43.551,884.209
30,6 Dec 2013 21:00:15.194,6 Dec 2013 21:15:36.449,921.255
31,6 Dec 2013 22:40:05.175,6 Dec 2013 22:55:34.114,928.939
32,7 Dec 2013 00:20:52.721,7 Dec 2013 00:36:18.225,925.504
33,7 Dec 2013 02:02:39.205,7 Dec 2013 02:19:01.097,981.891
34,7 Dec 2013 03:47:56.228,7 Dec 2013 03:56:01.259,485.031
35,7 Dec 2013 09:55:25.981,7 Dec 2013 10:01:26.385,360.405
36,7 Dec 2013 11:30:53.143,7 Dec 2013 11:47:15.189,982.046
37,7 Dec 2013 13:12:46.919,7 Dec 2013 13:28:55.669,968.750
38,7 Dec 2013 14:53:36.974,7 Dec 2013 15:09:36.926,959.952
39,7 Dec 2013 16:33:34.014,7 Dec 2013 16:49:22.982,948.968
40,7 Dec 2013 18:13:12.350,7 Dec 2013 18:28:33.229,920.879
41,7 Dec 2013 19:53:34.061,7 Dec 2013 20:07:20.109,826.048
42,7 Dec 2013 21:37:27.323,7 Dec 2013 21:49:14.988,707.664
43,7 Dec 2013 23:22:43.183,7 Dec 2013 23:39:06.943,983.760
44,8 Dec 2013 01:07:42.914,8 Dec 2013 01:20:40.439,777.525
45,8 Dec 2013 13:54:55.599,8 Dec 2013 14:02:09.119,433.519
46,8 Dec 2013 15:30:21.534,8 Dec 2013 15:42:39.984,738.451
47,8 Dec 2013 17:08:55.329,8 Dec 2013 17:25:49.475,1014.146
48,8 Dec 2013 18:56:21.123,8 Dec 2013 19:12:09.992,948.869
49,8 Dec 2013 20:44:05.004,8 Dec 2013 21:00:32.187,987.183
50,8 Dec 2013 22:29:51.753,8 Dec 2013 22:45:24.524,932.771

"Access","Start Time (UTCG)","Stop Time (UTCG)","Duration (sec)"
1,3 Dec 2013 02:15:43.300,3 Dec 2013 02:32:15.808,992.508
2,3 Dec 2013 04:01:20.474,3 Dec 2013 04:10:12.007,531.533
3,3 Dec 2013 11:45:10.062,3 Dec 2013 11:58:58.480,828.418
4,3 Dec 2013 13:25:45.853,3 Dec 2013 13:40:24.199,878.346
5,3 Dec 2013 15:05:37.217,3 Dec 2013 15:20:37.661,900.444
6,3 Dec 2013 16:44:36.184,3 Dec 2013 17:00:03.508,927.325
7,3 Dec 2013 18:23:10.861,3 Dec 2013 18:39:03.371,952.509
8,3 Dec 2013 20:02:23.189,3 Dec 2013 20:17:39.158,915.969
9,3 Dec 2013 21:50:07.405,3 Dec 2013 22:04:22.385,854.980
10,3 Dec 2013 23:36:34.173,3 Dec 2013 23:53:13.465,999.292
11,4 Dec 2013 01:22:11.553,4 Dec 2013 01:35:25.946,794.393
12,4 Dec 2013 17:24:28.581,4 Dec 2013 17:40:51.702,983.122
13,4 Dec 2013 19:10:42.587,4 Dec 2013 19:27:02.279,979.692
14,4 Dec 2013 20:58:39.519,4 Dec 2013 21:15:05.339,985.819
15,4 Dec 2013 22:44:45.424,4 Dec 2013 23:00:51.943,966.519
16,5 Dec 2013 14:49:58.515,5 Dec 2013 15:03:33.275,814.760
17,5 Dec 2013 16:32:36.819,5 Dec 2013 16:49:18.229,1001.410
18,5 Dec 2013 18:21:16.951,5 Dec 2013 18:36:03.753,886.802
19,5 Dec 2013 20:08:10.444,5 Dec 2013 20:25:02.073,1011.629
20,5 Dec 2013 21:49:46.874,5 Dec 2013 22:04:54.079,907.206
21,5 Dec 2013 23:29:05.819,5 Dec 2013 23:42:05.446,779.628
22,6 Dec 2013 01:08:48.679,6 Dec 2013 01:19:24.658,635.979
23,6 Dec 2013 02:49:18.767,6 Dec 2013 02:57:25.721,486.953
24,6 Dec 2013 04:32:52.916,6 Dec 2013 04:34:22.096,89.180
25,6 Dec 2013 12:15:20.525,6 Dec 2013 12:24:45.514,564.990
26,6 Dec 2013 13:53:49.112,6 Dec 2013 14:10:24.257,995.145
27,6 Dec 2013 15:43:35.062,6 Dec 2013 15:53:33.439,598.377
28,6 Dec 2013 17:25:34.346,6 Dec 2013 17:37:49.007,734.661
29,6 Dec 2013 19:04:28.545,6 Dec 2013 19:19:01.054,872.509
30,6 Dec 2013 20:43:40.848,6 Dec 2013 20:58:58.727,917.879
31,6 Dec 2013 22:23:23.376,6 Dec 2013 22:38:52.166,928.791
32,7 Dec 2013 00:04:00.237,7 Dec 2013 00:19:26.419,926.182
33,7 Dec 2013 01:45:40.186,7 Dec 2013 02:01:31.592,951.406
34,7 Dec 2013 03:29:27.031,7 Dec 2013 03:41:17.591,710.560
35,7 Dec 2013 11:13:51.021,7 Dec 2013 11:30:13.573,982.552
36,7 Dec 2013 12:55:52.363,7 Dec 2013 13:12:02.832,970.469
37,7 Dec 2013 14:36:52.883,7 Dec 2013 14:52:54.259,961.376
38,7 Dec 2013 16:16:57.044,7 Dec 2013 16:32:48.372,951.328
39,7 Dec 2013 17:56:35.012,7 Dec 2013 18:12:03.205,928.193
40,7 Dec 2013 19:36:43.739,7 Dec 2013 19:50:54.246,850.507
41,7 Dec 2013 21:19:18.995,7 Dec 2013 21:30:50.348,691.352
42,7 Dec 2013 23:05:23.067,7 Dec 2013 23:21:13.805,950.738
43,8 Dec 2013 00:49:52.730,8 Dec 2013 01:04:36.025,883.295
44,8 Dec 2013 13:39:08.438,8 Dec 2013 13:45:13.581,365.142
45,8 Dec 2013 15:14:23.222,8 Dec 2013 15:25:59.602,696.381
46,8 Dec 2013 16:51:34.816,8 Dec 2013 17:08:04.483,989.667
47,8 Dec 2013 18:38:11.951,8 Dec 2013 18:54:19.129,967.178
48,8 Dec 2013 20:26:21.699,8 Dec 2013 20:42:29.090,967.391
49,8 Dec 2013 22:12:08.391,8 Dec 2013 22:28:29.438,981.047

"Access","Start Time (UTCG)","Stop Time (UTCG)","Duration (sec)"
1,3 Dec 2013 01:58:35.365,3 Dec 2013 02:14:42.807,967.442
2,3 Dec 2013 03:42:56.654,3 Dec 2013 03:55:11.112,734.457
3,3 Dec 2013 11:28:22.179,3 Dec 2013 11:41:55.429,813.250
4,3 Dec 2013 13:09:02.273,3 Dec 2013 13:23:35.550,873.277
5,3 Dec 2013 14:49:02.503,3 Dec 2013 15:03:59.428,896.925
6,3 Dec 2013 16:28:09.265,3 Dec 2013 16:43:31.436,922.171
7,3 Dec 2013 18:06:44.497,3 Dec 2013 18:22:34.762,950.265
8,3 Dec 2013 19:45:44.996,3 Dec 2013 20:01:15.773,930.778
9,3 Dec 2013 21:31:55.881,3 Dec 2013 21:46:15.062,859.180
10,3 Dec 2013 23:19:03.937,3 Dec 2013 23:35:20.728,976.790
11,4 Dec 2013 01:04:17.484,4 Dec 2013 01:19:11.140,893.656
12,4 Dec 2013 17:07:27.603,4 Dec 2013 17:23:02.550,934.947
13,4 Dec 2013 18:52:39.877,4 Dec 2013 19:09:16.156,996.278
14,4 Dec 2013 20:40:50.780,4 Dec 2013 20:57:00.836,970.056
15,4 Dec 2013 22:27:01.497,4 Dec 2013 22:43:42.751,1001.254
16,5 Dec 2013 14:34:08.713,5 Dec 2013 14:45:18.796,670.083
17,5 Dec 2013 16:14:53.658,5 Dec 2013 16:31:47.119,1013.461
18,5 Dec 2013 18:03:08.081,5 Dec 2013 18:17:58.570,890.490
19,5 Dec 2013 19:50:31.542,5 Dec 2013 20:07:03.892,992.350
20,5 Dec 2013 21:33:16.213,5 Dec 2013 21:48:38.477,922.264
21,5 Dec 2013 23:12:31.100,5 Dec 2013 23:25:54.620,803.521
22,6 Dec 2013 00:52:09.393,6 Dec 2013 01:03:08.736,659.343
23,6 Dec 2013 02:32:28.040,6 Dec 2013 02:41:03.345,515.305
24,6 Dec 2013 04:14:51.247,6 Dec 2013 04:18:50.123,238.876
25,6 Dec 2013 12:02:59.147,6 Dec 2013 12:03:49.786,50.640
26,6 Dec 2013 13:36:30.616,6 Dec 2013 13:53:10.004,999.387
27,6 Dec 2013 15:24:37.260,6 Dec 2013 15:36:17.198,699.938
28,6 Dec 2013 17:09:08.360,6 Dec 2013 17:20:42.552,694.192
29,6 Dec 2013 18:47:58.161,6 Dec 2013 19:02:16.577,858.415
30,6 Dec 2013 20:27:07.315,6 Dec 2013 20:42:20.947,913.632
31,6 Dec 2013 22:06:43.118,6 Dec 2013 22:22:11.391,928.272
32,6 Dec 2013 23:47:09.583,7 Dec 2013 00:02:36.530,926.947
33,7 Dec 2013 01:28:39.699,7 Dec 2013 01:44:05.906,926.207
34,7 Dec 2013 03:11:38.504,7 Dec 2013 03:25:40.792,842.289
35,7 Dec 2013 10:57:08.703,7 Dec 2013 11:13:07.175,958.472
36,7 Dec 2013 12:38:56.039,7 Dec 2013 12:55:08.355,972.316
37,7 Dec 2013 14:20:07.168,7 Dec 2013 14:36:09.952,962.784
38,7 Dec 2013 16:00:19.293,7 Dec 2013 16:16:12.683,953.390
39,7 Dec 2013 17:39:58.454,7 Dec 2013 17:55:32.586,934.132
40,7 Dec 2013 19:19:56.766,7 Dec 2013 19:34:27.431,870.665
41,7 Dec 2013 21:01:43.531,7 Dec 2013 21:12:46.927,663.396
42,7 Dec 2013 22:48:00.949,7 Dec 2013 23:03:07.011,906.062
43,8 Dec 2013 00:32:16.075,8 Dec 2013 00:48:06.201,950.126
44,8 Dec 2013 13:23:26.532,8 Dec 2013 13:28:11.042,284.509
45,8 Dec 2013 14:58:26.544,8 Dec 2013 15:09:17.672,651.128
46,8 Dec 2013 16:34:34.628,8 Dec 2013 16:50:12.944,938.316
47,8 Dec 2013 18:20:05.649,8 Dec 2013 18:36:33.150,987.500
48,8 Dec 2013 20:08:32.843,8 Dec 2013 20:24:22.097,949.254
49,8 Dec 2013 21:54:30.345,8 Dec 2013 22:11:18.357,1008.012

"Access","Start Time (UTCG)","Stop Time (UTCG)","Duration (sec)"
1,3 Dec 2013 01:41:30.114,3 Dec 2013 01:56:51.757,921.642
2,3 Dec 2013 03:25:06.981,3 Dec 2013 03:39:23.506,856.525
3,3 Dec 2013 11:11:34.431,3 Dec 2013 11:24:49.434,795.003
4,3 Dec 2013 12:52:17.514,3 Dec 2013 13:06:44.785,867.271
5,3 Dec 2013 14:32:26.224,3 Dec 2013 14:47:19.748,893.524
6,3 Dec 2013 16:11:41.391,3 Dec 2013 16:26:58.604,917.213
7,3 Dec 2013 17:50:18.771,3 Dec 2013 18:06:05.604,946.833
8,3 Dec 2013 19:29:09.869,3 Dec 2013 19:44:51.098,941.229
9,3 Dec 2013 21:13:38.632,3 Dec 2013 21:28:15.256,876.624
10,3 Dec 2013 23:01:30.224,3 Dec 2013 23:17:17.839,947.614
11,4 Dec 2013 00:46:35.865,4 Dec 2013 01:02:32.651,956.786
12,4 Dec 2013 16:50:45.091,4 Dec 2013 17:05:03.203,858.111
13,4 Dec 2013 18:34:42.679,4 Dec 2013 18:51:33.837,1011.158
14,4 Dec 2013 20:22:56.764,4 Dec 2013 20:38:54.976,958.213
15,4 Dec 2013 22:09:21.502,4 Dec 2013 22:26:19.803,1018.301
16,4 Dec 2013 23:58:25.143,5 Dec 2013 00:05:18.607,413.464
17,5 Dec 2013 14:19:21.958,5 Dec 2013 14:26:12.252,410.294
18,5 Dec 2013 15:57:22.843,5 Dec 2013 16:14:16.472,1013.629
19,5 Dec 2013 17:44:55.734,5 Dec 2013 18:00:01.088,905.354
20,5 Dec 2013 19:32:50.711,5 Dec 2013 19:48:57.633,966.922
21,5 Dec 2013 21:16:46.473,5 Dec 2013 21:32:20.961,934.487
22,5 Dec 2013 22:55:56.972,5 Dec 2013 23:09:43.781,826.808
23,6 Dec 2013 00:35:31.120,6 Dec 2013 00:46:54.110,682.990
24,6 Dec 2013 02:15:40.142,6 Dec 2013 02:24:41.462,541.320
25,6 Dec 2013 03:57:26.913,6 Dec 2013 04:02:44.216,317.302
26,6 Dec 2013 13:19:29.426,6 Dec 2013 13:35:51.683,982.256
27,6 Dec 2013 15:05:53.607,6 Dec 2013 15:19:05.241,791.633
28,6 Dec 2013 16:52:44.180,6 Dec 2013 17:03:29.975,645.796
29,6 Dec 2013 18:31:28.205,6 Dec 2013 18:45:29.719,841.514
30,6 Dec 2013 20:10:34.485,6 Dec 2013 20:25:42.835,908.350
31,6 Dec 2013 21:50:04.303,6 Dec 2013 22:05:31.620,927.317
32,6 Dec 2013 23:30:20.774,6 Dec 2013 23:45:48.472,927.698
33,7 Dec 2013 01:11:40.585,7 Dec 2013 01:27:05.841,925.256
34,7 Dec 2013 02:54:09.013,7 Dec 2013 03:09:33.164,924.151
35,7 Dec 2013 10:40:47.587,7 Dec 2013 10:55:50.451,902.864
36,7 Dec 2013 12:21:57.986,7 Dec 2013 12:38:12.289,974.303
37,7 Dec 2013 14:03:19.764,7 Dec 2013 14:19:23.963,964.200
38,7 Dec 2013 15:43:40.566,7 Dec 2013 15:59:35.792,955.226
39,7 Dec 2013 17:23:22.357,7 Dec 2013 17:39:01.326,938.968
40,7 Dec 2013 19:03:12.600,7 Dec 2013 19:17:59.827,887.228
41,7 Dec 2013 20:44:32.005,7 Dec 2013 20:56:28.867,716.862
42,7 Dec 2013 22:30:34.917,7 Dec 2013 22:44:48.155,853.238
43,8 Dec 2013 00:14:47.465,8 Dec 2013 00:31:16.289,988.824
44,8 Dec 2013 13:07:57.820,8 Dec 2013 13:10:53.256,175.437
45,8 Dec 2013 14:42:31.385,8 Dec 2013 14:52:34.023,602.638
46,8 Dec 2013 16:18:27.985,8 Dec 2013 16:32:32.719,844.734
47,8 Dec 2013 18:02:04.876,8 Dec 2013 18:18:50.811,1005.936
48,8 Dec 2013 19:50:37.734,8 Dec 2013 20:06:14.193,936.459
49,8 Dec 2013 21:36:54.934,8 Dec 2013 21:53:53.463,1018.529
50,8 Dec 2013 23:24:37.927,8 Dec 2013 23:33:33.806,535.880

"Access","Start Time (UTCG)","Stop Time (UTCG)","Duration (sec)"
1,3 Dec 2013 01:03:55.236,3 Dec 2013 01:13:21.912,566.676
2,3 Dec 2013 02:44:40.381,3 Dec 2013 03:01:42.826,1022.445
3,3 Dec 2013 04:32:29.346,3 Dec 2013 04:48:20.456,951.109
4,3 Dec 2013 06:19:37.350,3 Dec 2013 06:36:31.451,1014.101
5,3 Dec 2013 08:06:04.538,3 Dec 2013 08:19:40.210,815.672
6,4 Dec 2013 00:08:46.850,4 Dec 2013 00:24:44.709,957.859
7,4 Dec 2013 01:54:08.277,4 Dec 2013 02:10:17.795,969.517
8,4 Dec 2013 03:42:37.859,4 Dec 2013 03:58:14.900,937.040
9,4 Dec 2013 05:28:54.254,4 Dec 2013 05:45:48.154,1013.900
10,4 Dec 2013 07:10:50.944,4 Dec 2013 07:23:43.959,773.015
11,4 Dec 2013 08:51:07.816,4 Dec 2013 08:59:24.295,496.479
12,4 Dec 2013 21:32:38.726,4 Dec 2013 21:46:44.300,845.573
13,4 Dec 2013 23:15:10.365,4 Dec 2013 23:31:03.721,953.355
14,5 Dec 2013 01:06:13.999,5 Dec 2013 01:15:58.069,584.070
15,5 Dec 2013 02:46:22.273,5 Dec 2013 02:59:47.351,805.078
16,5 Dec 2013 04:25:06.693,5 Dec 2013 04:40:20.317,913.624
17,5 Dec 2013 06:04:14.576,5 Dec 2013 06:20:00.685,946.110
18,5 Dec 2013 07:43:56.184,5 Dec 2013 07:59:54.093,957.909
19,5 Dec 2013 09:24:31.535,5 Dec 2013 09:40:37.884,966.349
20,5 Dec 2013 11:06:06.619,5 Dec 2013 11:22:33.584,986.964
21,5 Dec 2013 18:56:11.789,5 Dec 2013 19:06:32.385,620.595
22,5 Dec 2013 20:34:37.744,5 Dec 2013 20:50:39.275,961.532
23,5 Dec 2013 22:17:04.665,5 Dec 2013 22:32:33.000,928.336
24,5 Dec 2013 23:57:55.689,6 Dec 2013 00:13:26.632,930.943
25,6 Dec 2013 01:37:56.663,6 Dec 2013 01:53:21.220,924.558
26,6 Dec 2013 03:17:46.982,6 Dec 2013 03:32:39.086,892.104
27,6 Dec 2013 04:58:28.978,6 Dec 2013 05:11:37.913,788.935
28,6 Dec 2013 06:41:58.142,6 Dec 2013 06:52:59.629,661.487
29,6 Dec 2013 08:26:07.445,6 Dec 2013 08:42:41.623,994.179
30,6 Dec 2013 10:11:30.782,6 Dec 2013 10:22:26.055,655.274
31,6 Dec 2013 19:40:15.976,6 Dec 2013 19:46:57.724,401.748
32,6 Dec 2013 21:18:16.946,6 Dec 2013 21:27:57.613,580.667
33,6 Dec 2013 22:55:42.467,6 Dec 2013 23:07:51.937,729.469
34,7 Dec 2013 00:32:46.444,7 Dec 2013 00:47:18.887,872.443
35,7 Dec 2013 02:11:53.068,7 Dec 2013 02:28:55.291,1022.224
36,7 Dec 2013 04:00:13.523,7 Dec 2013 04:15:31.952,918.429
37,7 Dec 2013 05:47:25.980,7 Dec 2013 06:04:04.364,998.384
38,7 Dec 2013 07:33:12.632,7 Dec 2013 07:47:38.570,865.938
39,7 Dec 2013 23:36:38.637,7 Dec 2013 23:52:08.661,930.025
40,8 Dec 2013 01:21:35.327,8 Dec 2013 01:38:10.096,994.769
41,8 Dec 2013 03:09:48.184,8 Dec 2013 03:25:53.121,964.937
42,8 Dec 2013 04:56:06.156,8 Dec 2013 05:12:52.930,1006.774
43,8 Dec 2013 21:02:13.520,8 Dec 2013 21:14:27.049,733.529
44,8 Dec 2013 22:43:25.129,8 Dec 2013 23:00:05.988,1000.859
45,9 Dec 2013 00:32:23.174,9 Dec 2013 00:45:54.983,811.809

"Access","Start Time (UTCG)","Stop Time (UTCG)","Duration (sec)"
1,3 Dec 2013 02:27:09.304,3 Dec 2013 02:44:02.268,1012.963
2,3 Dec 2013 04:14:22.904,3 Dec 2013 04:30:23.715,960.811
3,3 Dec 2013 06:01:57.513,3 Dec 2013 06:18:38.016,1000.503
4,3 Dec 2013 07:48:03.114,3 Dec 2013 08:03:10.309,907.195
5,3 Dec 2013 23:52:03.893,4 Dec 2013 00:06:59.108,895.216
6,4 Dec 2013 01:36:07.630,4 Dec 2013 01:52:38.961,991.331
7,4 Dec 2013 03:24:42.456,4 Dec 2013 03:40:02.900,920.444
8,4 Dec 2013 05:11:12.592,4 Dec 2013 05:28:14.951,1022.359
9,4 Dec 2013 06:54:13.395,4 Dec 2013 07:07:41.768,808.373
10,4 Dec 2013 08:34:20.323,4 Dec 2013 08:43:30.957,550.634
11,4 Dec 2013 21:16:50.367,4 Dec 2013 21:28:48.119,717.752
12,4 Dec 2013 22:57:22.583,4 Dec 2013 23:13:48.649,986.065
13,5 Dec 2013 00:47:31.893,5 Dec 2013 00:58:03.980,632.087
14,5 Dec 2013 02:29:58.444,5 Dec 2013 02:42:49.833,771.389
15,5 Dec 2013 04:08:37.540,5 Dec 2013 04:23:40.746,903.206
16,5 Dec 2013 05:47:41.467,5 Dec 2013 06:03:24.442,942.975
17,5 Dec 2013 07:27:15.991,5 Dec 2013 07:43:12.394,956.403
18,5 Dec 2013 09:07:41.378,5 Dec 2013 09:23:46.236,964.859
19,5 Dec 2013 10:49:06.993,5 Dec 2013 11:05:22.890,975.896
20,5 Dec 2013 12:33:51.091,5 Dec 2013 12:42:46.628,535.537
21,5 Dec 2013 18:42:28.363,5 Dec 2013 18:47:12.312,283.949
22,5 Dec 2013 20:17:18.137,5 Dec 2013 20:33:42.685,984.548
23,5 Dec 2013 22:00:09.525,5 Dec 2013 22:15:37.791,928.266
24,5 Dec 2013 23:41:11.458,5 Dec 2013 23:56:42.198,930.740
25,6 Dec 2013 01:21:18.549,6 Dec 2013 01:36:45.369,926.820
26,6 Dec 2013 03:01:07.025,6 Dec 2013 03:16:07.664,900.638
27,6 Dec 2013 04:41:34.825,6 Dec 2013 04:55:09.436,814.611
28,6 Dec 2013 06:24:16.747,6 Dec 2013 06:34:16.270,599.523
29,6 Dec 2013 08:08:51.830,6 Dec 2013 08:24:59.475,967.644
30,6 Dec 2013 09:53:24.808,6 Dec 2013 10:06:51.470,806.663
31,6 Dec 2013 19:23:58.192,6 Dec 2013 19:29:53.580,355.388
32,6 Dec 2013 21:01:58.332,6 Dec 2013 21:11:14.099,555.767
33,6 Dec 2013 22:39:30.978,6 Dec 2013 22:51:15.196,704.218
34,7 Dec 2013 00:16:34.913,7 Dec 2013 00:30:45.975,851.062
35,7 Dec 2013 01:54:16.357,7 Dec 2013 02:11:14.485,1018.128
36,7 Dec 2013 03:42:02.301,7 Dec 2013 03:57:34.566,932.265
37,7 Dec 2013 05:29:48.423,7 Dec 2013 05:46:06.477,978.054
38,7 Dec 2013 07:15:23.313,7 Dec 2013 07:31:02.667,939.354
39,7 Dec 2013 23:20:01.041,7 Dec 2013 23:34:12.205,851.163
40,8 Dec 2013 01:03:39.347,8 Dec 2013 01:20:29.284,1009.936
41,8 Dec 2013 02:51:53.158,8 Dec 2013 03:07:46.246,953.088
42,8 Dec 2013 04:38:24.771,8 Dec 2013 04:55:25.637,1020.866
43,8 Dec 2013 06:27:24.714,8 Dec 2013 06:35:18.595,473.881
44,8 Dec 2013 20:47:00.765,8 Dec 2013 20:55:52.952,532.188
45,8 Dec 2013 22:25:50.488,8 Dec 2013 22:42:40.835,1010.347
46,9 Dec 2013 00:14:02.475,9 Dec 2013 00:27:57.985,835.510
47,9 Dec 2013 02:02:17.204,9 Dec 2013 02:17:31.561,914.357

"Access","Start Time (UTCG)","Stop Time (UTCG)","Duration (sec)"
1,3 Dec 2013 02:09:50.689,3 Dec 2013 02:26:18.555,987.866
2,3 Dec 2013 03:56:16.306,3 Dec 2013 04:12:32.233,975.927
3,3 Dec 2013 05:44:14.098,3 Dec 2013 06:00:37.766,983.667
4,3 Dec 2013 07:30:13.664,3 Dec 2013 07:46:19.285,965.621
5,3 Dec 2013 23:35:43.871,3 Dec 2013 23:49:01.060,797.189
6,4 Dec 2013 01:18:15.490,4 Dec 2013 01:35:03.758,1008.267
7,4 Dec 2013 03:06:40.998,4 Dec 2013 03:21:53.600,912.602
8,4 Dec 2013 04:53:32.956,4 Dec 2013 05:10:30.735,1017.779
9,4 Dec 2013 06:37:37.144,4 Dec 2013 06:51:37.531,840.387
10,4 Dec 2013 08:17:35.094,4 Dec 2013 08:27:36.280,601.186
11,4 Dec 2013 09:59:05.275,4 Dec 2013 10:02:25.636,200.360
12,4 Dec 2013 21:01:51.987,4 Dec 2013 21:10:14.426,502.438
13,4 Dec 2013 22:39:50.691,4 Dec 2013 22:56:32.611,1001.920
14,5 Dec 2013 00:28:45.708,5 Dec 2013 00:40:25.538,699.831
15,5 Dec 2013 02:13:36.478,5 Dec 2013 02:25:47.013,730.536
16,5 Dec 2013 03:52:08.971,5 Dec 2013 04:06:59.412,890.441
17,5 Dec 2013 05:31:09.172,5 Dec 2013 05:46:48.374,939.202
18,5 Dec 2013 07:10:37.232,5 Dec 2013 07:26:32.023,954.791
19,5 Dec 2013 08:50:52.953,5 Dec 2013 09:06:56.390,963.438
20,5 Dec 2013 10:32:08.785,5 Dec 2013 10:48:22.474,973.689
21,5 Dec 2013 12:15:33.376,5 Dec 2013 12:27:52.170,738.794
22,5 Dec 2013 20:00:18.135,5 Dec 2013 20:16:40.432,982.297
23,5 Dec 2013 21:43:12.315,5 Dec 2013 21:58:40.935,928.620
24,5 Dec 2013 23:24:25.661,5 Dec 2013 23:39:55.999,930.338
25,6 Dec 2013 01:04:39.869,6 Dec 2013 01:20:08.381,928.512
26,6 Dec 2013 02:44:28.101,6 Dec 2013 02:59:35.726,907.625
27,6 Dec 2013 04:24:44.168,6 Dec 2013 04:38:40.318,836.149
28,6 Dec 2013 06:06:53.623,6 Dec 2013 06:17:20.161,626.539
29,6 Dec 2013 07:51:36.259,6 Dec 2013 08:07:01.704,925.445
30,6 Dec 2013 09:35:40.799,6 Dec 2013 09:50:42.787,901.988
31,6 Dec 2013 19:07:45.201,6 Dec 2013 19:12:41.190,295.989
32,6 Dec 2013 20:45:38.617,6 Dec 2013 20:54:28.637,530.020
33,6 Dec 2013 22:23:18.573,6 Dec 2013 22:34:37.696,679.123
34,7 Dec 2013 00:00:24.140,7 Dec 2013 00:14:12.412,828.272
35,7 Dec 2013 01:37:46.487,7 Dec 2013 01:53:30.183,943.697
36,7 Dec 2013 03:23:50.442,7 Dec 2013 03:39:43.169,952.728
37,7 Dec 2013 05:12:06.224,7 Dec 2013 05:28:01.678,955.455
38,7 Dec 2013 06:57:42.655,7 Dec 2013 07:14:07.421,984.767
39,7 Dec 2013 23:03:49.950,7 Dec 2013 23:15:58.134,728.184
40,8 Dec 2013 00:45:51.625,8 Dec 2013 01:02:51.094,1019.470
41,8 Dec 2013 02:33:53.052,8 Dec 2013 02:49:41.301,948.249
42,8 Dec 2013 04:20:45.062,8 Dec 2013 04:37:46.983,1021.921
43,8 Dec 2013 06:08:13.509,8 Dec 2013 06:19:58.043,704.534
44,8 Dec 2013 22:08:30.214,8 Dec 2013 22:25:14.635,1004.420
45,8 Dec 2013 23:55:41.039,9 Dec 2013 00:10:11.027,869.988
46,9 Dec 2013 01:44:34.167,9 Dec 2013 01:59:08.489,874.322

"Access","Start Time (UTCG)","Stop Time (UTCG)","Duration (sec)"
1,3 Dec 2013 01:52:46.560,3 Dec 2013 02:08:28.912,942.352
2,3 Dec 2013 03:38:12.333,3 Dec 2013 03:54:45.597,993.264
3,3 Dec 2013 05:26:25.922,3 Dec 2013 05:42:33.175,967.253
4,3 Dec 2013 07:12:31.149,3 Dec 2013 07:29:11.623,1000.474
5,3 Dec 2013 23:19:57.783,3 Dec 2013 23:30:39.390,641.607
6,4 Dec 2013 01:00:33.779,4 Dec 2013 01:17:30.571,1016.792
7,4 Dec 2013 02:48:34.396,4 Dec 2013 03:03:49.527,915.131
8,4 Dec 2013 04:35:53.382,4 Dec 2013 04:52:36.801,1003.419
9,4 Dec 2013 06:21:02.195,4 Dec 2013 06:35:31.032,868.836
10,4 Dec 2013 08:00:51.744,4 Dec 2013 08:11:40.330,648.586
11,4 Dec 2013 09:41:52.899,4 Dec 2013 09:46:50.390,297.491
12,4 Dec 2013 22:22:35.036,4 Dec 2013 22:39:14.218,999.182
13,5 Dec 2013 00:10:03.851,5 Dec 2013 00:22:57.698,773.846
14,5 Dec 2013 01:57:17.087,5 Dec 2013 02:08:37.793,680.706
15,5 Dec 2013 03:35:41.039,5 Dec 2013 03:50:15.896,874.856
16,5 Dec 2013 05:14:37.610,5 Dec 2013 05:30:12.231,934.621
17,5 Dec 2013 06:53:59.821,5 Dec 2013 07:09:52.833,953.011
18,5 Dec 2013 08:34:06.246,5 Dec 2013 08:50:08.311,962.065
19,5 Dec 2013 10:15:12.077,5 Dec 2013 10:31:23.692,971.614
20,5 Dec 2013 11:57:50.566,5 Dec 2013 12:12:10.711,860.145
21,5 Dec 2013 19:43:37.786,5 Dec 2013 19:59:30.135,952.349
22,5 Dec 2013 21:26:13.021,5 Dec 2013 21:41:42.529,929.509
23,5 Dec 2013 23:07:38.187,5 Dec 2013 23:23:07.988,929.802
24,6 Dec 2013 00:48:00.422,6 Dec 2013 01:03:30.135,929.713
25,6 Dec 2013 02:27:49.885,6 Dec 2013 02:43:03.213,913.328
26,6 Dec 2013 04:07:56.486,6 Dec 2013 04:22:10.672,854.186
27,6 Dec 2013 05:49:38.573,6 Dec 2013 06:00:57.229,678.656
28,6 Dec 2013 07:34:19.277,6 Dec 2013 07:48:48.828,869.552
29,6 Dec 2013 09:18:08.842,6 Dec 2013 09:34:10.055,961.213
30,6 Dec 2013 18:51:43.313,6 Dec 2013 18:55:14.259,210.946
31,6 Dec 2013 20:29:18.048,6 Dec 2013 20:37:40.838,502.790
32,6 Dec 2013 22:07:05.067,6 Dec 2013 22:17:59.346,654.279
33,6 Dec 2013 23:44:13.806,6 Dec 2013 23:57:38.214,804.408
34,7 Dec 2013 01:21:28.753,7 Dec 2013 01:36:53.063,924.310
35,7 Dec 2013 03:05:41.061,7 Dec 2013 03:21:57.000,975.939
36,7 Dec 2013 04:54:18.051,7 Dec 2013 05:09:52.776,934.725
37,7 Dec 2013 06:40:06.909,7 Dec 2013 06:56:56.131,1009.222
38,7 Dec 2013 08:31:19.876,7 Dec 2013 08:31:44.841,24.965
39,7 Dec 2013 22:48:24.742,7 Dec 2013 22:57:06.731,521.989
40,8 Dec 2013 00:28:13.989,8 Dec 2013 00:45:13.942,1019.952
41,8 Dec 2013 02:15:48.941,8 Dec 2013 02:31:40.420,951.479
42,8 Dec 2013 04:03:05.112,8 Dec 2013 04:19:58.489,1013.377
43,8 Dec 2013 05:49:48.312,8 Dec 2013 06:03:45.782,837.470
44,8 Dec 2013 21:51:25.543,8 Dec 2013 22:07:45.475,979.932
45,8 Dec 2013 23:37:23.327,8 Dec 2013 23:52:32.390,909.063
46,9 Dec 2013 01:26:44.456,9 Dec 2013 01:40:43.101,838.645

"Access","Start Time (UTCG)","Stop Time (UTCG)","Duration (sec)"
1,3 Dec 2013 01:36:00.154,3 Dec 2013 01:50:29.284,869.130
2,3 Dec 2013 03:20:13.596,3 Dec 2013 03:37:02.776,1009.180
3,3 Dec 2013 05:08:32.250,3 Dec 2013 05:24:27.016,954.766
4,3 Dec 2013 06:54:52.394,3 Dec 2013 07:11:49.925,1017.531
5,3 Dec 2013 08:43:45.346,3 Dec 2013 08:50:36.211,410.866
6,3 Dec 2013 23:05:26.743,3 Dec 2013 23:11:13.122,346.379
7,4 Dec 2013 00:43:04.061,4 Dec 2013 00:59:57.668,1013.607
8,4 Dec 2013 02:30:24.748,4 Dec 2013 02:45:52.144,927.397
9,4 Dec 2013 04:18:12.090,4 Dec 2013 04:34:34.707,982.617
10,4 Dec 2013 06:04:28.588,4 Dec 2013 06:19:22.056,893.468
11,4 Dec 2013 07:44:10.035,4 Dec 2013 07:55:43.060,693.025
12,4 Dec 2013 09:24:52.495,4 Dec 2013 09:31:05.307,372.812
13,4 Dec 2013 22:05:36.420,4 Dec 2013 22:21:51.821,975.401
14,4 Dec 2013 23:51:32.106,5 Dec 2013 00:05:36.504,844.398
15,5 Dec 2013 01:41:01.427,5 Dec 2013 01:51:20.612,619.185
16,5 Dec 2013 03:19:13.837,5 Dec 2013 03:33:29.742,855.905
17,5 Dec 2013 04:58:06.706,5 Dec 2013 05:13:35.716,929.011
18,5 Dec 2013 06:37:23.653,5 Dec 2013 06:53:14.676,951.023
19,5 Dec 2013 08:17:21.247,5 Dec 2013 08:33:21.956,960.709
20,5 Dec 2013 09:58:16.924,5 Dec 2013 10:14:26.636,969.711
21,5 Dec 2013 11:40:25.421,5 Dec 2013 11:56:00.135,934.714
22,5 Dec 2013 19:27:18.909,5 Dec 2013 19:42:09.626,890.717
23,5 Dec 2013 21:09:11.650,5 Dec 2013 21:24:42.699,931.048
24,5 Dec 2013 22:50:48.923,5 Dec 2013 23:06:18.141,929.218
25,6 Dec 2013 00:31:20.025,6 Dec 2013 00:46:50.503,930.478
26,6 Dec 2013 02:11:12.084,6 Dec 2013 02:26:30.026,917.943
27,6 Dec 2013 03:51:11.336,6 Dec 2013 04:05:40.576,869.241
28,6 Dec 2013 05:32:30.112,6 Dec 2013 05:44:32.156,722.044
29,6 Dec 2013 07:16:59.079,6 Dec 2013 07:30:22.060,802.981
30,6 Dec 2013 09:00:44.287,6 Dec 2013 09:17:17.688,993.401
31,6 Dec 2013 20:12:56.995,6 Dec 2013 20:20:50.218,473.224
32,6 Dec 2013 21:50:50.335,6 Dec 2013 22:01:20.000,629.666
33,6 Dec 2013 23:28:03.612,6 Dec 2013 23:41:03.410,779.798
34,7 Dec 2013 01:05:13.046,7 Dec 2013 01:20:22.506,909.460
35,7 Dec 2013 02:47:36.959,7 Dec 2013 03:04:14.730,997.771
36,7 Dec 2013 04:36:23.045,7 Dec 2013 04:51:42.914,919.869
37,7 Dec 2013 06:22:33.519,7 Dec 2013 06:39:30.834,1017.315
38,7 Dec 2013 08:09:53.079,7 Dec 2013 08:19:17.573,564.494
39,8 Dec 2013 00:10:48.061,8 Dec 2013 00:27:36.020,1007.959
40,8 Dec 2013 01:57:42.831,8 Dec 2013 02:13:44.872,962.041
41,8 Dec 2013 03:45:23.247,8 Dec 2013 04:02:01.888,998.641
42,8 Dec 2013 05:31:43.994,8 Dec 2013 05:47:06.112,922.118
43,8 Dec 2013 21:34:38.383,8 Dec 2013 21:50:10.870,932.487
44,8 Dec 2013 23:19:13.101,8 Dec 2013 23:34:59.989,946.888
45,9 Dec 2013 01:08:46.242,9 Dec 2013 01:22:19.717,813.476

"Access","Start Time (UTCG)","Stop Time (UTCG)","Duration (sec)"
1,3 Dec 2013 01:19:37.727,3 Dec 2013 01:32:12.543,754.816
2,3 Dec 2013 03:02:22.333,3 Dec 2013 03:19:22.391,1020.058
3,3 Dec 2013 04:50:33.079,3 Dec 2013 05:06:22.025,948.946
4,3 Dec 2013 06:37:15.092,3 Dec 2013 06:54:15.999,1020.907
5,3 Dec 2013 08:24:27.983,3 Dec 2013 08:35:39.388,671.404
6,4 Dec 2013 00:25:47.818,4 Dec 2013 00:42:23.149,995.331
7,4 Dec 2013 02:12:14.973,4 Dec 2013 02:28:01.783,946.810
8,4 Dec 2013 04:00:27.402,4 Dec 2013 04:16:26.524,959.122
9,4 Dec 2013 05:46:40.216,4 Dec 2013 06:03:09.011,988.795
10,4 Dec 2013 07:27:29.804,4 Dec 2013 07:39:44.324,734.520
11,4 Dec 2013 09:07:58.187,4 Dec 2013 09:15:15.994,437.807
12,4 Dec 2013 21:48:56.514,4 Dec 2013 22:04:23.095,926.581
13,4 Dec 2013 23:33:13.750,4 Dec 2013 23:48:19.171,905.420
14,5 Dec 2013 01:24:42.957,5 Dec 2013 01:33:52.990,550.033
15,5 Dec 2013 03:02:47.513,5 Dec 2013 03:16:40.422,832.909
16,5 Dec 2013 04:41:36.412,5 Dec 2013 04:56:58.523,922.111
17,5 Dec 2013 06:20:48.606,5 Dec 2013 06:36:37.360,948.754
18,5 Dec 2013 08:00:37.916,5 Dec 2013 08:16:37.249,959.333
19,5 Dec 2013 09:41:23.391,5 Dec 2013 09:57:31.355,967.964
20,5 Dec 2013 11:23:11.703,5 Dec 2013 11:39:26.875,975.172
21,5 Dec 2013 19:11:26.243,5 Dec 2013 19:24:34.208,787.964
22,5 Dec 2013 20:52:08.255,5 Dec 2013 21:07:41.571,933.316
23,5 Dec 2013 22:33:57.775,5 Dec 2013 22:49:26.466,928.691
24,6 Dec 2013 00:14:38.499,6 Dec 2013 00:30:09.371,930.872
25,6 Dec 2013 01:54:34.429,6 Dec 2013 02:09:56.067,921.638
26,6 Dec 2013 03:34:28.296,6 Dec 2013 03:49:10.043,881.748
27,6 Dec 2013 05:15:27.179,6 Dec 2013 05:28:05.576,758.397
28,6 Dec 2013 06:59:33.201,6 Dec 2013 07:11:44.052,730.851
29,6 Dec 2013 08:43:24.441,6 Dec 2013 09:00:07.857,1003.416
30,6 Dec 2013 10:30:33.594,6 Dec 2013 10:36:51.095,377.501
31,6 Dec 2013 19:56:36.028,6 Dec 2013 20:03:56.141,440.113
32,6 Dec 2013 21:34:34.301,6 Dec 2013 21:44:39.489,605.188
33,6 Dec 2013 23:11:53.257,6 Dec 2013 23:24:27.992,754.735
34,7 Dec 2013 00:48:59.049,7 Dec 2013 01:03:51.082,892.032
35,7 Dec 2013 02:29:40.388,7 Dec 2013 02:46:34.740,1014.352
36,7 Dec 2013 04:18:21.174,7 Dec 2013 04:33:35.176,914.002
37,7 Dec 2013 06:05:00.463,7 Dec 2013 06:21:53.072,1012.609
38,7 Dec 2013 07:51:17.259,7 Dec 2013 08:03:48.804,751.545
39,7 Dec 2013 23:53:35.523,8 Dec 2013 00:09:55.195,979.673
40,8 Dec 2013 01:39:37.363,8 Dec 2013 01:55:54.935,977.573
41,8 Dec 2013 03:27:37.997,8 Dec 2013 03:43:59.262,981.264
42,8 Dec 2013 05:13:51.535,8 Dec 2013 05:30:07.189,975.654
43,8 Dec 2013 21:18:12.095,8 Dec 2013 21:32:27.058,854.963
44,8 Dec 2013 23:01:13.091,8 Dec 2013 23:17:31.808,978.717
45,9 Dec 2013 00:50:38.786,9 Dec 2013 01:04:02.630,803.844

