Raw and processed data/perplane variations/us_greatcircle_18sat/Aircraft-B747LAX_Sydney-Transmitter-adsb_out6212-To-Satellite-700km_p1_1-Receiver-adsb_satrcvr2 Access.csv

"Access","Start Time (UTCG)","Stop Time (UTCG)","Duration (sec)"
1,3 Dec 2013 04:02:52.854,3 Dec 2013 04:06:10.668,197.814
2,3 Dec 2013 05:43:54.793,3 Dec 2013 06:00:31.602,996.810
3,3 Dec 2013 07:32:04.169,3 Dec 2013 07:44:08.807,724.638
4,3 Dec 2013 13:01:21.714,3 Dec 2013 13:16:37.232,915.518
5,3 Dec 2013 14:43:35.235,3 Dec 2013 14:58:47.555,912.320
6,3 Dec 2013 16:26:45.975,3 Dec 2013 16:39:57.673,791.698
7,3 Dec 2013 18:12:38.480,3 Dec 2013 18:19:44.482,426.002
8,4 Dec 2013 02:56:12.586,4 Dec 2013 02:59:44.412,211.826
9,4 Dec 2013 04:38:04.992,4 Dec 2013 04:50:45.564,760.572
10,4 Dec 2013 06:23:02.154,4 Dec 2013 06:39:59.199,1017.045
11,4 Dec 2013 08:15:50.228,4 Dec 2013 08:18:07.927,137.699
12,4 Dec 2013 13:46:12.019,4 Dec 2013 13:59:49.684,817.664
13,4 Dec 2013 15:27:36.923,4 Dec 2013 15:41:01.321,804.397
14,5 Dec 2013 03:44:26.429,5 Dec 2013 03:52:13.320,466.892
15,5 Dec 2013 05:20:42.764,5 Dec 2013 05:35:17.424,874.661
16,5 Dec 2013 07:02:32.649,5 Dec 2013 07:19:06.538,993.889
17,5 Dec 2013 14:31:44.064,5 Dec 2013 14:43:37.012,712.949
18,5 Dec 2013 16:11:33.422,5 Dec 2013 16:25:40.205,846.783
19,6 Dec 2013 04:29:59.130,6 Dec 2013 04:44:25.494,866.364
20,6 Dec 2013 06:08:00.911,6 Dec 2013 06:23:39.883,938.973
21,6 Dec 2013 07:47:44.937,6 Dec 2013 08:00:24.411,759.474
22,6 Dec 2013 15:17:25.166,6 Dec 2013 15:27:54.376,629.210
23,6 Dec 2013 16:56:01.356,6 Dec 2013 17:10:31.604,870.248
24,7 Dec 2013 03:39:14.643,7 Dec 2013 03:53:39.109,864.465
25,7 Dec 2013 05:17:08.800,7 Dec 2013 05:32:36.671,927.870
26,7 Dec 2013 06:58:21.364,7 Dec 2013 07:08:01.444,580.081
27,7 Dec 2013 16:02:54.634,7 Dec 2013 16:12:26.089,571.455
28,7 Dec 2013 17:40:40.581,7 Dec 2013 17:55:31.577,890.996
29,8 Dec 2013 01:12:21.334,8 Dec 2013 01:22:30.743,609.409
30,8 Dec 2013 02:48:01.607,8 Dec 2013 03:03:00.405,898.798
31,8 Dec 2013 04:26:16.362,8 Dec 2013 04:41:43.638,927.276
32,8 Dec 2013 06:08:04.803,8 Dec 2013 06:17:34.289,569.485
33,8 Dec 2013 16:48:11.634,8 Dec 2013 16:56:44.361,512.727
34,8 Dec 2013 18:25:13.160,8 Dec 2013 18:40:32.117,918.957
35,9 Dec 2013 01:51:38.270,9 Dec 2013 02:06:25.135,886.865
36,9 Dec 2013 03:35:21.691,9 Dec 2013 03:50:43.934,922.243
37,9 Dec 2013 05:16:44.092,9 Dec 2013 05:28:08.084,683.992
38,9 Dec 2013 17:33:32.348,9 Dec 2013 17:40:10.072,397.724
39,9 Dec 2013 19:09:24.311,9 Dec 2013 19:25:17.935,953.624
40,10 Dec 2013 02:30:07.592,10 Dec 2013 02:46:12.424,964.832
41,10 Dec 2013 04:16:53.472,10 Dec 2013 04:31:51.077,897.605

"Access","Start Time (UTCG)","Stop Time (UTCG)","Duration (sec)"
1,3 Dec 2013 05:26:33.175,3 Dec 2013 05:42:29.536,956.361
2,3 Dec 2013 07:13:17.227,3 Dec 2013 07:27:29.239,852.012
3,3 Dec 2013 12:44:48.776,3 Dec 2013 12:58:36.216,827.440
4,3 Dec 2013 14:26:32.112,3 Dec 2013 14:41:54.551,922.439
5,3 Dec 2013 16:09:26.789,3 Dec 2013 16:23:08.279,821.490
6,3 Dec 2013 17:54:37.214,3 Dec 2013 18:03:22.766,525.552
7,4 Dec 2013 04:20:31.511,4 Dec 2013 04:31:53.407,681.896
8,4 Dec 2013 06:05:25.275,4 Dec 2013 06:22:19.424,1014.149
9,4 Dec 2013 07:54:26.806,4 Dec 2013 08:04:14.946,588.141
10,4 Dec 2013 13:30:22.802,4 Dec 2013 13:41:18.172,655.370
11,4 Dec 2013 15:10:04.855,4 Dec 2013 15:25:08.769,903.913
12,5 Dec 2013 03:29:29.517,5 Dec 2013 03:33:46.508,256.991
13,5 Dec 2013 05:04:25.382,5 Dec 2013 05:18:27.536,842.154
14,5 Dec 2013 06:44:48.583,5 Dec 2013 07:01:44.371,1015.787
15,5 Dec 2013 14:16:58.721,5 Dec 2013 14:24:21.612,442.891
16,5 Dec 2013 15:54:10.400,5 Dec 2013 16:09:38.446,928.046
17,6 Dec 2013 04:13:54.152,6 Dec 2013 04:27:33.585,819.433
18,6 Dec 2013 05:51:32.539,6 Dec 2013 06:07:18.784,946.245
19,6 Dec 2013 07:31:00.873,6 Dec 2013 07:44:26.971,806.098
20,6 Dec 2013 15:04:11.302,6 Dec 2013 15:07:29.736,198.434
21,6 Dec 2013 16:38:42.713,6 Dec 2013 16:54:22.905,940.193
22,7 Dec 2013 03:23:15.218,7 Dec 2013 03:36:51.284,816.066
23,7 Dec 2013 05:00:37.783,7 Dec 2013 05:16:19.002,941.219
24,7 Dec 2013 06:41:07.011,7 Dec 2013 06:52:32.303,685.292
25,7 Dec 2013 17:23:24.326,7 Dec 2013 17:39:14.617,950.291
26,8 Dec 2013 00:56:45.429,8 Dec 2013 01:05:29.167,523.738
27,8 Dec 2013 02:31:53.535,8 Dec 2013 02:46:23.517,869.982
28,8 Dec 2013 04:09:43.000,8 Dec 2013 04:25:24.128,941.128
29,8 Dec 2013 05:50:38.922,8 Dec 2013 06:02:01.448,682.526
30,8 Dec 2013 18:08:00.161,8 Dec 2013 18:24:03.291,963.130
31,9 Dec 2013 01:35:09.139,9 Dec 2013 01:48:03.428,774.289
32,9 Dec 2013 03:18:31.021,9 Dec 2013 03:34:20.124,949.103
33,9 Dec 2013 04:59:33.365,9 Dec 2013 05:12:05.398,752.032
34,9 Dec 2013 18:52:17.422,9 Dec 2013 19:08:33.786,976.364
35,10 Dec 2013 02:13:08.512,10 Dec 2013 02:28:06.250,897.738
36,10 Dec 2013 03:58:33.125,10 Dec 2013 04:14:24.220,951.095
37,10 Dec 2013 05:50:34.057,10 Dec 2013 05:58:06.556,452.499

"Access","Start Time (UTCG)","Stop Time (UTCG)","Duration (sec)"
1,3 Dec 2013 01:32:28.398,3 Dec 2013 01:39:54.696,446.299
2,3 Dec 2013 05:09:19.133,3 Dec 2013 05:24:11.456,892.323
3,3 Dec 2013 06:54:56.029,3 Dec 2013 07:10:31.155,935.126
4,3 Dec 2013 12:28:34.348,3 Dec 2013 12:40:00.547,686.200
5,3 Dec 2013 14:09:18.965,3 Dec 2013 14:25:01.775,942.811
6,3 Dec 2013 15:52:10.985,3 Dec 2013 16:06:17.545,846.561
7,3 Dec 2013 17:36:48.919,3 Dec 2013 17:46:50.904,601.985
8,4 Dec 2013 04:02:48.259,4 Dec 2013 04:12:59.175,610.916
9,4 Dec 2013 05:47:53.641,4 Dec 2013 06:04:26.710,993.069
10,4 Dec 2013 07:35:19.039,4 Dec 2013 07:48:12.814,773.775
11,4 Dec 2013 13:15:50.077,4 Dec 2013 13:21:16.042,325.966
12,4 Dec 2013 14:52:51.048,4 Dec 2013 15:08:49.528,958.480
13,5 Dec 2013 04:48:11.372,5 Dec 2013 05:01:32.117,800.744
14,5 Dec 2013 06:27:09.849,5 Dec 2013 06:44:08.816,1018.967
15,5 Dec 2013 08:16:03.294,5 Dec 2013 08:25:10.903,547.609
16,5 Dec 2013 15:37:06.056,5 Dec 2013 15:53:12.397,966.341
17,6 Dec 2013 03:57:56.540,6 Dec 2013 04:10:33.256,756.715
18,6 Dec 2013 05:35:06.928,6 Dec 2013 05:50:53.587,946.659
19,6 Dec 2013 07:14:19.735,6 Dec 2013 07:28:25.361,845.626
20,6 Dec 2013 08:56:29.260,6 Dec 2013 09:02:33.330,364.070
21,6 Dec 2013 16:21:44.190,6 Dec 2013 16:37:51.905,967.714
22,7 Dec 2013 03:07:23.868,7 Dec 2013 03:19:56.292,752.424
23,7 Dec 2013 04:44:11.350,7 Dec 2013 04:59:56.535,945.185
24,7 Dec 2013 06:24:05.099,7 Dec 2013 06:36:49.365,764.266
25,7 Dec 2013 17:06:29.360,7 Dec 2013 17:22:37.950,968.590
26,8 Dec 2013 00:41:32.868,8 Dec 2013 00:48:16.786,403.918
27,8 Dec 2013 02:15:49.588,8 Dec 2013 02:29:43.880,834.291
28,8 Dec 2013 03:53:14.305,8 Dec 2013 04:09:01.182,946.877
29,8 Dec 2013 05:33:29.008,8 Dec 2013 05:46:13.398,764.390
30,8 Dec 2013 17:51:08.703,8 Dec 2013 18:07:18.221,969.518
31,9 Dec 2013 01:19:18.078,9 Dec 2013 01:29:05.895,587.817
32,9 Dec 2013 03:00:41.371,9 Dec 2013 03:17:39.533,1018.163
33,9 Dec 2013 04:42:31.506,9 Dec 2013 04:55:56.375,804.869
34,9 Dec 2013 18:35:31.554,9 Dec 2013 18:51:37.031,965.477
35,9 Dec 2013 20:25:07.978,9 Dec 2013 20:26:43.912,95.934
36,10 Dec 2013 01:56:29.422,10 Dec 2013 02:09:39.877,790.456
37,10 Dec 2013 03:40:25.881,10 Dec 2013 03:56:55.918,990.036
38,10 Dec 2013 05:31:51.762,10 Dec 2013 05:42:11.907,620.145

"Access","Start Time (UTCG)","Stop Time (UTCG)","Duration (sec)"
1,3 Dec 2013 01:12:51.234,3 Dec 2013 01:23:30.794,639.560
2,3 Dec 2013 04:52:13.050,3 Dec 2013 05:05:34.253,801.204
3,3 Dec 2013 06:36:52.792,3 Dec 2013 06:53:19.353,986.561
4,3 Dec 2013 12:13:01.718,3 Dec 2013 12:20:23.875,442.158
5,3 Dec 2013 13:52:04.779,3 Dec 2013 14:08:18.911,974.132
6,3 Dec 2013 15:34:58.180,3 Dec 2013 15:49:25.825,867.644
7,3 Dec 2013 17:19:09.397,3 Dec 2013 17:30:12.880,663.483
8,4 Dec 2013 03:44:49.438,4 Dec 2013 03:54:12.162,562.724
9,4 Dec 2013 05:30:25.529,4 Dec 2013 05:46:20.839,955.310
10,4 Dec 2013 07:16:49.086,4 Dec 2013 07:31:36.250,887.164
11,4 Dec 2013 14:35:51.049,4 Dec 2013 14:52:08.226,977.177
12,5 Dec 2013 04:32:01.823,5 Dec 2013 04:44:29.868,748.044
13,5 Dec 2013 06:09:48.878,5 Dec 2013 06:26:20.803,991.925
14,5 Dec 2013 07:56:56.421,5 Dec 2013 08:09:28.275,751.855
15,5 Dec 2013 15:20:17.384,5 Dec 2013 15:36:25.289,967.905
16,6 Dec 2013 03:42:09.130,6 Dec 2013 03:53:21.754,672.624
17,6 Dec 2013 05:18:44.331,6 Dec 2013 05:34:24.064,939.733
18,6 Dec 2013 06:57:41.269,6 Dec 2013 07:12:19.772,878.503
19,6 Dec 2013 08:38:20.600,6 Dec 2013 08:47:46.655,566.055
20,6 Dec 2013 16:05:03.563,6 Dec 2013 16:21:01.066,957.504
21,7 Dec 2013 02:51:42.997,7 Dec 2013 03:02:51.919,668.923
22,7 Dec 2013 04:27:49.541,7 Dec 2013 04:43:29.407,939.866
23,7 Dec 2013 06:07:11.849,7 Dec 2013 06:20:56.606,824.757
24,7 Dec 2013 16:49:54.079,7 Dec 2013 17:05:43.318,949.239
25,8 Dec 2013 01:59:49.940,8 Dec 2013 02:13:01.278,791.338
26,8 Dec 2013 03:36:49.977,8 Dec 2013 03:52:35.136,945.158
27,8 Dec 2013 05:16:29.904,8 Dec 2013 05:30:15.409,825.505
28,8 Dec 2013 17:34:38.039,8 Dec 2013 17:50:17.562,939.523
29,8 Dec 2013 19:20:57.905,8 Dec 2013 19:26:29.686,331.782
30,9 Dec 2013 01:05:54.083,9 Dec 2013 01:07:41.713,107.629
31,9 Dec 2013 02:43:04.019,9 Dec 2013 03:00:01.391,1017.372
32,9 Dec 2013 04:25:36.544,9 Dec 2013 04:39:42.779,846.235
33,9 Dec 2013 06:10:17.689,9 Dec 2013 06:14:32.293,254.604
34,9 Dec 2013 18:19:07.236,9 Dec 2013 18:34:26.843,919.607
35,9 Dec 2013 20:03:38.814,9 Dec 2013 20:13:36.244,597.430
36,10 Dec 2013 01:40:22.352,10 Dec 2013 01:50:38.759,616.407
37,10 Dec 2013 03:22:31.705,10 Dec 2013 03:39:24.507,1012.802
38,10 Dec 2013 05:13:00.740,10 Dec 2013 05:24:24.849,684.109

"Access","Start Time (UTCG)","Stop Time (UTCG)","Duration (sec)"
1,3 Dec 2013 01:00:00.000,3 Dec 2013 01:06:48.658,408.658
2,3 Dec 2013 04:35:16.894,3 Dec 2013 04:46:33.173,676.279
3,3 Dec 2013 06:19:03.168,3 Dec 2013 06:35:55.485,1012.317
4,3 Dec 2013 13:35:01.046,3 Dec 2013 13:51:25.872,984.827
5,3 Dec 2013 15:17:48.103,3 Dec 2013 15:32:33.415,885.312
6,3 Dec 2013 17:01:36.528,3 Dec 2013 17:13:30.631,714.103
7,4 Dec 2013 03:27:44.494,4 Dec 2013 03:35:44.480,479.987
8,4 Dec 2013 05:12:59.316,4 Dec 2013 05:28:01.643,902.327
9,4 Dec 2013 06:58:40.590,4 Dec 2013 07:14:38.990,958.400
10,4 Dec 2013 14:19:03.488,4 Dec 2013 14:35:06.023,962.535
11,4 Dec 2013 16:05:09.424,4 Dec 2013 16:09:49.901,280.478
12,5 Dec 2013 04:15:58.463,5 Dec 2013 04:27:18.841,680.377
13,5 Dec 2013 05:53:24.957,5 Dec 2013 06:08:44.129,919.172
14,5 Dec 2013 07:38:30.292,5 Dec 2013 07:53:03.201,872.910
15,5 Dec 2013 15:03:44.413,5 Dec 2013 15:19:17.034,932.621
16,5 Dec 2013 16:48:13.741,5 Dec 2013 16:55:30.141,436.400
17,6 Dec 2013 03:26:37.574,6 Dec 2013 03:35:53.503,555.929
18,6 Dec 2013 05:02:25.122,6 Dec 2013 05:17:49.892,924.769
19,6 Dec 2013 06:41:05.333,6 Dec 2013 06:56:10.322,904.989
20,6 Dec 2013 08:21:23.844,6 Dec 2013 08:32:05.098,641.254
21,6 Dec 2013 15:48:41.851,6 Dec 2013 16:03:49.494,907.643
22,6 Dec 2013 17:32:26.163,6 Dec 2013 17:40:53.188,507.025
23,7 Dec 2013 02:36:17.329,7 Dec 2013 02:45:33.658,556.329
24,7 Dec 2013 04:11:32.539,7 Dec 2013 04:26:57.621,925.082
25,7 Dec 2013 05:50:25.357,7 Dec 2013 06:04:56.138,870.781
26,7 Dec 2013 07:34:55.517,7 Dec 2013 07:36:49.359,113.843
27,7 Dec 2013 16:33:40.178,7 Dec 2013 16:48:29.224,889.047
28,7 Dec 2013 18:16:55.029,7 Dec 2013 18:26:28.045,573.016
29,8 Dec 2013 01:43:54.927,8 Dec 2013 01:56:15.362,740.435
30,8 Dec 2013 03:20:29.817,8 Dec 2013 03:36:06.245,936.428
31,8 Dec 2013 04:59:39.007,8 Dec 2013 05:14:10.149,871.142
32,8 Dec 2013 17:18:30.590,8 Dec 2013 17:32:59.048,868.458
33,8 Dec 2013 19:01:09.482,8 Dec 2013 19:12:17.032,667.550
34,9 Dec 2013 02:25:39.897,9 Dec 2013 02:42:18.399,998.502
35,9 Dec 2013 04:08:47.176,9 Dec 2013 04:23:25.713,878.537
36,9 Dec 2013 05:51:49.569,9 Dec 2013 05:59:37.948,468.379
37,9 Dec 2013 18:03:08.154,9 Dec 2013 18:16:59.655,831.501
38,9 Dec 2013 19:44:53.691,9 Dec 2013 19:57:59.035,785.344
39,10 Dec 2013 01:25:49.418,10 Dec 2013 01:29:57.806,248.388
40,10 Dec 2013 03:04:50.451,10 Dec 2013 03:21:48.242,1017.791
41,10 Dec 2013 04:54:10.069,10 Dec 2013 05:06:48.532,758.463

"Access","Start Time (UTCG)","Stop Time (UTCG)","Duration (sec)"
1,3 Dec 2013 04:18:37.262,3 Dec 2013 04:26:58.924,501.663
2,3 Dec 2013 06:01:24.430,3 Dec 2013 06:18:19.789,1015.359
3,3 Dec 2013 07:51:35.452,3 Dec 2013 08:00:14.751,519.299
4,3 Dec 2013 13:18:06.575,3 Dec 2013 13:34:12.464,965.889
5,3 Dec 2013 15:00:40.518,3 Dec 2013 15:15:40.576,900.059
6,3 Dec 2013 16:44:09.015,3 Dec 2013 16:56:45.308,756.293
7,3 Dec 2013 18:31:04.706,3 Dec 2013 18:35:44.328,279.621
8,4 Dec 2013 03:11:44.423,4 Dec 2013 03:18:00.950,376.528
9,4 Dec 2013 04:55:33.210,4 Dec 2013 05:09:29.420,836.209
10,4 Dec 2013 06:40:46.332,4 Dec 2013 06:57:25.964,999.631
11,4 Dec 2013 14:02:29.203,4 Dec 2013 14:17:41.467,912.263
12,4 Dec 2013 15:45:39.328,4 Dec 2013 15:56:14.509,635.181
13,5 Dec 2013 04:00:04.392,5 Dec 2013 04:09:55.691,591.300
14,5 Dec 2013 05:37:02.790,5 Dec 2013 05:52:02.712,899.922
15,5 Dec 2013 07:20:25.052,5 Dec 2013 07:36:13.801,948.749
16,5 Dec 2013 14:47:30.262,5 Dec 2013 15:01:44.193,853.931
17,5 Dec 2013 16:29:23.956,5 Dec 2013 16:41:08.323,704.368
18,6 Dec 2013 03:11:37.879,6 Dec 2013 03:17:52.586,374.707
19,6 Dec 2013 04:46:09.808,6 Dec 2013 05:01:10.596,900.788
20,6 Dec 2013 06:24:31.877,6 Dec 2013 06:39:57.030,925.153
21,6 Dec 2013 08:04:32.360,6 Dec 2013 08:16:17.322,704.962
22,6 Dec 2013 15:32:44.123,6 Dec 2013 15:46:12.188,808.065
23,6 Dec 2013 17:13:47.594,6 Dec 2013 17:26:10.146,742.551
24,7 Dec 2013 02:21:19.472,7 Dec 2013 02:27:49.125,389.654
25,7 Dec 2013 03:55:20.715,7 Dec 2013 04:10:20.987,900.272
26,7 Dec 2013 05:33:44.552,7 Dec 2013 05:48:49.226,904.673
27,7 Dec 2013 07:15:57.671,7 Dec 2013 07:23:07.068,429.397
28,7 Dec 2013 16:17:53.998,7 Dec 2013 16:30:49.663,775.665
29,7 Dec 2013 17:58:24.409,7 Dec 2013 18:11:22.478,778.068
30,8 Dec 2013 01:28:05.079,8 Dec 2013 01:39:25.519,680.440
31,8 Dec 2013 03:04:13.707,8 Dec 2013 03:19:34.639,920.932
32,8 Dec 2013 04:42:54.817,8 Dec 2013 04:57:59.213,904.396
33,8 Dec 2013 06:26:00.687,8 Dec 2013 06:32:37.797,397.110
34,8 Dec 2013 17:02:53.906,8 Dec 2013 17:15:15.593,741.687
35,8 Dec 2013 18:42:52.136,8 Dec 2013 18:56:40.608,828.472
36,9 Dec 2013 02:08:30.421,9 Dec 2013 02:24:27.710,957.289
37,9 Dec 2013 03:52:02.465,9 Dec 2013 04:07:05.921,903.456
38,9 Dec 2013 05:34:07.083,9 Dec 2013 05:44:01.265,594.183
39,9 Dec 2013 17:47:44.324,9 Dec 2013 17:59:05.939,681.615
40,9 Dec 2013 19:26:54.351,9 Dec 2013 19:41:48.014,893.662
41,10 Dec 2013 02:47:22.190,10 Dec 2013 03:04:05.103,1002.913
42,10 Dec 2013 04:35:26.372,10 Dec 2013 04:49:18.385,832.012

"Access","Start Time (UTCG)","Stop Time (UTCG)","Duration (sec)"
1,3 Dec 2013 03:26:18.533,3 Dec 2013 03:40:37.205,858.672
2,3 Dec 2013 05:08:41.846,3 Dec 2013 05:20:33.914,712.068
3,3 Dec 2013 12:31:03.728,3 Dec 2013 12:47:53.886,1010.158
4,3 Dec 2013 14:19:07.383,3 Dec 2013 14:32:20.084,792.701
5,3 Dec 2013 16:04:48.414,3 Dec 2013 16:07:07.265,138.852
6,4 Dec 2013 04:10:49.053,4 Dec 2013 04:24:18.289,809.237
7,4 Dec 2013 05:52:10.013,4 Dec 2013 06:06:03.359,833.347
8,4 Dec 2013 11:28:34.317,4 Dec 2013 11:37:41.288,546.970
9,4 Dec 2013 13:10:20.587,4 Dec 2013 13:27:15.385,1014.798
10,4 Dec 2013 15:01:07.870,4 Dec 2013 15:11:23.784,615.915
11,4 Dec 2013 16:52:41.805,4 Dec 2013 17:00:04.841,443.035
12,4 Dec 2013 23:46:55.795,4 Dec 2013 23:56:32.023,576.228
13,5 Dec 2013 01:28:01.185,5 Dec 2013 01:42:16.689,855.504
14,5 Dec 2013 03:10:01.455,5 Dec 2013 03:26:03.778,962.323
15,5 Dec 2013 04:52:20.139,5 Dec 2013 05:08:43.791,983.652
16,5 Dec 2013 06:35:03.734,5 Dec 2013 06:50:36.705,932.971
17,5 Dec 2013 12:05:05.313,5 Dec 2013 12:19:14.483,849.170
18,5 Dec 2013 13:50:06.748,5 Dec 2013 14:06:03.580,956.832
19,5 Dec 2013 19:18:47.117,5 Dec 2013 19:33:54.133,907.017
20,5 Dec 2013 21:00:46.064,5 Dec 2013 21:16:28.938,942.874
21,5 Dec 2013 22:43:15.065,5 Dec 2013 22:59:36.890,981.825
22,6 Dec 2013 00:26:17.820,6 Dec 2013 00:42:36.702,978.881
23,6 Dec 2013 02:10:16.925,6 Dec 2013 02:25:05.206,888.282
24,6 Dec 2013 03:55:27.028,6 Dec 2013 04:07:06.011,698.983
25,6 Dec 2013 05:41:02.924,6 Dec 2013 05:49:14.191,491.267
26,6 Dec 2013 07:24:40.744,6 Dec 2013 07:32:37.792,477.048
27,6 Dec 2013 09:08:38.654,6 Dec 2013 09:15:33.461,414.807
28,6 Dec 2013 11:01:13.533,6 Dec 2013 11:05:13.450,239.918
29,6 Dec 2013 12:43:16.447,6 Dec 2013 12:59:36.677,980.230
30,6 Dec 2013 14:30:35.817,6 Dec 2013 14:43:52.486,796.669
31,6 Dec 2013 20:03:21.986,6 Dec 2013 20:16:24.514,782.528
32,6 Dec 2013 21:44:42.531,6 Dec 2013 21:59:14.771,872.240
33,6 Dec 2013 23:29:19.891,6 Dec 2013 23:38:40.251,560.360
34,7 Dec 2013 11:37:02.176,7 Dec 2013 11:49:36.646,754.470
35,7 Dec 2013 13:22:19.435,7 Dec 2013 13:39:17.570,1018.135
36,7 Dec 2013 15:12:04.478,7 Dec 2013 15:20:09.279,484.801
37,7 Dec 2013 20:49:17.416,7 Dec 2013 20:59:12.188,594.772
38,7 Dec 2013 22:28:16.289,7 Dec 2013 22:43:30.110,913.821
39,8 Dec 2013 10:47:28.503,8 Dec 2013 10:55:30.345,481.842
40,8 Dec 2013 12:23:28.718,8 Dec 2013 12:38:21.732,893.014
41,8 Dec 2013 14:01:53.529,8 Dec 2013 14:18:40.634,1007.105
42,8 Dec 2013 21:36:07.479,8 Dec 2013 21:42:17.925,370.446
43,8 Dec 2013 23:12:31.362,8 Dec 2013 23:28:04.423,933.061
44,9 Dec 2013 09:59:35.318,9 Dec 2013 10:03:09.329,214.011
45,9 Dec 2013 11:32:41.518,9 Dec 2013 11:47:30.009,888.491
46,9 Dec 2013 13:10:55.176,9 Dec 2013 13:26:19.203,924.028
47,9 Dec 2013 14:51:19.001,9 Dec 2013 15:02:12.690,653.690
48,9 Dec 2013 22:23:59.735,9 Dec 2013 22:24:50.522,50.787
49,9 Dec 2013 23:57:07.973,10 Dec 2013 00:12:51.643,943.671

"Access","Start Time (UTCG)","Stop Time (UTCG)","Duration (sec)"
1,3 Dec 2013 03:10:45.340,3 Dec 2013 03:22:51.440,726.101
2,3 Dec 2013 04:50:30.634,3 Dec 2013 05:04:43.305,852.671
3,3 Dec 2013 12:13:45.874,3 Dec 2013 12:30:06.045,980.170
4,3 Dec 2013 14:00:44.012,3 Dec 2013 14:15:50.457,906.444
5,3 Dec 2013 15:45:52.514,3 Dec 2013 15:52:29.279,396.764
6,4 Dec 2013 03:55:32.343,4 Dec 2013 04:06:17.635,645.293
7,4 Dec 2013 05:34:17.971,4 Dec 2013 05:49:38.648,920.677
8,4 Dec 2013 12:52:42.708,4 Dec 2013 13:09:37.892,1015.184
9,4 Dec 2013 14:42:01.086,4 Dec 2013 14:54:07.616,726.529
10,4 Dec 2013 16:35:19.212,4 Dec 2013 16:41:38.533,379.320
11,4 Dec 2013 23:30:15.795,4 Dec 2013 23:38:35.374,499.579
12,5 Dec 2013 01:11:05.240,5 Dec 2013 01:24:49.450,824.210
13,5 Dec 2013 02:52:59.222,5 Dec 2013 03:08:51.476,952.254
14,5 Dec 2013 04:35:17.244,5 Dec 2013 04:51:40.683,983.440
15,5 Dec 2013 06:17:29.576,5 Dec 2013 06:33:44.722,975.146
16,5 Dec 2013 11:48:19.498,5 Dec 2013 12:00:25.483,725.985
17,5 Dec 2013 13:32:06.244,5 Dec 2013 13:48:44.011,997.767
18,5 Dec 2013 19:02:00.715,5 Dec 2013 19:15:53.005,832.290
19,5 Dec 2013 20:43:43.653,5 Dec 2013 20:59:19.731,936.078
20,5 Dec 2013 22:26:08.357,5 Dec 2013 22:42:25.110,976.753
21,6 Dec 2013 00:09:04.125,6 Dec 2013 00:25:28.626,984.501
22,6 Dec 2013 01:52:52.185,6 Dec 2013 02:08:02.787,910.603
23,6 Dec 2013 03:37:51.023,6 Dec 2013 03:50:06.853,735.830
24,6 Dec 2013 05:23:30.704,6 Dec 2013 05:32:09.262,518.558
25,6 Dec 2013 07:07:36.990,6 Dec 2013 07:15:18.594,461.603
26,6 Dec 2013 08:49:07.176,6 Dec 2013 08:58:52.785,585.609
27,6 Dec 2013 12:25:56.019,6 Dec 2013 12:41:26.603,930.584
28,6 Dec 2013 14:12:05.199,6 Dec 2013 14:27:05.487,900.288
29,6 Dec 2013 19:47:26.512,6 Dec 2013 19:57:32.748,606.236
30,6 Dec 2013 21:27:19.406,6 Dec 2013 21:43:02.490,943.084
31,6 Dec 2013 23:11:49.314,6 Dec 2013 23:22:07.930,618.616
32,7 Dec 2013 11:19:53.900,7 Dec 2013 11:30:53.619,659.719
33,7 Dec 2013 13:04:45.119,7 Dec 2013 13:21:30.070,1004.951
34,7 Dec 2013 14:52:35.273,7 Dec 2013 15:04:33.234,717.961
35,7 Dec 2013 22:11:05.807,7 Dec 2013 22:27:08.241,962.434
36,8 Dec 2013 10:32:38.885,8 Dec 2013 10:37:02.688,263.803
37,8 Dec 2013 12:07:12.595,8 Dec 2013 12:21:34.648,862.053
38,8 Dec 2013 13:45:25.345,8 Dec 2013 14:01:16.555,951.210
39,8 Dec 2013 15:33:19.427,8 Dec 2013 15:41:29.122,489.695
40,8 Dec 2013 22:55:29.260,8 Dec 2013 23:11:36.541,967.281
41,9 Dec 2013 11:16:34.923,9 Dec 2013 11:30:43.057,848.134
42,9 Dec 2013 12:54:23.925,9 Dec 2013 13:10:02.694,938.769
43,9 Dec 2013 14:34:23.614,9 Dec 2013 14:46:28.918,725.304
44,9 Dec 2013 23:40:10.912,9 Dec 2013 23:56:18.900,967.988

"Access","Start Time (UTCG)","Stop Time (UTCG)","Duration (sec)"
1,3 Dec 2013 02:56:10.022,3 Dec 2013 03:04:15.838,485.816
2,3 Dec 2013 04:32:54.160,3 Dec 2013 04:48:26.223,932.063
3,3 Dec 2013 11:56:43.458,3 Dec 2013 12:12:07.549,924.091
4,3 Dec 2013 13:42:24.872,3 Dec 2013 13:58:16.486,951.614
5,3 Dec 2013 15:28:01.859,3 Dec 2013 15:36:50.238,528.379
6,4 Dec 2013 03:41:43.991,4 Dec 2013 03:46:59.411,315.420
7,4 Dec 2013 05:16:52.107,4 Dec 2013 05:32:59.259,967.152
8,4 Dec 2013 12:35:17.603,4 Dec 2013 12:51:51.593,993.990
9,4 Dec 2013 14:23:10.041,4 Dec 2013 14:36:51.105,821.064
10,4 Dec 2013 16:17:34.085,4 Dec 2013 16:22:27.383,293.299
11,4 Dec 2013 23:13:42.742,4 Dec 2013 23:20:29.085,406.343
12,5 Dec 2013 00:54:10.898,5 Dec 2013 01:07:18.760,787.861
13,5 Dec 2013 02:35:57.669,5 Dec 2013 02:51:37.216,939.548
14,5 Dec 2013 04:18:14.034,5 Dec 2013 04:34:36.241,982.207
15,5 Dec 2013 06:00:25.199,5 Dec 2013 06:16:44.837,979.638
16,5 Dec 2013 07:51:45.760,5 Dec 2013 07:54:29.730,163.971
17,5 Dec 2013 11:32:00.838,5 Dec 2013 11:40:56.399,535.561
18,5 Dec 2013 13:14:19.348,5 Dec 2013 13:31:14.889,1015.542
19,5 Dec 2013 15:06:01.600,5 Dec 2013 15:13:06.717,425.117
20,5 Dec 2013 18:45:25.258,5 Dec 2013 18:57:14.799,709.540
21,5 Dec 2013 20:26:41.947,5 Dec 2013 20:42:11.680,929.733
22,5 Dec 2013 22:09:02.471,5 Dec 2013 22:25:13.236,970.765
23,5 Dec 2013 23:51:51.882,6 Dec 2013 00:08:19.671,987.788
24,6 Dec 2013 01:35:29.507,6 Dec 2013 01:50:59.481,929.974
25,6 Dec 2013 03:20:16.459,6 Dec 2013 03:33:07.530,771.071
26,6 Dec 2013 05:05:55.793,6 Dec 2013 05:15:06.376,550.583
27,6 Dec 2013 06:50:28.440,6 Dec 2013 06:58:00.721,452.282
28,6 Dec 2013 08:32:19.110,6 Dec 2013 08:41:51.240,572.130
29,6 Dec 2013 12:08:41.369,6 Dec 2013 12:23:00.098,858.729
30,6 Dec 2013 13:53:55.544,6 Dec 2013 14:10:01.645,966.101
31,6 Dec 2013 19:33:01.696,6 Dec 2013 19:36:51.075,229.379
32,6 Dec 2013 21:10:09.648,6 Dec 2013 21:26:27.048,977.401
33,6 Dec 2013 22:54:25.435,6 Dec 2013 23:05:31.430,665.995
34,7 Dec 2013 11:03:44.080,7 Dec 2013 11:13:13.740,569.660
35,7 Dec 2013 12:47:14.003,7 Dec 2013 13:03:29.883,975.880
36,7 Dec 2013 14:33:56.803,7 Dec 2013 14:48:09.153,852.350
37,7 Dec 2013 21:54:09.503,7 Dec 2013 22:10:24.657,975.154
38,8 Dec 2013 11:51:00.265,8 Dec 2013 12:04:41.810,821.545
39,8 Dec 2013 13:28:58.468,8 Dec 2013 13:44:47.940,949.472
40,8 Dec 2013 15:14:02.113,8 Dec 2013 15:26:02.776,720.663
41,8 Dec 2013 22:38:43.442,8 Dec 2013 22:54:47.905,964.463
42,9 Dec 2013 11:00:35.189,9 Dec 2013 11:13:48.677,793.488
43,9 Dec 2013 12:37:55.937,9 Dec 2013 12:53:41.702,945.765
44,9 Dec 2013 14:17:33.900,9 Dec 2013 14:30:37.942,784.042
45,9 Dec 2013 23:23:32.302,9 Dec 2013 23:39:26.775,954.474

"Access","Start Time (UTCG)","Stop Time (UTCG)","Duration (sec)"
1,3 Dec 2013 04:15:42.679,3 Dec 2013 04:31:51.474,968.795
2,3 Dec 2013 11:40:00.204,3 Dec 2013 11:53:52.864,832.660
3,3 Dec 2013 13:24:16.394,3 Dec 2013 13:40:43.840,987.445
4,3 Dec 2013 15:10:32.479,3 Dec 2013 15:20:53.692,621.213
5,4 Dec 2013 04:59:48.238,4 Dec 2013 05:16:08.121,979.883
6,4 Dec 2013 12:18:05.846,4 Dec 2013 12:33:53.655,947.809
7,4 Dec 2013 14:04:35.210,4 Dec 2013 14:19:32.766,897.556
8,4 Dec 2013 15:59:04.164,4 Dec 2013 16:03:55.864,291.700
9,4 Dec 2013 17:47:00.079,4 Dec 2013 17:47:51.817,51.737
10,4 Dec 2013 22:57:23.347,4 Dec 2013 23:02:06.404,283.056
11,5 Dec 2013 00:37:18.404,5 Dec 2013 00:49:44.220,745.816
12,5 Dec 2013 02:18:56.945,5 Dec 2013 02:34:20.830,923.884
13,5 Dec 2013 04:01:10.676,5 Dec 2013 04:17:30.408,979.731
14,5 Dec 2013 05:43:25.225,5 Dec 2013 05:59:45.393,980.168
15,5 Dec 2013 07:30:38.570,5 Dec 2013 07:39:56.918,558.348
16,5 Dec 2013 11:17:54.563,5 Dec 2013 11:18:58.048,63.485
17,5 Dec 2013 12:56:44.294,5 Dec 2013 13:13:35.437,1011.143
18,5 Dec 2013 14:46:07.274,5 Dec 2013 14:56:55.561,648.287
19,5 Dec 2013 18:29:10.740,5 Dec 2013 18:37:54.543,523.803
20,5 Dec 2013 20:09:40.999,5 Dec 2013 20:25:04.959,923.961
21,5 Dec 2013 21:51:57.338,5 Dec 2013 22:08:01.472,964.134
22,5 Dec 2013 23:34:40.967,5 Dec 2013 23:51:09.915,988.948
23,6 Dec 2013 01:18:08.824,6 Dec 2013 01:33:55.235,946.411
24,6 Dec 2013 03:02:43.603,6 Dec 2013 03:16:07.843,804.240
25,6 Dec 2013 04:48:19.158,6 Dec 2013 04:58:05.035,585.877
26,6 Dec 2013 06:33:14.688,6 Dec 2013 06:40:44.951,450.263
27,6 Dec 2013 08:15:28.894,6 Dec 2013 08:24:34.834,545.940
28,6 Dec 2013 11:51:32.435,6 Dec 2013 12:04:14.767,762.332
29,6 Dec 2013 13:36:00.845,6 Dec 2013 13:52:44.269,1003.424
30,6 Dec 2013 20:53:10.655,6 Dec 2013 21:09:30.820,980.165
31,6 Dec 2013 22:37:06.888,6 Dec 2013 22:48:52.085,705.197
32,7 Dec 2013 00:23:16.023,7 Dec 2013 00:27:08.858,232.835
33,7 Dec 2013 10:47:42.924,7 Dec 2013 10:55:41.105,478.181
34,7 Dec 2013 12:29:44.291,7 Dec 2013 12:45:17.220,932.929
35,7 Dec 2013 14:15:43.465,7 Dec 2013 14:31:20.164,936.700
36,7 Dec 2013 21:37:26.478,7 Dec 2013 21:53:20.072,953.594
37,7 Dec 2013 23:22:51.589,7 Dec 2013 23:28:42.883,351.294
38,8 Dec 2013 11:34:52.881,8 Dec 2013 11:47:41.920,769.038
39,8 Dec 2013 13:12:33.089,8 Dec 2013 13:28:16.575,943.486
40,8 Dec 2013 14:55:32.693,8 Dec 2013 15:09:45.821,853.128
41,8 Dec 2013 22:22:14.300,8 Dec 2013 22:37:38.121,923.821
42,9 Dec 2013 00:06:24.429,9 Dec 2013 00:14:10.783,466.353
43,9 Dec 2013 10:44:44.454,9 Dec 2013 10:56:44.873,720.419
44,9 Dec 2013 12:21:31.366,9 Dec 2013 12:37:16.179,944.813
45,9 Dec 2013 14:00:48.729,9 Dec 2013 14:14:40.914,832.185
46,9 Dec 2013 15:43:19.794,9 Dec 2013 15:48:00.280,280.486
47,9 Dec 2013 23:07:13.430,9 Dec 2013 23:22:14.144,900.714
48,10 Dec 2013 00:50:45.674,10 Dec 2013 00:59:35.064,529.389

"Access","Start Time (UTCG)","Stop Time (UTCG)","Duration (sec)"
1,3 Dec 2013 03:58:52.619,3 Dec 2013 04:15:02.101,969.482
2,3 Dec 2013 11:23:45.086,3 Dec 2013 11:35:11.062,685.976
3,3 Dec 2013 13:06:19.666,3 Dec 2013 13:23:10.496,1010.831
4,3 Dec 2013 14:53:15.819,3 Dec 2013 15:04:47.829,692.010
5,4 Dec 2013 04:43:05.120,4 Dec 2013 04:59:05.716,960.595
6,4 Dec 2013 06:30:17.037,4 Dec 2013 06:37:12.541,415.504
7,4 Dec 2013 12:01:09.474,4 Dec 2013 12:15:39.677,870.203
8,4 Dec 2013 13:46:16.005,4 Dec 2013 14:02:11.450,955.445
9,4 Dec 2013 15:39:52.462,4 Dec 2013 15:46:08.183,375.720
10,4 Dec 2013 17:28:10.361,4 Dec 2013 17:32:33.914,263.553
11,5 Dec 2013 00:20:28.049,5 Dec 2013 00:32:05.360,697.311
12,5 Dec 2013 02:01:57.198,5 Dec 2013 02:17:02.100,904.903
13,5 Dec 2013 03:44:07.344,5 Dec 2013 04:00:23.119,975.775
14,5 Dec 2013 05:26:24.290,5 Dec 2013 05:42:46.130,981.840
15,5 Dec 2013 07:11:28.534,5 Dec 2013 07:23:49.981,741.447
16,5 Dec 2013 12:39:20.126,5 Dec 2013 12:55:44.117,983.991
17,5 Dec 2013 14:27:01.231,5 Dec 2013 14:40:12.353,791.122
18,5 Dec 2013 18:14:31.855,5 Dec 2013 18:16:34.554,122.699
19,5 Dec 2013 19:52:40.880,5 Dec 2013 20:07:59.720,918.840
20,5 Dec 2013 21:34:52.909,5 Dec 2013 21:50:50.021,957.112
21,5 Dec 2013 23:17:31.268,5 Dec 2013 23:33:59.446,988.178
22,6 Dec 2013 01:00:50.056,6 Dec 2013 01:16:50.021,959.966
23,6 Dec 2013 02:45:12.662,6 Dec 2013 02:59:07.645,834.984
24,6 Dec 2013 04:30:41.664,6 Dec 2013 04:41:04.785,623.121
25,6 Dec 2013 06:15:55.633,6 Dec 2013 06:23:31.833,456.201
26,6 Dec 2013 07:58:36.105,6 Dec 2013 08:07:16.699,520.594
27,6 Dec 2013 11:34:30.112,6 Dec 2013 11:45:07.464,637.352
28,6 Dec 2013 13:18:17.531,6 Dec 2013 13:35:14.460,1016.929
29,6 Dec 2013 15:10:00.800,6 Dec 2013 15:15:28.024,327.224
30,6 Dec 2013 20:36:21.813,6 Dec 2013 20:52:13.750,951.937
31,6 Dec 2013 22:19:52.787,6 Dec 2013 22:32:10.769,737.982
32,7 Dec 2013 00:04:52.969,7 Dec 2013 00:11:20.866,387.897
33,7 Dec 2013 10:31:58.879,7 Dec 2013 10:37:47.154,348.275
34,7 Dec 2013 12:12:14.050,7 Dec 2013 12:26:52.748,878.698
35,7 Dec 2013 13:57:45.837,7 Dec 2013 14:14:13.513,987.676
36,7 Dec 2013 21:20:58.258,7 Dec 2013 21:35:52.408,894.151
37,7 Dec 2013 23:03:42.062,7 Dec 2013 23:14:45.349,663.287
38,8 Dec 2013 11:18:52.287,8 Dec 2013 11:30:32.996,700.710
39,8 Dec 2013 12:56:09.450,8 Dec 2013 13:11:42.072,932.622
40,8 Dec 2013 14:37:25.946,8 Dec 2013 14:53:01.996,936.050
41,8 Dec 2013 22:06:05.638,8 Dec 2013 22:20:03.159,837.520
42,8 Dec 2013 23:47:40.658,8 Dec 2013 23:59:40.497,719.838
43,9 Dec 2013 10:29:06.604,9 Dec 2013 10:39:27.885,621.281
44,9 Dec 2013 12:05:10.467,9 Dec 2013 12:20:45.952,935.485
45,9 Dec 2013 13:44:07.440,9 Dec 2013 13:58:38.515,871.075
46,9 Dec 2013 15:25:37.580,9 Dec 2013 15:33:07.848,450.269
47,9 Dec 2013 22:51:19.887,9 Dec 2013 23:04:35.587,795.700
48,10 Dec 2013 00:32:10.467,10 Dec 2013 00:44:45.005,754.538

"Access","Start Time (UTCG)","Stop Time (UTCG)","Duration (sec)"
1,3 Dec 2013 03:42:23.654,3 Dec 2013 03:57:58.222,934.568
2,3 Dec 2013 05:28:00.831,3 Dec 2013 05:35:26.430,445.600
3,3 Dec 2013 11:08:29.833,3 Dec 2013 11:15:28.221,418.388
4,3 Dec 2013 12:48:35.271,3 Dec 2013 13:05:34.533,1019.262
5,3 Dec 2013 14:36:08.157,3 Dec 2013 14:48:36.025,747.868
6,4 Dec 2013 04:26:43.921,4 Dec 2013 04:41:50.546,906.626
7,4 Dec 2013 06:10:38.412,4 Dec 2013 06:22:05.063,686.650
8,4 Dec 2013 11:44:33.726,4 Dec 2013 11:57:01.796,748.070
9,4 Dec 2013 13:28:11.454,4 Dec 2013 13:44:46.070,994.615
10,4 Dec 2013 15:20:27.581,4 Dec 2013 15:28:42.125,494.544
11,4 Dec 2013 17:10:17.247,4 Dec 2013 17:16:24.618,367.371
12,5 Dec 2013 00:03:40.283,5 Dec 2013 00:14:21.578,641.295
13,5 Dec 2013 01:44:58.561,5 Dec 2013 01:59:40.810,882.249
14,5 Dec 2013 03:27:04.218,5 Dec 2013 03:43:14.282,970.064
15,5 Dec 2013 05:09:22.541,5 Dec 2013 05:25:45.601,983.060
16,5 Dec 2013 06:53:01.451,5 Dec 2013 07:07:19.657,858.205
17,5 Dec 2013 12:22:06.751,5 Dec 2013 12:37:38.438,931.687
18,5 Dec 2013 14:08:23.628,5 Dec 2013 14:23:13.510,889.882
19,5 Dec 2013 19:35:41.670,5 Dec 2013 19:50:56.083,914.413
20,5 Dec 2013 21:17:49.154,5 Dec 2013 21:33:39.104,949.950
21,5 Dec 2013 23:00:22.668,5 Dec 2013 23:16:48.393,985.725
22,6 Dec 2013 00:43:33.086,6 Dec 2013 00:59:43.840,970.754
23,6 Dec 2013 02:27:43.749,6 Dec 2013 02:42:06.801,863.052
24,6 Dec 2013 04:13:04.076,6 Dec 2013 04:24:05.223,661.147
25,6 Dec 2013 05:58:31.512,6 Dec 2013 06:06:21.608,470.096
26,6 Dec 2013 07:41:40.249,6 Dec 2013 07:49:57.444,497.195
27,6 Dec 2013 09:29:33.400,6 Dec 2013 09:31:19.014,105.614
28,6 Dec 2013 11:17:37.905,6 Dec 2013 11:25:33.057,475.152
29,6 Dec 2013 13:00:43.262,6 Dec 2013 13:17:32.181,1008.919
30,6 Dec 2013 14:49:39.675,6 Dec 2013 15:00:13.448,633.773
31,6 Dec 2013 20:19:44.265,6 Dec 2013 20:34:33.541,889.276
32,6 Dec 2013 22:02:25.313,6 Dec 2013 22:15:28.100,782.786
33,6 Dec 2013 23:46:59.491,6 Dec 2013 23:55:06.149,486.658
34,7 Dec 2013 10:17:40.652,7 Dec 2013 10:18:22.717,42.065
35,7 Dec 2013 11:54:40.988,7 Dec 2013 12:08:18.133,817.145
36,7 Dec 2013 13:39:58.893,7 Dec 2013 13:56:52.218,1013.324
37,7 Dec 2013 21:04:50.069,7 Dec 2013 21:17:55.451,785.383
38,7 Dec 2013 22:45:44.845,7 Dec 2013 22:59:26.202,821.357
39,8 Dec 2013 11:03:01.759,8 Dec 2013 11:13:11.593,609.834
40,8 Dec 2013 12:39:47.856,8 Dec 2013 12:55:03.978,916.122
41,8 Dec 2013 14:19:32.653,8 Dec 2013 14:35:59.095,986.443
42,8 Dec 2013 21:50:28.440,8 Dec 2013 22:01:51.593,683.153
43,8 Dec 2013 23:29:52.427,8 Dec 2013 23:44:08.643,856.216
44,9 Dec 2013 10:13:50.552,9 Dec 2013 10:21:48.989,478.437
45,9 Dec 2013 11:48:53.656,9 Dec 2013 12:04:10.727,917.070
46,9 Dec 2013 13:27:29.661,9 Dec 2013 13:42:31.191,901.530
47,9 Dec 2013 15:08:22.141,9 Dec 2013 15:17:47.169,565.029
48,9 Dec 2013 22:36:08.134,9 Dec 2013 22:46:14.818,606.684
49,10 Dec 2013 00:14:25.471,10 Dec 2013 00:29:02.805,877.334

"Access","Start Time (UTCG)","Stop Time (UTCG)","Duration (sec)"
1,3 Dec 2013 08:14:08.163,3 Dec 2013 08:27:49.504,821.341
2,3 Dec 2013 09:55:25.775,3 Dec 2013 10:07:35.994,730.218
3,3 Dec 2013 20:36:39.612,3 Dec 2013 20:50:30.702,831.091
4,3 Dec 2013 22:14:14.218,3 Dec 2013 22:29:52.906,938.688
5,3 Dec 2013 23:54:39.215,4 Dec 2013 00:06:00.101,680.886
6,4 Dec 2013 08:59:19.872,4 Dec 2013 09:12:26.357,786.485
7,4 Dec 2013 10:40:01.255,4 Dec 2013 10:52:45.736,764.481
8,4 Dec 2013 18:11:29.173,4 Dec 2013 18:18:04.474,395.301
9,4 Dec 2013 19:45:34.083,4 Dec 2013 19:59:57.037,862.954
10,4 Dec 2013 21:23:20.872,4 Dec 2013 21:38:58.114,937.242
11,4 Dec 2013 23:04:31.116,4 Dec 2013 23:15:05.907,634.791
12,5 Dec 2013 09:44:22.503,5 Dec 2013 09:56:57.844,755.341
13,5 Dec 2013 11:24:33.393,5 Dec 2013 11:38:03.693,810.300
14,5 Dec 2013 18:51:40.961,5 Dec 2013 19:07:27.018,946.057
15,5 Dec 2013 20:32:24.432,5 Dec 2013 20:47:59.337,934.905
16,5 Dec 2013 22:13:29.419,5 Dec 2013 22:25:15.468,706.049
17,6 Dec 2013 10:29:14.993,6 Dec 2013 10:41:00.916,705.923
18,6 Dec 2013 12:08:43.704,6 Dec 2013 12:23:16.923,873.219
19,6 Dec 2013 19:30:33.723,6 Dec 2013 19:47:05.978,992.256
20,6 Dec 2013 21:18:02.582,6 Dec 2013 21:32:37.168,874.586
21,6 Dec 2013 23:06:30.863,6 Dec 2013 23:11:50.008,319.145
22,7 Dec 2013 09:34:23.568,7 Dec 2013 09:38:34.029,250.461
23,7 Dec 2013 11:12:42.484,7 Dec 2013 11:24:17.674,695.190
24,7 Dec 2013 12:52:21.653,7 Dec 2013 13:08:00.785,939.132
25,7 Dec 2013 18:29:04.218,7 Dec 2013 18:35:15.061,370.843
26,7 Dec 2013 20:09:35.745,7 Dec 2013 20:26:32.890,1017.144
27,7 Dec 2013 21:59:50.338,7 Dec 2013 22:10:22.341,632.002
28,8 Dec 2013 01:37:32.476,8 Dec 2013 01:45:02.699,450.224
29,8 Dec 2013 03:21:43.695,8 Dec 2013 03:27:32.366,348.671
30,8 Dec 2013 05:03:57.165,8 Dec 2013 05:13:15.042,557.877
31,8 Dec 2013 06:45:41.303,8 Dec 2013 06:59:05.756,804.453
32,8 Dec 2013 08:27:50.541,8 Dec 2013 08:43:38.670,948.129
33,8 Dec 2013 10:10:33.332,8 Dec 2013 10:27:01.822,988.490
34,8 Dec 2013 11:53:34.052,8 Dec 2013 12:09:40.651,966.599
35,8 Dec 2013 13:36:15.953,8 Dec 2013 13:51:49.191,933.238
36,8 Dec 2013 19:04:35.734,8 Dec 2013 19:17:56.342,800.608
37,8 Dec 2013 20:49:08.548,8 Dec 2013 21:05:28.636,980.088
38,9 Dec 2013 02:20:26.489,9 Dec 2013 02:33:26.421,779.932
39,9 Dec 2013 04:01:41.705,9 Dec 2013 04:18:01.922,980.217
40,9 Dec 2013 05:44:05.790,9 Dec 2013 06:00:27.304,981.514
41,9 Dec 2013 07:27:23.446,9 Dec 2013 07:42:46.315,922.869
42,9 Dec 2013 09:12:07.853,9 Dec 2013 09:24:28.378,740.525
43,9 Dec 2013 10:59:35.516,9 Dec 2013 11:04:42.699,307.183
44,9 Dec 2013 16:10:47.462,9 Dec 2013 16:16:45.065,357.603
45,9 Dec 2013 17:59:00.957,9 Dec 2013 18:04:51.492,350.535
46,9 Dec 2013 19:42:38.017,9 Dec 2013 19:58:37.755,959.739
47,9 Dec 2013 21:29:16.557,9 Dec 2013 21:43:35.828,859.271
48,10 Dec 2013 03:06:31.837,10 Dec 2013 03:15:01.055,509.218
49,10 Dec 2013 04:45:24.517,10 Dec 2013 05:01:16.047,951.531

"Access","Start Time (UTCG)","Stop Time (UTCG)","Duration (sec)"
1,3 Dec 2013 07:58:41.507,3 Dec 2013 08:09:34.961,653.454
2,3 Dec 2013 09:37:38.135,3 Dec 2013 09:52:01.011,862.876
3,3 Dec 2013 20:20:45.213,3 Dec 2013 20:33:35.807,770.594
4,3 Dec 2013 21:57:46.617,3 Dec 2013 22:13:31.800,945.183
5,3 Dec 2013 23:37:40.012,3 Dec 2013 23:50:17.126,757.114
6,4 Dec 2013 08:44:14.576,4 Dec 2013 08:54:05.255,590.678
7,4 Dec 2013 10:22:16.070,4 Dec 2013 10:36:59.323,883.253
8,4 Dec 2013 17:57:11.205,4 Dec 2013 17:59:48.394,157.188
9,4 Dec 2013 19:29:33.234,4 Dec 2013 19:43:14.436,821.202
10,4 Dec 2013 21:06:51.453,4 Dec 2013 21:22:36.791,945.338
11,4 Dec 2013 22:47:16.388,4 Dec 2013 22:59:26.703,730.315
12,5 Dec 2013 09:29:33.729,5 Dec 2013 09:38:30.812,537.084
13,5 Dec 2013 11:06:52.116,5 Dec 2013 11:22:01.106,908.990
14,5 Dec 2013 18:34:53.959,5 Dec 2013 18:49:23.258,869.299
15,5 Dec 2013 20:15:50.724,5 Dec 2013 20:31:35.650,944.926
16,5 Dec 2013 21:56:21.171,5 Dec 2013 22:09:15.209,774.038
17,6 Dec 2013 10:14:49.667,6 Dec 2013 10:22:16.948,447.281
18,6 Dec 2013 11:51:10.333,6 Dec 2013 12:06:53.342,943.009
19,6 Dec 2013 19:13:25.259,6 Dec 2013 19:29:10.169,944.910
20,6 Dec 2013 20:59:37.342,6 Dec 2013 21:15:05.898,928.556
21,6 Dec 2013 22:48:30.068,6 Dec 2013 22:56:13.308,463.239
22,7 Dec 2013 10:56:04.318,7 Dec 2013 11:07:01.927,657.609
23,7 Dec 2013 12:34:59.561,7 Dec 2013 12:51:15.192,975.631
24,7 Dec 2013 19:52:04.694,7 Dec 2013 20:08:50.648,1005.954
25,7 Dec 2013 21:40:42.525,7 Dec 2013 21:53:18.204,755.678
26,8 Dec 2013 01:20:08.949,8 Dec 2013 01:28:13.140,484.191
27,8 Dec 2013 03:04:29.175,8 Dec 2013 03:10:11.940,342.765
28,8 Dec 2013 04:46:59.817,8 Dec 2013 04:55:32.477,512.660
29,8 Dec 2013 06:28:42.806,8 Dec 2013 06:41:32.177,769.371
30,8 Dec 2013 08:10:46.612,8 Dec 2013 08:26:18.697,932.084
31,8 Dec 2013 09:53:24.220,8 Dec 2013 10:09:51.682,987.461
32,8 Dec 2013 11:36:24.090,8 Dec 2013 11:52:36.411,972.321
33,8 Dec 2013 13:19:11.986,8 Dec 2013 13:34:49.925,937.940
34,8 Dec 2013 15:07:27.868,8 Dec 2013 15:14:48.970,441.103
35,8 Dec 2013 18:47:52.421,8 Dec 2013 18:58:52.898,660.477
36,8 Dec 2013 20:31:15.818,8 Dec 2013 20:48:05.324,1009.506
37,9 Dec 2013 02:04:08.919,9 Dec 2013 02:14:30.914,621.995
38,9 Dec 2013 03:44:41.928,9 Dec 2013 04:00:59.624,977.695
39,9 Dec 2013 05:26:58.593,9 Dec 2013 05:43:22.550,983.958
40,9 Dec 2013 07:10:05.690,9 Dec 2013 07:25:44.993,939.303
41,9 Dec 2013 08:54:32.226,9 Dec 2013 09:07:35.104,782.878
42,9 Dec 2013 10:41:20.099,9 Dec 2013 10:48:15.053,414.953
43,9 Dec 2013 15:54:32.605,9 Dec 2013 15:58:53.797,261.192
44,9 Dec 2013 17:41:29.501,9 Dec 2013 17:45:22.823,233.322
45,9 Dec 2013 19:25:17.050,9 Dec 2013 19:40:19.950,902.900
46,9 Dec 2013 21:11:00.100,9 Dec 2013 21:26:40.996,940.896
47,10 Dec 2013 04:28:18.986,10 Dec 2013 04:44:37.604,978.619

"Access","Start Time (UTCG)","Stop Time (UTCG)","Duration (sec)"
1,3 Dec 2013 07:44:53.200,3 Dec 2013 07:49:38.750,285.550
2,3 Dec 2013 09:20:18.209,3 Dec 2013 09:35:54.681,936.472
3,3 Dec 2013 20:05:00.993,3 Dec 2013 20:16:31.290,690.297
4,3 Dec 2013 21:41:23.270,3 Dec 2013 21:57:05.907,942.637
5,3 Dec 2013 23:20:48.372,3 Dec 2013 23:34:25.103,816.732
6,4 Dec 2013 10:04:58.775,4 Dec 2013 10:20:45.366,946.591
7,4 Dec 2013 19:13:38.147,4 Dec 2013 19:26:27.570,769.423
8,4 Dec 2013 20:50:26.740,4 Dec 2013 21:06:11.727,944.987
9,4 Dec 2013 22:30:14.158,4 Dec 2013 22:43:35.171,801.013
10,5 Dec 2013 10:49:37.571,5 Dec 2013 11:05:36.318,958.747
11,5 Dec 2013 18:18:32.099,5 Dec 2013 18:30:58.980,746.881
12,5 Dec 2013 19:59:20.216,5 Dec 2013 20:15:10.171,949.955
13,5 Dec 2013 21:39:21.931,5 Dec 2013 21:53:08.097,826.166
14,6 Dec 2013 11:34:01.035,6 Dec 2013 11:50:13.948,972.912
15,6 Dec 2013 18:56:34.016,6 Dec 2013 19:10:59.589,865.573
16,6 Dec 2013 20:41:23.482,6 Dec 2013 20:57:35.661,972.178
17,6 Dec 2013 22:30:54.424,6 Dec 2013 22:40:15.703,561.279
18,7 Dec 2013 10:39:28.756,7 Dec 2013 10:49:41.016,612.261
19,7 Dec 2013 12:17:58.698,7 Dec 2013 12:34:19.157,980.459
20,7 Dec 2013 19:34:46.140,7 Dec 2013 19:50:57.451,971.311
21,7 Dec 2013 21:21:55.942,7 Dec 2013 21:36:08.328,852.386
22,8 Dec 2013 01:02:47.593,8 Dec 2013 01:11:25.866,518.273
23,8 Dec 2013 02:47:10.194,8 Dec 2013 02:52:58.661,348.467
24,8 Dec 2013 04:30:01.502,8 Dec 2013 04:37:50.460,468.959
25,8 Dec 2013 06:11:44.974,8 Dec 2013 06:23:56.333,731.359
26,8 Dec 2013 07:53:43.662,8 Dec 2013 08:08:56.639,912.977
27,8 Dec 2013 09:36:15.785,8 Dec 2013 09:52:40.223,984.438
28,8 Dec 2013 11:19:13.810,8 Dec 2013 11:35:31.356,977.545
29,8 Dec 2013 13:02:06.602,8 Dec 2013 13:17:49.731,943.129
30,8 Dec 2013 14:47:47.760,8 Dec 2013 14:58:49.636,661.876
31,8 Dec 2013 18:31:40.557,8 Dec 2013 18:39:02.246,441.689
32,8 Dec 2013 20:13:35.256,8 Dec 2013 20:30:31.334,1016.078
33,8 Dec 2013 22:04:07.286,8 Dec 2013 22:12:44.594,517.308
34,9 Dec 2013 01:48:39.869,9 Dec 2013 01:54:24.762,344.893
35,9 Dec 2013 03:27:43.353,9 Dec 2013 03:43:58.312,974.960
36,9 Dec 2013 05:09:52.738,9 Dec 2013 05:26:17.777,985.039
37,9 Dec 2013 06:52:50.076,9 Dec 2013 07:08:42.757,952.681
38,9 Dec 2013 08:37:00.290,9 Dec 2013 08:50:40.129,819.839
39,9 Dec 2013 10:23:16.724,9 Dec 2013 10:31:37.786,501.062
40,9 Dec 2013 15:38:50.917,9 Dec 2013 15:40:24.208,93.291
41,9 Dec 2013 17:23:09.785,9 Dec 2013 17:26:38.898,209.113
42,9 Dec 2013 19:07:59.572,9 Dec 2013 19:21:46.266,826.694
43,9 Dec 2013 20:53:00.414,9 Dec 2013 21:09:30.587,990.172
44,10 Dec 2013 04:11:24.724,10 Dec 2013 04:27:38.384,973.660

"Access","Start Time (UTCG)","Stop Time (UTCG)","Duration (sec)"
1,3 Dec 2013 01:39:25.440,3 Dec 2013 01:45:56.443,391.003
2,3 Dec 2013 09:03:18.057,3 Dec 2013 09:19:25.387,967.330
3,3 Dec 2013 19:49:31.518,3 Dec 2013 19:59:12.800,581.282
4,3 Dec 2013 21:25:04.394,3 Dec 2013 21:40:35.176,930.782
5,3 Dec 2013 23:04:02.699,3 Dec 2013 23:18:25.785,863.086
6,4 Dec 2013 00:47:34.914,4 Dec 2013 00:51:00.493,205.579
7,4 Dec 2013 09:48:02.591,4 Dec 2013 10:04:10.819,968.229
8,4 Dec 2013 18:57:49.713,4 Dec 2013 19:09:35.600,705.887
9,4 Dec 2013 20:34:06.614,4 Dec 2013 20:49:43.159,936.545
10,4 Dec 2013 22:13:21.013,4 Dec 2013 22:27:34.884,853.871
11,5 Dec 2013 10:32:44.650,5 Dec 2013 10:48:54.209,969.559
12,5 Dec 2013 18:02:54.396,5 Dec 2013 18:11:53.757,539.361
13,5 Dec 2013 19:42:52.536,5 Dec 2013 19:58:43.133,950.598
14,5 Dec 2013 21:22:29.745,5 Dec 2013 21:36:55.967,866.223
15,5 Dec 2013 23:06:56.036,5 Dec 2013 23:11:28.861,272.825
16,6 Dec 2013 11:17:12.948,6 Dec 2013 11:33:20.981,968.033
17,6 Dec 2013 18:40:06.464,6 Dec 2013 18:52:25.665,739.201
18,6 Dec 2013 20:23:21.886,6 Dec 2013 20:40:04.451,1002.566
19,6 Dec 2013 22:13:32.550,6 Dec 2013 22:24:08.153,635.603
20,7 Dec 2013 10:22:57.051,7 Dec 2013 10:32:13.689,556.638
21,7 Dec 2013 12:01:18.481,7 Dec 2013 12:17:12.500,954.019
22,7 Dec 2013 13:47:34.147,7 Dec 2013 13:56:31.646,537.499
23,7 Dec 2013 19:17:41.099,7 Dec 2013 19:32:49.856,908.758
24,7 Dec 2013 21:03:27.933,7 Dec 2013 21:18:53.289,925.356
25,8 Dec 2013 00:45:28.891,8 Dec 2013 00:54:40.419,551.528
26,8 Dec 2013 02:29:47.665,8 Dec 2013 02:35:52.085,364.420
27,8 Dec 2013 04:13:01.577,8 Dec 2013 04:20:10.089,428.513
28,8 Dec 2013 05:54:47.688,8 Dec 2013 06:06:18.383,690.695
29,8 Dec 2013 07:36:41.694,8 Dec 2013 07:51:32.396,890.702
30,8 Dec 2013 09:19:08.132,8 Dec 2013 09:35:27.323,979.191
31,8 Dec 2013 11:02:03.413,8 Dec 2013 11:18:25.440,982.026
32,8 Dec 2013 12:44:59.944,8 Dec 2013 13:00:48.668,948.724
33,8 Dec 2013 14:28:59.311,8 Dec 2013 14:42:20.553,801.243
34,8 Dec 2013 19:56:05.285,8 Dec 2013 20:12:45.728,1000.443
35,8 Dec 2013 21:44:33.972,8 Dec 2013 21:56:27.373,713.401
36,9 Dec 2013 03:10:43.527,9 Dec 2013 03:26:58.122,974.595
37,9 Dec 2013 04:52:48.158,9 Dec 2013 05:09:13.151,984.994
38,9 Dec 2013 06:35:36.435,9 Dec 2013 06:51:39.732,963.297
39,9 Dec 2013 08:19:31.729,9 Dec 2013 08:33:43.631,851.902
40,9 Dec 2013 10:05:21.201,9 Dec 2013 10:14:55.133,573.932
41,9 Dec 2013 17:03:52.167,9 Dec 2013 17:08:56.721,304.554
42,9 Dec 2013 18:50:44.657,9 Dec 2013 19:02:55.731,731.075
43,9 Dec 2013 20:35:12.894,9 Dec 2013 20:52:06.799,1013.905
44,10 Dec 2013 03:54:41.716,10 Dec 2013 04:10:17.741,936.025
45,10 Dec 2013 05:38:31.609,10 Dec 2013 05:48:24.202,592.593

"Access","Start Time (UTCG)","Stop Time (UTCG)","Duration (sec)"
1,3 Dec 2013 01:19:47.817,3 Dec 2013 01:31:00.264,672.447
2,3 Dec 2013 08:46:35.213,3 Dec 2013 09:02:35.840,960.627
3,3 Dec 2013 19:34:28.342,3 Dec 2013 19:41:29.010,420.668
4,3 Dec 2013 21:08:50.370,3 Dec 2013 21:23:59.405,909.036
5,3 Dec 2013 22:47:22.079,3 Dec 2013 23:02:20.243,898.164
6,4 Dec 2013 00:29:16.883,4 Dec 2013 00:36:41.715,444.832
7,4 Dec 2013 09:31:25.654,4 Dec 2013 09:47:17.710,952.055
8,4 Dec 2013 18:42:09.441,4 Dec 2013 18:52:37.046,627.605
9,4 Dec 2013 20:17:51.048,4 Dec 2013 20:33:11.206,920.159
10,4 Dec 2013 21:56:35.087,4 Dec 2013 22:11:27.853,892.766
11,4 Dec 2013 23:40:30.908,4 Dec 2013 23:44:53.793,262.885
12,5 Dec 2013 10:16:12.259,5 Dec 2013 10:31:55.837,943.578
13,5 Dec 2013 12:03:20.107,5 Dec 2013 12:07:00.438,220.330
14,5 Dec 2013 19:26:06.946,5 Dec 2013 19:42:14.738,967.792
15,5 Dec 2013 21:05:43.331,5 Dec 2013 21:20:39.986,896.655
16,5 Dec 2013 22:48:30.422,5 Dec 2013 22:56:38.567,488.145
17,6 Dec 2013 11:00:46.172,6 Dec 2013 11:16:14.095,927.923
18,6 Dec 2013 12:45:49.304,6 Dec 2013 12:54:34.788,525.484
19,6 Dec 2013 18:24:21.950,6 Dec 2013 18:33:06.658,524.708
20,6 Dec 2013 20:05:32.875,6 Dec 2013 20:22:30.447,1017.572
21,6 Dec 2013 21:55:17.793,6 Dec 2013 22:07:52.936,755.143
22,7 Dec 2013 10:06:31.312,7 Dec 2013 10:14:37.774,486.462
23,7 Dec 2013 11:45:00.620,7 Dec 2013 11:59:53.195,892.575
24,7 Dec 2013 13:28:25.789,7 Dec 2013 13:40:49.956,744.168
25,7 Dec 2013 19:00:52.628,7 Dec 2013 19:14:22.155,809.527
26,7 Dec 2013 20:45:16.329,7 Dec 2013 21:01:32.885,976.556
27,7 Dec 2013 22:39:33.806,7 Dec 2013 22:43:53.337,259.531
28,8 Dec 2013 00:28:38.133,8 Dec 2013 00:36:46.509,488.377
29,8 Dec 2013 02:12:22.946,8 Dec 2013 02:18:51.279,388.333
30,8 Dec 2013 03:55:59.236,8 Dec 2013 04:02:32.655,393.418
31,8 Dec 2013 05:37:50.774,8 Dec 2013 05:48:38.588,647.814
32,8 Dec 2013 07:19:40.679,8 Dec 2013 07:34:05.867,865.188
33,8 Dec 2013 09:02:01.337,8 Dec 2013 09:18:12.852,971.515
34,8 Dec 2013 10:44:53.084,8 Dec 2013 11:01:18.600,985.516
35,8 Dec 2013 12:27:52.176,8 Dec 2013 12:43:46.782,954.606
36,8 Dec 2013 14:10:43.279,8 Dec 2013 14:25:38.036,894.757
37,8 Dec 2013 19:38:45.104,8 Dec 2013 19:54:46.782,961.678
38,8 Dec 2013 21:25:42.140,8 Dec 2013 21:39:42.183,840.043
39,9 Dec 2013 02:53:48.715,9 Dec 2013 03:09:36.398,947.683
40,9 Dec 2013 04:35:44.816,9 Dec 2013 04:52:08.850,984.034
41,9 Dec 2013 06:18:24.598,9 Dec 2013 06:34:36.047,971.448
42,9 Dec 2013 08:02:06.239,9 Dec 2013 08:16:45.744,879.505
43,9 Dec 2013 09:47:31.794,9 Dec 2013 09:58:08.817,637.022
44,9 Dec 2013 16:44:20.288,9 Dec 2013 16:51:39.576,439.287
45,9 Dec 2013 18:33:31.265,9 Dec 2013 18:43:48.147,616.882
46,9 Dec 2013 20:17:34.590,9 Dec 2013 20:34:30.286,1015.696
47,9 Dec 2013 22:07:26.120,9 Dec 2013 22:16:03.642,517.522
48,10 Dec 2013 03:38:12.087,10 Dec 2013 03:52:32.391,860.305
49,10 Dec 2013 05:20:20.867,10 Dec 2013 05:33:19.709,778.843

"Access","Start Time (UTCG)","Stop Time (UTCG)","Duration (sec)"
1,3 Dec 2013 01:01:13.508,3 Dec 2013 01:14:56.425,822.917
2,3 Dec 2013 08:30:10.415,3 Dec 2013 08:45:25.394,914.979
3,3 Dec 2013 10:14:08.071,3 Dec 2013 10:22:11.976,483.905
4,3 Dec 2013 20:52:41.806,3 Dec 2013 21:07:18.153,876.348
5,3 Dec 2013 22:30:46.008,3 Dec 2013 22:46:09.141,923.132
6,4 Dec 2013 00:11:49.061,4 Dec 2013 00:21:30.798,581.737
7,4 Dec 2013 09:15:09.437,4 Dec 2013 09:30:04.769,895.331
8,4 Dec 2013 10:58:35.727,4 Dec 2013 11:07:42.974,547.247
9,4 Dec 2013 18:26:40.243,4 Dec 2013 18:35:29.028,528.785
10,4 Dec 2013 20:01:40.137,4 Dec 2013 20:16:35.874,895.737
11,4 Dec 2013 21:39:55.273,4 Dec 2013 21:55:15.325,920.052
12,4 Dec 2013 23:22:06.073,4 Dec 2013 23:30:24.886,498.813
13,5 Dec 2013 10:00:02.534,5 Dec 2013 10:14:39.243,876.709
14,5 Dec 2013 11:42:56.051,5 Dec 2013 11:53:29.902,633.851
15,5 Dec 2013 19:08:46.346,5 Dec 2013 19:25:18.422,992.076
16,5 Dec 2013 20:49:01.786,5 Dec 2013 21:04:20.924,919.138
17,5 Dec 2013 22:30:50.089,5 Dec 2013 22:41:05.622,615.533
18,6 Dec 2013 10:44:43.879,6 Dec 2013 10:58:50.220,846.340
19,6 Dec 2013 12:26:48.952,6 Dec 2013 12:39:17.943,748.991
20,6 Dec 2013 19:47:56.665,6 Dec 2013 20:04:51.715,1015.050
21,6 Dec 2013 21:36:37.268,6 Dec 2013 21:50:11.848,814.579
22,7 Dec 2013 09:50:15.823,7 Dec 2013 09:56:48.923,393.100
23,7 Dec 2013 11:29:10.332,7 Dec 2013 11:42:16.120,785.788
24,7 Dec 2013 13:10:08.007,7 Dec 2013 13:24:34.149,866.141
25,7 Dec 2013 18:44:29.121,7 Dec 2013 18:55:22.969,653.848
26,7 Dec 2013 20:27:19.368,7 Dec 2013 20:44:06.441,1007.073
27,7 Dec 2013 22:19:23.313,7 Dec 2013 22:27:18.182,474.869
28,8 Dec 2013 00:12:05.267,8 Dec 2013 00:16:44.459,279.191
29,8 Dec 2013 01:54:57.466,8 Dec 2013 02:01:55.143,417.677
30,8 Dec 2013 03:38:53.555,8 Dec 2013 03:44:59.612,366.057
31,8 Dec 2013 05:20:54.025,8 Dec 2013 05:30:57.303,603.277
32,8 Dec 2013 07:02:40.567,8 Dec 2013 07:16:36.997,836.430
33,8 Dec 2013 08:44:55.460,8 Dec 2013 09:00:56.679,961.219
34,8 Dec 2013 10:27:43.003,8 Dec 2013 10:44:10.761,987.758
35,8 Dec 2013 12:10:43.476,8 Dec 2013 12:26:44.109,960.633
36,8 Dec 2013 13:53:18.387,8 Dec 2013 14:08:46.826,928.439
37,8 Dec 2013 19:21:34.782,8 Dec 2013 19:36:31.755,896.974
38,8 Dec 2013 21:07:15.987,8 Dec 2013 21:22:41.322,925.335
39,9 Dec 2013 02:37:02.190,9 Dec 2013 02:51:44.934,882.743
40,9 Dec 2013 04:18:42.666,9 Dec 2013 04:35:05.050,982.384
41,9 Dec 2013 06:01:14.425,9 Dec 2013 06:17:31.856,977.431
42,9 Dec 2013 07:44:43.555,9 Dec 2013 07:59:46.605,903.050
43,9 Dec 2013 09:29:47.553,9 Dec 2013 09:41:19.725,692.173
44,9 Dec 2013 11:18:22.245,9 Dec 2013 11:20:41.301,139.056
45,9 Dec 2013 16:27:10.851,9 Dec 2013 16:34:22.765,431.914
46,9 Dec 2013 18:16:17.837,9 Dec 2013 18:24:24.995,487.158
47,9 Dec 2013 20:00:03.468,9 Dec 2013 20:16:40.846,997.378
48,9 Dec 2013 21:47:58.226,9 Dec 2013 22:00:09.343,731.117
49,10 Dec 2013 03:22:02.065,10 Dec 2013 03:34:14.381,732.316
50,10 Dec 2013 05:02:43.364,10 Dec 2013 05:17:31.914,888.550

