Raw and processed data/Inclination variations/us_greatcircle_12sat_30deg/Aircraft-B747LAX_Sydney-Transmitter-adsb_out6212-To-Satellite-700km_30deg_p1_1-Receiver-adsb_satrcvr2 Access.csv

"Access","Start Time (UTCG)","Stop Time (UTCG)","Duration (sec)"
1,3 Dec 2013 02:04:24.861,3 Dec 2013 02:21:46.361,1041.500
2,3 Dec 2013 03:53:21.054,3 Dec 2013 04:10:37.122,1036.068
3,3 Dec 2013 05:42:20.853,3 Dec 2013 05:59:43.190,1042.336
4,3 Dec 2013 07:32:09.686,3 Dec 2013 07:48:05.121,955.435
5,3 Dec 2013 09:22:45.370,3 Dec 2013 09:37:15.286,869.917
6,3 Dec 2013 11:11:08.847,3 Dec 2013 11:27:41.086,992.239
7,3 Dec 2013 12:58:31.926,3 Dec 2013 13:14:45.457,973.531
8,3 Dec 2013 14:47:36.658,3 Dec 2013 14:55:59.216,502.559
9,3 Dec 2013 16:30:16.432,3 Dec 2013 16:38:52.926,516.493
10,3 Dec 2013 18:13:42.009,3 Dec 2013 18:22:33.345,531.336
11,3 Dec 2013 19:57:11.244,3 Dec 2013 20:07:07.224,595.980
12,3 Dec 2013 21:40:08.922,3 Dec 2013 21:52:13.661,724.739
13,3 Dec 2013 23:22:29.689,3 Dec 2013 23:36:53.796,864.108
14,4 Dec 2013 01:04:21.175,4 Dec 2013 01:20:16.229,955.055
15,4 Dec 2013 02:45:49.943,4 Dec 2013 03:02:02.388,972.445
16,4 Dec 2013 04:30:45.664,4 Dec 2013 04:47:54.974,1029.310
17,4 Dec 2013 06:20:12.603,4 Dec 2013 06:35:49.321,936.718
18,4 Dec 2013 08:12:28.779,4 Dec 2013 08:22:14.834,586.055
19,4 Dec 2013 10:07:26.495,4 Dec 2013 10:09:32.192,125.697
20,4 Dec 2013 11:52:13.416,4 Dec 2013 12:05:37.575,804.159
21,4 Dec 2013 13:37:46.388,4 Dec 2013 13:54:46.007,1019.619
22,4 Dec 2013 15:28:59.840,4 Dec 2013 15:34:43.916,344.076
23,5 Dec 2013 00:12:05.775,5 Dec 2013 00:20:07.031,481.256
24,5 Dec 2013 01:51:10.011,5 Dec 2013 02:05:45.143,875.131
25,5 Dec 2013 03:31:46.574,5 Dec 2013 03:47:56.921,970.347
26,5 Dec 2013 05:13:00.477,5 Dec 2013 05:27:55.939,895.462
27,5 Dec 2013 06:58:49.293,5 Dec 2013 07:10:12.665,683.372
28,5 Dec 2013 12:37:38.246,5 Dec 2013 12:40:36.829,178.582
29,5 Dec 2013 14:18:10.764,5 Dec 2013 14:34:52.250,1001.486
30,5 Dec 2013 16:06:09.895,5 Dec 2013 16:18:04.488,714.593
31,6 Dec 2013 01:01:15.624,6 Dec 2013 01:05:49.955,274.331
32,6 Dec 2013 02:37:37.647,6 Dec 2013 02:52:17.455,879.807
33,6 Dec 2013 04:17:52.516,6 Dec 2013 04:33:55.766,963.250
34,6 Dec 2013 05:59:55.535,6 Dec 2013 06:12:54.538,779.003
35,6 Dec 2013 14:59:28.235,6 Dec 2013 15:14:51.098,922.863
36,6 Dec 2013 16:45:21.601,6 Dec 2013 17:00:09.561,887.960
37,7 Dec 2013 01:45:33.853,7 Dec 2013 01:55:32.493,598.640
38,7 Dec 2013 03:23:23.998,7 Dec 2013 03:39:00.449,936.451
39,7 Dec 2013 05:04:14.938,7 Dec 2013 05:19:42.732,927.794
40,7 Dec 2013 06:48:21.389,7 Dec 2013 06:57:21.426,540.037
41,7 Dec 2013 15:41:27.646,7 Dec 2013 15:54:20.369,772.723
42,7 Dec 2013 17:25:17.510,7 Dec 2013 17:41:39.886,982.376
43,8 Dec 2013 00:54:35.538,8 Dec 2013 00:59:04.324,268.787
44,8 Dec 2013 02:29:57.056,8 Dec 2013 02:43:35.198,818.142
45,8 Dec 2013 04:09:11.593,8 Dec 2013 04:25:17.400,965.807
46,8 Dec 2013 05:50:56.479,8 Dec 2013 06:05:40.391,883.912
47,8 Dec 2013 07:36:55.631,8 Dec 2013 07:43:11.693,376.062
48,8 Dec 2013 16:24:24.022,8 Dec 2013 16:32:28.929,484.906
49,8 Dec 2013 18:05:29.786,8 Dec 2013 18:22:28.552,1018.766
50,8 Dec 2013 19:55:51.966,8 Dec 2013 20:06:25.910,633.944
51,9 Dec 2013 01:27:44.775,9 Dec 2013 01:40:35.723,770.948
52,9 Dec 2013 03:14:32.353,9 Dec 2013 03:30:10.781,938.428
53,9 Dec 2013 04:55:09.360,9 Dec 2013 05:11:20.890,971.530
54,9 Dec 2013 06:37:07.001,9 Dec 2013 06:52:20.015,913.014
55,9 Dec 2013 08:21:31.605,9 Dec 2013 08:32:52.855,681.250
56,9 Dec 2013 18:45:42.652,9 Dec 2013 19:02:19.123,996.471
57,9 Dec 2013 20:33:25.426,9 Dec 2013 20:48:49.252,923.826
58,9 Dec 2013 22:25:45.285,9 Dec 2013 22:36:05.218,619.933
59,10 Dec 2013 00:15:11.834,10 Dec 2013 00:27:54.914,763.080
60,10 Dec 2013 02:02:39.136,10 Dec 2013 02:19:05.590,986.454
61,10 Dec 2013 03:50:58.714,10 Dec 2013 04:08:22.684,1043.970
62,10 Dec 2013 05:39:41.624,10 Dec 2013 05:56:57.986,1036.362

"Access","Start Time (UTCG)","Stop Time (UTCG)","Duration (sec)"
1,3 Dec 2013 01:37:24.588,3 Dec 2013 01:54:42.409,1037.821
2,3 Dec 2013 03:26:04.661,3 Dec 2013 03:43:19.122,1034.461
3,3 Dec 2013 05:15:04.955,3 Dec 2013 05:32:30.741,1045.786
4,3 Dec 2013 07:04:33.875,3 Dec 2013 07:21:01.186,987.311
5,3 Dec 2013 08:55:12.605,3 Dec 2013 09:09:45.147,872.542
6,3 Dec 2013 10:44:17.107,3 Dec 2013 11:00:12.141,955.034
7,3 Dec 2013 12:31:33.051,3 Dec 2013 12:48:31.236,1018.185
8,3 Dec 2013 14:22:06.629,3 Dec 2013 14:30:22.892,496.263
9,3 Dec 2013 16:04:30.977,3 Dec 2013 16:13:05.348,514.371
10,3 Dec 2013 17:47:48.399,3 Dec 2013 17:56:33.380,524.981
11,3 Dec 2013 19:31:21.036,3 Dec 2013 19:40:54.036,573.000
12,3 Dec 2013 21:14:28.165,3 Dec 2013 21:25:56.947,688.782
13,3 Dec 2013 22:56:57.566,3 Dec 2013 23:10:49.569,832.003
14,4 Dec 2013 00:38:55.626,4 Dec 2013 00:54:34.469,938.843
15,4 Dec 2013 02:20:29.659,4 Dec 2013 02:36:44.772,975.112
16,4 Dec 2013 04:03:34.219,4 Dec 2013 04:20:47.336,1033.118
17,4 Dec 2013 05:52:41.732,4 Dec 2013 06:08:58.284,976.552
18,4 Dec 2013 07:43:58.764,4 Dec 2013 07:55:46.776,708.012
19,4 Dec 2013 09:39:56.635,4 Dec 2013 09:41:14.315,77.680
20,4 Dec 2013 11:26:01.003,4 Dec 2013 11:37:11.572,670.569
21,4 Dec 2013 13:11:12.307,4 Dec 2013 13:28:08.406,1016.099
22,4 Dec 2013 14:59:28.928,4 Dec 2013 15:11:34.151,725.224
23,4 Dec 2013 23:48:35.824,4 Dec 2013 23:52:06.173,210.349
24,5 Dec 2013 01:26:09.920,5 Dec 2013 01:39:46.139,816.218
25,5 Dec 2013 03:06:33.367,5 Dec 2013 03:22:37.659,964.292
26,5 Dec 2013 04:47:38.875,5 Dec 2013 05:03:07.318,928.443
27,5 Dec 2013 06:30:45.831,5 Dec 2013 06:44:00.561,794.730
28,5 Dec 2013 13:52:06.977,5 Dec 2013 14:07:46.841,939.864
29,5 Dec 2013 15:38:18.847,5 Dec 2013 15:53:11.986,893.139
30,6 Dec 2013 02:12:54.743,6 Dec 2013 02:26:23.643,808.899
31,6 Dec 2013 03:52:38.724,6 Dec 2013 04:08:46.138,967.414
32,6 Dec 2013 05:34:12.760,6 Dec 2013 05:48:26.678,853.918
33,6 Dec 2013 07:19:08.722,6 Dec 2013 07:23:53.687,284.965
34,6 Dec 2013 14:34:08.905,6 Dec 2013 14:47:06.554,777.649
35,6 Dec 2013 16:18:11.364,6 Dec 2013 16:34:32.003,980.639
36,7 Dec 2013 01:22:16.948,7 Dec 2013 01:28:32.811,375.863
37,7 Dec 2013 02:58:34.953,7 Dec 2013 03:13:28.377,893.424
38,7 Dec 2013 04:38:48.365,7 Dec 2013 04:54:44.789,956.425
39,7 Dec 2013 06:21:47.927,7 Dec 2013 06:33:27.584,699.657
40,7 Dec 2013 15:17:36.648,7 Dec 2013 15:25:15.414,458.766
41,7 Dec 2013 16:58:35.724,7 Dec 2013 17:15:30.142,1014.418
42,7 Dec 2013 18:50:04.149,7 Dec 2013 18:56:53.336,409.186
43,8 Dec 2013 02:05:34.285,8 Dec 2013 02:17:54.156,739.870
44,8 Dec 2013 03:44:09.053,8 Dec 2013 03:59:59.359,950.306
45,8 Dec 2013 05:25:14.686,8 Dec 2013 05:40:43.086,928.399
46,8 Dec 2013 07:09:36.502,8 Dec 2013 07:19:29.442,592.941
47,8 Dec 2013 17:39:12.789,8 Dec 2013 17:55:51.503,998.714
48,8 Dec 2013 19:27:17.298,8 Dec 2013 19:40:51.729,814.431
49,9 Dec 2013 01:01:32.729,9 Dec 2013 01:12:19.821,647.093
50,9 Dec 2013 02:47:38.172,9 Dec 2013 03:03:32.339,954.167
51,9 Dec 2013 04:29:58.718,9 Dec 2013 04:46:04.196,965.478
52,9 Dec 2013 06:11:25.447,9 Dec 2013 06:27:06.678,941.231
53,9 Dec 2013 07:55:08.672,9 Dec 2013 08:07:49.383,760.711
54,9 Dec 2013 09:42:44.621,9 Dec 2013 09:46:47.408,242.787
55,9 Dec 2013 18:19:50.870,9 Dec 2013 18:35:14.883,924.013
56,9 Dec 2013 20:05:55.258,9 Dec 2013 20:22:17.944,982.686
57,9 Dec 2013 21:57:36.097,9 Dec 2013 22:08:54.301,678.203
58,9 Dec 2013 23:48:14.957,9 Dec 2013 23:59:45.583,690.626
59,10 Dec 2013 01:35:44.358,10 Dec 2013 01:51:32.531,948.172
60,10 Dec 2013 03:23:48.628,10 Dec 2013 03:41:08.183,1039.555
61,10 Dec 2013 05:12:32.476,10 Dec 2013 05:29:54.978,1042.502

"Access","Start Time (UTCG)","Stop Time (UTCG)","Duration (sec)"
1,3 Dec 2013 01:10:36.709,3 Dec 2013 01:27:39.040,1022.331
2,3 Dec 2013 02:58:48.209,3 Dec 2013 03:16:04.134,1035.926
3,3 Dec 2013 04:47:50.631,3 Dec 2013 05:05:14.776,1044.145
4,3 Dec 2013 06:37:04.033,3 Dec 2013 06:53:57.455,1013.422
5,3 Dec 2013 08:27:32.643,3 Dec 2013 08:42:24.361,891.718
6,3 Dec 2013 10:17:17.551,3 Dec 2013 10:32:34.136,916.585
7,3 Dec 2013 12:04:42.888,3 Dec 2013 12:21:53.757,1030.869
8,3 Dec 2013 13:53:35.608,3 Dec 2013 14:05:34.616,719.008
9,3 Dec 2013 15:38:48.992,3 Dec 2013 15:47:20.542,511.550
10,3 Dec 2013 17:21:55.776,3 Dec 2013 17:30:36.771,520.995
11,3 Dec 2013 19:05:29.048,3 Dec 2013 19:14:43.757,554.709
12,3 Dec 2013 20:48:44.958,3 Dec 2013 20:59:39.607,654.649
13,3 Dec 2013 22:31:23.495,3 Dec 2013 22:44:40.932,797.437
14,4 Dec 2013 00:13:28.597,4 Dec 2013 00:28:46.653,918.056
15,4 Dec 2013 01:55:08.127,4 Dec 2013 02:11:21.320,973.193
16,4 Dec 2013 03:36:26.830,4 Dec 2013 03:53:38.507,1031.677
17,4 Dec 2013 05:25:18.308,4 Dec 2013 05:42:01.655,1003.347
18,4 Dec 2013 07:15:47.983,4 Dec 2013 07:29:13.444,805.462
19,4 Dec 2013 09:10:30.502,4 Dec 2013 09:14:57.651,267.149
20,4 Dec 2013 10:59:49.797,4 Dec 2013 11:08:18.390,508.593
21,4 Dec 2013 12:44:47.244,4 Dec 2013 13:01:05.050,977.806
22,4 Dec 2013 14:31:42.571,4 Dec 2013 14:46:37.475,894.904
23,5 Dec 2013 01:01:16.092,5 Dec 2013 01:13:33.434,737.342
24,5 Dec 2013 02:41:22.566,5 Dec 2013 02:57:09.767,947.202
25,5 Dec 2013 04:22:19.393,5 Dec 2013 04:38:11.423,952.031
26,5 Dec 2013 06:03:50.864,5 Dec 2013 06:17:31.802,820.938
27,5 Dec 2013 13:26:21.822,5 Dec 2013 13:40:04.904,823.082
28,5 Dec 2013 15:11:11.916,5 Dec 2013 15:27:35.300,983.384
29,6 Dec 2013 01:48:25.751,6 Dec 2013 02:00:12.291,706.540
30,6 Dec 2013 03:27:31.206,6 Dec 2013 03:43:27.024,955.818
31,6 Dec 2013 05:08:38.961,6 Dec 2013 05:23:46.616,907.655
32,6 Dec 2013 06:52:05.279,6 Dec 2013 07:00:56.297,531.018
33,6 Dec 2013 14:09:51.096,6 Dec 2013 14:18:03.123,492.027
34,6 Dec 2013 15:51:32.352,6 Dec 2013 16:08:26.119,1013.767
35,6 Dec 2013 17:43:30.673,6 Dec 2013 17:48:05.573,274.900
36,7 Dec 2013 02:33:57.494,7 Dec 2013 02:47:45.726,828.232
37,7 Dec 2013 04:13:31.177,7 Dec 2013 04:29:38.239,967.062
38,7 Dec 2013 05:55:41.534,7 Dec 2013 06:09:07.341,805.807
39,7 Dec 2013 16:32:21.770,7 Dec 2013 16:48:58.302,996.532
40,7 Dec 2013 18:20:32.156,7 Dec 2013 18:32:45.023,732.867
41,8 Dec 2013 01:41:25.710,8 Dec 2013 01:52:02.851,637.142
42,8 Dec 2013 03:19:15.501,8 Dec 2013 03:34:36.650,921.149
43,8 Dec 2013 04:59:43.936,8 Dec 2013 05:15:39.599,955.663
44,8 Dec 2013 06:43:02.209,8 Dec 2013 06:55:08.447,726.239
45,8 Dec 2013 17:13:25.279,8 Dec 2013 17:28:52.747,927.468
46,8 Dec 2013 18:59:28.487,8 Dec 2013 19:14:57.660,929.172
47,9 Dec 2013 00:35:48.622,9 Dec 2013 00:43:23.895,455.273
48,9 Dec 2013 02:20:50.886,9 Dec 2013 02:36:05.683,914.796
49,9 Dec 2013 04:04:54.766,9 Dec 2013 04:20:46.925,952.159
50,9 Dec 2013 05:45:52.307,9 Dec 2013 06:01:52.245,959.939
51,9 Dec 2013 07:28:57.785,9 Dec 2013 07:42:41.989,824.204
52,9 Dec 2013 09:15:06.416,9 Dec 2013 09:22:35.204,448.788
53,9 Dec 2013 17:54:36.815,9 Dec 2013 18:07:41.507,784.691
54,9 Dec 2013 19:38:47.326,9 Dec 2013 19:55:45.059,1017.733
55,9 Dec 2013 21:29:22.184,9 Dec 2013 21:42:02.397,760.213
56,9 Dec 2013 23:21:05.867,9 Dec 2013 23:31:36.963,631.096
57,10 Dec 2013 01:08:52.887,10 Dec 2013 01:23:50.231,897.344
58,10 Dec 2013 02:56:41.408,10 Dec 2013 03:13:51.493,1030.084
59,10 Dec 2013 04:45:21.902,10 Dec 2013 05:02:46.823,1044.921

"Access","Start Time (UTCG)","Stop Time (UTCG)","Duration (sec)"
1,3 Dec 2013 01:00:00.000,3 Dec 2013 01:00:32.727,32.727
2,3 Dec 2013 02:31:33.913,3 Dec 2013 02:48:53.214,1039.301
3,3 Dec 2013 04:20:36.338,3 Dec 2013 04:37:56.337,1039.999
4,3 Dec 2013 06:09:40.030,3 Dec 2013 06:26:51.906,1031.877
5,3 Dec 2013 07:59:50.228,3 Dec 2013 08:15:11.872,921.644
6,3 Dec 2013 09:50:07.393,3 Dec 2013 10:04:53.124,885.731
7,3 Dec 2013 11:37:56.205,3 Dec 2013 11:54:56.117,1019.912
8,3 Dec 2013 13:25:47.477,3 Dec 2013 13:40:30.967,883.490
9,3 Dec 2013 15:13:10.808,3 Dec 2013 15:21:38.479,507.670
10,3 Dec 2013 16:56:04.896,3 Dec 2013 17:04:43.350,518.455
11,3 Dec 2013 18:39:35.809,3 Dec 2013 18:48:36.807,540.998
12,3 Dec 2013 20:22:59.296,3 Dec 2013 20:33:22.696,623.400
13,3 Dec 2013 22:05:47.329,3 Dec 2013 22:18:28.658,761.329
14,3 Dec 2013 23:47:59.990,4 Dec 2013 00:02:52.979,892.989
15,4 Dec 2013 01:29:45.316,4 Dec 2013 01:45:51.845,966.529
16,4 Dec 2013 03:11:08.994,4 Dec 2013 03:27:14.448,965.454
17,4 Dec 2013 04:58:00.124,4 Dec 2013 05:15:00.182,1020.058
18,4 Dec 2013 06:47:53.655,4 Dec 2013 07:02:34.377,880.722
19,4 Dec 2013 08:41:19.623,4 Dec 2013 08:48:38.224,438.601
20,4 Dec 2013 10:33:38.675,4 Dec 2013 10:39:02.454,323.779
21,4 Dec 2013 12:18:28.301,4 Dec 2013 12:33:35.184,906.883
22,4 Dec 2013 14:04:33.915,4 Dec 2013 14:20:57.068,983.153
23,5 Dec 2013 00:36:31.960,5 Dec 2013 00:47:03.257,631.297
24,5 Dec 2013 02:16:14.572,5 Dec 2013 02:31:32.571,917.999
25,5 Dec 2013 03:57:01.954,5 Dec 2013 04:13:08.046,966.093
26,5 Dec 2013 05:38:24.375,5 Dec 2013 05:52:37.420,853.045
27,5 Dec 2013 07:27:29.613,5 Dec 2013 07:35:55.662,506.049
28,5 Dec 2013 13:01:05.644,5 Dec 2013 13:11:30.331,624.687
29,5 Dec 2013 14:44:31.580,5 Dec 2013 15:01:27.750,1016.171
30,5 Dec 2013 16:36:06.216,5 Dec 2013 16:40:56.328,290.112
31,6 Dec 2013 01:24:19.955,6 Dec 2013 01:33:33.906,553.951
32,6 Dec 2013 03:02:30.477,6 Dec 2013 03:17:57.862,927.385
33,6 Dec 2013 04:43:12.487,6 Dec 2013 04:58:56.033,943.546
34,6 Dec 2013 06:25:50.531,6 Dec 2013 06:37:06.929,676.398
35,6 Dec 2013 15:25:18.202,6 Dec 2013 15:41:53.775,995.573
36,6 Dec 2013 17:13:20.406,6 Dec 2013 17:25:06.390,705.984
37,7 Dec 2013 02:09:34.798,7 Dec 2013 02:21:49.388,734.589
38,7 Dec 2013 03:48:22.999,7 Dec 2013 04:04:23.496,960.497
39,7 Dec 2013 05:29:51.956,7 Dec 2013 05:44:30.959,879.003
40,7 Dec 2013 07:16:09.446,7 Dec 2013 07:20:01.340,231.893
41,7 Dec 2013 16:06:36.180,7 Dec 2013 16:21:59.451,923.272
42,7 Dec 2013 17:52:31.947,7 Dec 2013 18:07:27.401,895.454
43,8 Dec 2013 01:17:37.809,8 Dec 2013 01:25:54.635,496.825
44,8 Dec 2013 02:54:31.263,8 Dec 2013 03:09:08.864,877.601
45,8 Dec 2013 04:34:23.124,8 Dec 2013 04:50:30.872,967.748
46,8 Dec 2013 06:16:51.197,8 Dec 2013 06:30:29.877,818.680
47,8 Dec 2013 16:48:16.392,8 Dec 2013 17:01:19.215,782.823
48,8 Dec 2013 18:32:14.398,8 Dec 2013 18:48:49.774,995.377
49,8 Dec 2013 20:25:52.039,8 Dec 2013 20:31:05.485,313.446
50,9 Dec 2013 01:54:12.292,9 Dec 2013 02:08:28.410,856.118
51,9 Dec 2013 03:39:57.102,9 Dec 2013 03:55:29.116,932.015
52,9 Dec 2013 05:20:27.091,9 Dec 2013 05:36:36.937,969.846
53,9 Dec 2013 07:02:57.544,9 Dec 2013 07:17:31.946,874.402
54,9 Dec 2013 08:48:09.033,9 Dec 2013 08:57:49.975,580.942
55,9 Dec 2013 17:30:34.469,9 Dec 2013 17:39:01.703,507.234
56,9 Dec 2013 19:12:02.645,9 Dec 2013 19:29:06.943,1024.298
57,9 Dec 2013 21:01:15.871,9 Dec 2013 21:15:22.619,846.748
58,9 Dec 2013 22:53:37.137,9 Dec 2013 23:03:40.190,603.053
59,10 Dec 2013 00:42:02.988,10 Dec 2013 00:55:57.547,834.559
60,10 Dec 2013 02:29:38.089,10 Dec 2013 02:46:31.243,1013.154
61,10 Dec 2013 04:18:10.280,10 Dec 2013 04:35:35.647,1045.367

"Access","Start Time (UTCG)","Stop Time (UTCG)","Duration (sec)"
1,3 Dec 2013 03:24:41.028,3 Dec 2013 03:36:14.937,693.908
2,3 Dec 2013 05:07:42.682,3 Dec 2013 05:24:33.957,1011.275
3,3 Dec 2013 06:59:30.156,3 Dec 2013 07:08:10.003,519.848
4,3 Dec 2013 10:46:17.899,3 Dec 2013 10:47:44.983,87.084
5,3 Dec 2013 12:29:09.008,3 Dec 2013 12:43:31.252,862.244
6,3 Dec 2013 14:16:31.312,3 Dec 2013 14:32:07.614,936.302
7,3 Dec 2013 15:57:04.350,3 Dec 2013 16:13:16.323,971.973
8,3 Dec 2013 17:39:21.639,3 Dec 2013 17:54:20.151,898.512
9,3 Dec 2013 19:23:59.643,3 Dec 2013 19:35:06.773,667.129
10,4 Dec 2013 04:08:05.241,4 Dec 2013 04:12:42.068,276.827
11,4 Dec 2013 05:47:37.576,4 Dec 2013 06:04:35.111,1017.536
12,4 Dec 2013 07:36:10.140,4 Dec 2013 07:51:06.692,896.552
13,4 Dec 2013 09:28:04.773,4 Dec 2013 09:39:19.113,674.340
14,4 Dec 2013 11:16:53.437,4 Dec 2013 11:31:07.546,854.109
15,4 Dec 2013 13:04:38.047,4 Dec 2013 13:21:36.286,1018.239
16,4 Dec 2013 14:53:14.940,4 Dec 2013 15:10:41.452,1046.511
17,4 Dec 2013 16:41:56.673,4 Dec 2013 16:58:54.462,1017.789
18,4 Dec 2013 18:24:20.222,4 Dec 2013 18:40:40.785,980.563
19,4 Dec 2013 20:07:01.940,4 Dec 2013 20:23:05.523,963.583
20,4 Dec 2013 21:50:36.347,4 Dec 2013 22:06:08.885,932.538
21,4 Dec 2013 23:34:31.288,4 Dec 2013 23:49:41.704,910.417
22,5 Dec 2013 01:18:20.653,5 Dec 2013 01:33:21.930,901.277
23,5 Dec 2013 03:01:50.147,5 Dec 2013 03:16:42.503,892.356
24,5 Dec 2013 04:44:49.921,5 Dec 2013 04:59:20.515,870.594
25,5 Dec 2013 06:27:22.037,5 Dec 2013 06:43:17.521,955.484
26,5 Dec 2013 08:14:10.226,5 Dec 2013 08:31:14.981,1024.755
27,5 Dec 2013 10:03:42.491,5 Dec 2013 10:20:01.576,979.085
28,5 Dec 2013 11:52:41.009,5 Dec 2013 12:09:51.504,1030.495
29,5 Dec 2013 13:41:40.727,5 Dec 2013 13:58:53.784,1033.058
30,5 Dec 2013 15:31:27.050,5 Dec 2013 15:47:52.734,985.684
31,5 Dec 2013 17:20:12.704,5 Dec 2013 17:37:20.574,1027.870
32,5 Dec 2013 19:08:14.040,5 Dec 2013 19:24:01.787,947.748
33,5 Dec 2013 20:51:42.532,5 Dec 2013 21:06:30.381,887.848
34,5 Dec 2013 22:34:22.252,5 Dec 2013 22:49:31.347,909.096
35,6 Dec 2013 00:17:43.401,6 Dec 2013 00:33:01.124,917.722
36,6 Dec 2013 02:01:23.522,6 Dec 2013 02:16:49.105,925.583
37,6 Dec 2013 03:44:56.510,6 Dec 2013 04:00:40.592,944.083
38,6 Dec 2013 05:28:00.671,6 Dec 2013 05:44:10.281,969.610
39,6 Dec 2013 07:10:26.265,6 Dec 2013 07:26:47.506,981.241
40,6 Dec 2013 08:52:21.251,6 Dec 2013 09:09:35.675,1034.424
41,6 Dec 2013 10:40:51.430,6 Dec 2013 10:58:18.069,1046.639
42,6 Dec 2013 12:29:56.177,6 Dec 2013 12:46:57.524,1021.346
43,6 Dec 2013 14:20:20.902,6 Dec 2013 14:34:46.197,865.295
44,6 Dec 2013 16:12:00.374,6 Dec 2013 16:23:38.994,698.620
45,6 Dec 2013 18:00:14.574,6 Dec 2013 18:15:23.462,908.887
46,6 Dec 2013 19:46:51.476,6 Dec 2013 20:03:46.489,1015.013
47,6 Dec 2013 21:39:29.541,6 Dec 2013 21:42:32.929,183.388
48,7 Dec 2013 04:36:29.713,7 Dec 2013 04:39:07.599,157.887
49,7 Dec 2013 06:15:45.530,7 Dec 2013 06:27:16.918,691.387
50,7 Dec 2013 07:56:40.905,7 Dec 2013 08:11:45.890,904.985
51,7 Dec 2013 09:37:47.715,7 Dec 2013 09:54:00.105,972.390
52,7 Dec 2013 11:18:56.585,7 Dec 2013 11:35:04.519,967.934
53,7 Dec 2013 13:08:00.466,7 Dec 2013 13:22:29.734,869.269
54,7 Dec 2013 15:02:55.439,7 Dec 2013 15:06:13.318,197.879
55,7 Dec 2013 18:42:55.940,7 Dec 2013 18:52:15.719,559.779
56,7 Dec 2013 20:26:48.230,7 Dec 2013 20:43:42.199,1013.969
57,7 Dec 2013 22:15:19.656,7 Dec 2013 22:26:30.363,670.707
58,8 Dec 2013 07:07:51.302,8 Dec 2013 07:09:23.460,92.158
59,8 Dec 2013 08:43:40.150,8 Dec 2013 08:57:41.559,841.409
60,8 Dec 2013 10:23:51.997,8 Dec 2013 10:40:00.837,968.840
61,8 Dec 2013 12:05:13.538,8 Dec 2013 12:19:50.168,876.630
62,8 Dec 2013 13:48:06.614,8 Dec 2013 13:56:57.894,531.280
63,8 Dec 2013 21:07:49.359,8 Dec 2013 21:23:36.993,947.634
64,8 Dec 2013 22:54:10.408,8 Dec 2013 23:08:33.516,863.108
65,9 Dec 2013 07:53:45.681,9 Dec 2013 07:58:30.495,284.814
66,9 Dec 2013 09:29:46.893,9 Dec 2013 09:44:32.613,885.719
67,9 Dec 2013 11:09:59.978,9 Dec 2013 11:25:59.117,959.139
68,9 Dec 2013 12:52:31.573,9 Dec 2013 13:04:42.090,730.516
69,9 Dec 2013 21:49:42.408,9 Dec 2013 22:03:12.152,809.744
70,9 Dec 2013 23:34:00.111,9 Dec 2013 23:50:07.322,967.212

"Access","Start Time (UTCG)","Stop Time (UTCG)","Duration (sec)"
1,3 Dec 2013 03:02:18.744,3 Dec 2013 03:05:54.255,215.510
2,3 Dec 2013 04:41:08.826,3 Dec 2013 04:58:05.401,1016.576
3,3 Dec 2013 06:30:27.669,3 Dec 2013 06:42:43.366,735.697
4,3 Dec 2013 12:02:39.424,3 Dec 2013 12:15:38.344,778.920
5,3 Dec 2013 13:49:31.454,3 Dec 2013 14:05:56.426,984.972
6,3 Dec 2013 15:31:48.623,3 Dec 2013 15:47:59.424,970.802
7,3 Dec 2013 17:13:35.379,3 Dec 2013 17:29:05.009,929.630
8,3 Dec 2013 18:57:34.779,3 Dec 2013 19:09:58.493,743.714
9,3 Dec 2013 20:44:51.005,3 Dec 2013 20:49:40.469,289.464
10,4 Dec 2013 05:21:27.804,4 Dec 2013 05:37:40.464,972.659
11,4 Dec 2013 07:08:30.680,4 Dec 2013 07:24:30.246,959.567
12,4 Dec 2013 09:00:13.066,4 Dec 2013 09:11:50.341,697.275
13,4 Dec 2013 10:49:57.351,4 Dec 2013 11:03:09.241,791.890
14,4 Dec 2013 12:37:37.664,4 Dec 2013 12:54:11.000,993.336
15,4 Dec 2013 14:26:02.166,4 Dec 2013 14:43:27.817,1045.651
16,4 Dec 2013 16:14:48.725,4 Dec 2013 16:32:10.089,1041.364
17,4 Dec 2013 17:58:50.847,4 Dec 2013 18:15:10.691,979.844
18,4 Dec 2013 19:41:15.448,4 Dec 2013 19:57:25.629,970.182
19,4 Dec 2013 21:24:39.540,4 Dec 2013 21:40:19.689,940.149
20,4 Dec 2013 23:08:32.286,4 Dec 2013 23:23:46.763,914.477
21,5 Dec 2013 00:52:24.760,5 Dec 2013 01:07:27.682,902.923
22,5 Dec 2013 02:36:00.177,5 Dec 2013 02:50:55.574,895.397
23,5 Dec 2013 04:19:08.311,5 Dec 2013 04:33:45.982,877.672
24,5 Dec 2013 06:01:39.129,5 Dec 2013 06:15:54.928,855.799
25,5 Dec 2013 07:47:02.979,5 Dec 2013 08:04:17.949,1034.970
26,5 Dec 2013 09:36:18.247,5 Dec 2013 09:52:39.418,981.171
27,5 Dec 2013 11:25:30.624,5 Dec 2013 11:42:26.183,1015.560
28,5 Dec 2013 13:14:20.373,5 Dec 2013 13:31:42.681,1042.309
29,5 Dec 2013 15:04:00.822,5 Dec 2013 15:20:32.781,991.959
30,5 Dec 2013 16:53:11.140,5 Dec 2013 17:10:04.217,1013.076
31,5 Dec 2013 18:41:06.176,5 Dec 2013 18:57:50.664,1004.488
32,5 Dec 2013 20:26:11.056,5 Dec 2013 20:40:50.872,879.816
33,5 Dec 2013 22:08:37.697,5 Dec 2013 22:23:43.000,905.302
34,5 Dec 2013 23:51:50.364,6 Dec 2013 00:07:06.546,916.183
35,6 Dec 2013 01:35:28.137,6 Dec 2013 01:50:51.064,922.928
36,6 Dec 2013 03:19:05.298,6 Dec 2013 03:34:43.576,938.278
37,6 Dec 2013 05:02:18.078,6 Dec 2013 05:18:21.645,963.566
38,6 Dec 2013 06:44:53.588,6 Dec 2013 07:01:14.507,980.919
39,6 Dec 2013 08:26:49.712,6 Dec 2013 08:42:58.796,969.084
40,6 Dec 2013 10:13:38.608,6 Dec 2013 10:31:04.874,1046.265
41,6 Dec 2013 12:02:36.465,6 Dec 2013 12:19:52.273,1035.808
42,6 Dec 2013 13:52:32.277,6 Dec 2013 14:07:51.421,919.144
43,6 Dec 2013 15:44:14.574,6 Dec 2013 15:56:05.339,710.765
44,6 Dec 2013 17:33:31.217,6 Dec 2013 17:47:31.249,840.032
45,6 Dec 2013 19:20:06.774,6 Dec 2013 19:37:13.477,1026.703
46,6 Dec 2013 21:09:02.524,6 Dec 2013 21:20:18.465,675.941
47,7 Dec 2013 05:50:37.225,7 Dec 2013 06:00:44.472,607.247
48,7 Dec 2013 07:31:25.262,7 Dec 2013 07:45:52.350,867.088
49,7 Dec 2013 09:12:30.648,7 Dec 2013 09:28:37.813,967.165
50,7 Dec 2013 10:53:39.360,7 Dec 2013 11:09:27.100,947.740
51,7 Dec 2013 12:40:23.217,7 Dec 2013 12:55:48.871,925.654
52,7 Dec 2013 14:32:50.417,7 Dec 2013 14:41:17.694,507.277
53,7 Dec 2013 18:18:34.632,7 Dec 2013 18:21:38.540,183.908
54,7 Dec 2013 20:00:30.761,7 Dec 2013 20:16:43.046,972.286
55,7 Dec 2013 21:47:19.602,7 Dec 2013 22:01:48.745,869.143
56,8 Dec 2013 08:18:54.289,8 Dec 2013 08:31:35.506,761.217
57,8 Dec 2013 09:58:41.573,8 Dec 2013 10:14:41.447,959.874
58,8 Dec 2013 11:39:46.996,8 Dec 2013 11:55:05.955,918.958
59,8 Dec 2013 13:22:08.250,8 Dec 2013 13:33:01.968,653.718
60,8 Dec 2013 20:42:11.672,8 Dec 2013 20:56:01.701,830.029
61,8 Dec 2013 22:26:55.196,8 Dec 2013 22:43:04.299,969.103
62,9 Dec 2013 09:05:07.638,9 Dec 2013 09:18:43.301,815.662
63,9 Dec 2013 10:44:44.574,9 Dec 2013 11:00:51.851,967.277
64,9 Dec 2013 12:26:36.776,9 Dec 2013 12:40:20.804,824.027
65,9 Dec 2013 21:25:19.211,9 Dec 2013 21:34:29.630,550.420
66,9 Dec 2013 23:07:14.382,9 Dec 2013 23:24:05.524,1011.143
67,10 Dec 2013 01:01:24.166,10 Dec 2013 01:02:12.493,48.327

"Access","Start Time (UTCG)","Stop Time (UTCG)","Duration (sec)"
1,3 Dec 2013 04:15:02.663,3 Dec 2013 04:31:19.907,977.244
2,3 Dec 2013 06:02:17.286,3 Dec 2013 06:16:53.173,875.887
3,3 Dec 2013 11:36:23.508,3 Dec 2013 11:47:23.417,659.909
4,3 Dec 2013 13:22:36.791,3 Dec 2013 13:38:36.487,959.696
5,3 Dec 2013 15:06:39.556,3 Dec 2013 15:22:42.311,962.755
6,3 Dec 2013 16:47:57.344,3 Dec 2013 17:03:49.216,951.872
7,3 Dec 2013 18:31:20.745,3 Dec 2013 18:44:47.378,806.633
8,3 Dec 2013 20:17:30.274,3 Dec 2013 20:25:05.649,455.375
9,4 Dec 2013 04:55:48.708,4 Dec 2013 05:10:25.985,877.277
10,4 Dec 2013 06:41:10.873,4 Dec 2013 06:57:55.381,1004.508
11,4 Dec 2013 08:32:09.730,4 Dec 2013 08:44:41.564,751.833
12,4 Dec 2013 10:22:54.199,4 Dec 2013 10:35:06.625,732.426
13,4 Dec 2013 12:10:41.018,4 Dec 2013 12:26:38.653,957.634
14,4 Dec 2013 13:58:50.910,4 Dec 2013 14:16:13.057,1042.147
15,4 Dec 2013 15:47:39.175,4 Dec 2013 16:05:04.132,1044.957
16,4 Dec 2013 17:33:26.222,4 Dec 2013 17:49:42.961,976.739
17,4 Dec 2013 19:15:32.762,4 Dec 2013 19:31:48.218,975.456
18,4 Dec 2013 20:58:44.507,4 Dec 2013 21:14:32.634,948.126
19,4 Dec 2013 22:42:33.195,4 Dec 2013 22:57:52.734,919.539
20,5 Dec 2013 00:26:27.773,5 Dec 2013 00:41:32.600,904.827
21,5 Dec 2013 02:10:08.509,5 Dec 2013 02:25:06.264,897.754
22,5 Dec 2013 03:53:24.369,5 Dec 2013 04:08:07.984,883.615
23,5 Dec 2013 05:36:05.503,5 Dec 2013 05:50:18.587,853.084
24,5 Dec 2013 07:20:10.139,5 Dec 2013 07:37:22.202,1032.063
25,5 Dec 2013 09:08:52.211,5 Dec 2013 09:25:24.169,991.958
26,5 Dec 2013 10:58:18.446,5 Dec 2013 11:14:57.833,999.387
27,5 Dec 2013 12:47:04.248,5 Dec 2013 13:04:29.435,1045.186
28,5 Dec 2013 14:36:32.600,5 Dec 2013 14:53:17.013,1004.413
29,5 Dec 2013 16:26:03.401,5 Dec 2013 16:42:41.369,997.968
30,5 Dec 2013 18:14:06.726,5 Dec 2013 18:31:17.439,1030.713
31,5 Dec 2013 20:00:43.291,5 Dec 2013 20:15:13.988,870.696
32,5 Dec 2013 21:42:56.056,5 Dec 2013 21:57:56.607,900.551
33,5 Dec 2013 23:25:58.915,5 Dec 2013 23:41:13.280,914.365
34,6 Dec 2013 01:09:32.700,6 Dec 2013 01:24:53.569,920.869
35,6 Dec 2013 02:53:12.494,6 Dec 2013 03:08:45.713,933.219
36,6 Dec 2013 04:36:33.102,6 Dec 2013 04:52:30.140,957.039
37,6 Dec 2013 06:19:18.439,6 Dec 2013 06:35:37.107,978.668
38,6 Dec 2013 08:01:24.298,6 Dec 2013 08:17:39.680,975.383
39,6 Dec 2013 09:46:27.836,6 Dec 2013 10:03:53.123,1045.287
40,6 Dec 2013 11:35:19.964,6 Dec 2013 11:52:43.256,1043.292
41,6 Dec 2013 13:24:52.452,6 Dec 2013 13:40:56.276,963.824
42,6 Dec 2013 15:16:17.345,6 Dec 2013 15:28:48.364,751.019
43,6 Dec 2013 17:06:37.493,6 Dec 2013 17:19:30.072,772.580
44,6 Dec 2013 18:53:28.418,6 Dec 2013 19:10:17.493,1009.075
45,6 Dec 2013 20:41:05.119,6 Dec 2013 20:55:30.133,865.014
46,7 Dec 2013 05:25:34.430,7 Dec 2013 05:33:59.118,504.689
47,7 Dec 2013 07:06:10.488,7 Dec 2013 07:19:50.024,819.537
48,7 Dec 2013 08:47:13.760,7 Dec 2013 09:03:08.250,954.490
49,7 Dec 2013 10:28:22.111,7 Dec 2013 10:44:24.356,962.245
50,7 Dec 2013 12:12:56.171,7 Dec 2013 12:29:00.078,963.907
51,7 Dec 2013 14:04:04.990,7 Dec 2013 14:15:19.401,674.411
52,7 Dec 2013 19:34:24.547,7 Dec 2013 19:49:13.619,889.073
53,7 Dec 2013 21:20:06.240,7 Dec 2013 21:36:17.513,971.272
54,8 Dec 2013 07:54:21.553,8 Dec 2013 08:05:10.057,648.505
55,8 Dec 2013 09:33:35.553,8 Dec 2013 09:49:12.500,936.946
56,8 Dec 2013 11:14:24.734,8 Dec 2013 11:30:12.915,948.181
57,8 Dec 2013 12:56:22.538,8 Dec 2013 13:08:49.617,747.079
58,8 Dec 2013 20:17:11.183,8 Dec 2013 20:27:29.034,617.851
59,8 Dec 2013 22:00:11.134,8 Dec 2013 22:17:03.531,1012.397
60,9 Dec 2013 08:40:43.522,9 Dec 2013 08:52:37.367,713.845
61,9 Dec 2013 10:19:36.888,9 Dec 2013 10:35:35.367,958.479
62,9 Dec 2013 12:00:54.985,9 Dec 2013 12:15:44.752,889.767
63,9 Dec 2013 13:45:40.935,9 Dec 2013 13:51:59.221,378.286
64,9 Dec 2013 22:40:55.859,9 Dec 2013 22:57:39.096,1003.237
65,10 Dec 2013 00:29:34.945,10 Dec 2013 00:40:34.763,659.818

"Access","Start Time (UTCG)","Stop Time (UTCG)","Duration (sec)"
1,3 Dec 2013 03:49:28.321,3 Dec 2013 04:04:09.440,881.120
2,3 Dec 2013 05:34:44.452,3 Dec 2013 05:50:49.443,964.991
3,3 Dec 2013 11:10:30.596,3 Dec 2013 11:18:32.895,482.299
4,3 Dec 2013 12:55:48.789,3 Dec 2013 13:11:09.121,920.332
5,3 Dec 2013 14:41:36.753,3 Dec 2013 14:57:25.029,948.276
6,3 Dec 2013 16:22:27.132,3 Dec 2013 16:38:32.945,965.814
7,3 Dec 2013 18:05:16.585,3 Dec 2013 18:19:34.405,857.820
8,3 Dec 2013 19:50:36.965,3 Dec 2013 20:00:10.437,573.473
9,4 Dec 2013 04:30:55.101,4 Dec 2013 04:42:33.702,698.601
10,4 Dec 2013 06:14:12.698,4 Dec 2013 06:31:18.337,1025.638
11,4 Dec 2013 08:04:05.431,4 Dec 2013 08:17:48.822,823.391
12,4 Dec 2013 09:55:38.335,4 Dec 2013 10:07:06.865,688.531
13,4 Dec 2013 11:43:46.957,4 Dec 2013 11:58:57.711,910.754
14,4 Dec 2013 13:31:42.560,4 Dec 2013 13:48:56.369,1033.809
15,4 Dec 2013 15:20:27.706,4 Dec 2013 15:37:53.916,1046.210
16,4 Dec 2013 17:08:06.338,4 Dec 2013 17:24:17.558,971.220
17,4 Dec 2013 18:49:54.262,4 Dec 2013 19:06:13.278,979.017
18,4 Dec 2013 20:32:51.798,4 Dec 2013 20:48:47.876,956.078
19,4 Dec 2013 22:16:34.401,4 Dec 2013 22:31:59.994,925.593
20,5 Dec 2013 00:00:29.873,5 Dec 2013 00:15:37.130,907.257
21,5 Dec 2013 01:44:15.290,5 Dec 2013 01:59:14.924,899.634
22,5 Dec 2013 03:27:38.260,5 Dec 2013 03:42:26.735,888.475
23,5 Dec 2013 05:10:29.042,5 Dec 2013 05:24:51.421,862.380
24,5 Dec 2013 06:53:35.167,5 Dec 2013 07:10:23.829,1008.662
25,5 Dec 2013 08:41:28.066,5 Dec 2013 08:58:16.344,1008.278
26,5 Dec 2013 10:31:02.714,5 Dec 2013 10:47:28.669,985.955
27,5 Dec 2013 12:19:51.595,5 Dec 2013 12:37:12.629,1041.034
28,5 Dec 2013 14:09:05.186,5 Dec 2013 14:26:04.575,1019.389
29,5 Dec 2013 15:58:48.538,5 Dec 2013 16:15:16.332,987.794
30,5 Dec 2013 17:47:10.226,5 Dec 2013 18:04:26.236,1036.010
31,5 Dec 2013 19:35:19.305,5 Dec 2013 19:49:39.892,860.587
32,5 Dec 2013 21:17:17.588,5 Dec 2013 21:32:12.349,894.761
33,5 Dec 2013 23:00:09.434,5 Dec 2013 23:15:21.499,912.064
34,6 Dec 2013 00:43:37.654,6 Dec 2013 00:58:56.861,919.207
35,6 Dec 2013 02:27:18.448,6 Dec 2013 02:42:47.428,928.980
36,6 Dec 2013 04:10:45.855,6 Dec 2013 04:26:36.283,950.428
37,6 Dec 2013 05:53:40.800,6 Dec 2013 06:09:55.580,974.780
38,6 Dec 2013 07:35:56.490,6 Dec 2013 07:52:15.924,979.434
39,6 Dec 2013 09:19:21.125,6 Dec 2013 09:36:43.483,1042.358
40,6 Dec 2013 11:08:05.232,6 Dec 2013 11:25:31.386,1046.154
41,6 Dec 2013 12:57:20.903,6 Dec 2013 13:13:58.713,997.810
42,6 Dec 2013 14:48:17.180,6 Dec 2013 15:01:43.730,806.549
43,6 Dec 2013 16:39:28.368,6 Dec 2013 16:51:29.326,720.958
44,6 Dec 2013 18:26:52.278,6 Dec 2013 18:43:00.140,967.861
45,6 Dec 2013 20:13:47.966,6 Dec 2013 20:29:53.989,966.023
46,7 Dec 2013 05:00:42.839,7 Dec 2013 05:06:55.668,372.829
47,7 Dec 2013 06:40:57.015,7 Dec 2013 06:53:38.424,761.409
48,7 Dec 2013 08:21:57.133,7 Dec 2013 08:37:31.068,933.935
49,7 Dec 2013 10:03:04.883,7 Dec 2013 10:19:15.496,970.613
50,7 Dec 2013 11:45:36.362,7 Dec 2013 12:02:04.822,988.460
51,7 Dec 2013 13:35:52.248,7 Dec 2013 13:49:00.900,788.652
52,7 Dec 2013 19:08:30.555,7 Dec 2013 19:21:08.355,757.800
53,7 Dec 2013 20:53:18.649,7 Dec 2013 21:10:13.745,1015.096
54,7 Dec 2013 22:46:55.442,7 Dec 2013 22:47:37.476,42.034
55,8 Dec 2013 07:30:13.344,8 Dec 2013 07:38:13.397,480.053
56,8 Dec 2013 09:08:34.655,8 Dec 2013 09:23:33.038,898.383
57,8 Dec 2013 10:49:06.432,8 Dec 2013 11:05:11.225,964.793
58,8 Dec 2013 12:30:45.005,8 Dec 2013 12:44:25.047,820.043
59,8 Dec 2013 14:15:55.175,8 Dec 2013 14:21:25.107,329.932
60,8 Dec 2013 21:33:50.038,8 Dec 2013 21:50:35.076,1005.038
61,8 Dec 2013 23:22:18.945,8 Dec 2013 23:33:13.637,654.693
62,9 Dec 2013 08:16:43.801,9 Dec 2013 08:26:05.526,561.725
63,9 Dec 2013 09:54:37.313,9 Dec 2013 10:10:09.293,931.981
64,9 Dec 2013 11:35:23.222,9 Dec 2013 11:50:57.002,933.781
65,9 Dec 2013 13:18:45.961,9 Dec 2013 13:28:41.925,595.964
66,9 Dec 2013 22:15:03.318,9 Dec 2013 22:30:44.767,941.449
67,10 Dec 2013 00:01:20.294,10 Dec 2013 00:15:41.929,861.635

"Access","Start Time (UTCG)","Stop Time (UTCG)","Duration (sec)"
1,3 Dec 2013 08:09:39.667,3 Dec 2013 08:26:07.250,987.584
2,3 Dec 2013 09:57:10.812,3 Dec 2013 10:09:45.087,754.275
3,3 Dec 2013 18:53:41.981,3 Dec 2013 19:02:38.318,536.337
4,3 Dec 2013 20:31:20.939,3 Dec 2013 20:46:48.127,927.188
5,3 Dec 2013 22:12:02.698,3 Dec 2013 22:27:39.908,937.210
6,3 Dec 2013 23:55:26.477,4 Dec 2013 00:05:31.479,605.002
7,4 Dec 2013 08:51:06.746,4 Dec 2013 09:06:05.782,899.036
8,4 Dec 2013 10:36:35.771,4 Dec 2013 10:51:48.813,913.042
9,4 Dec 2013 19:38:10.753,4 Dec 2013 19:51:05.502,774.749
10,4 Dec 2013 21:17:08.069,4 Dec 2013 21:33:11.048,962.979
11,4 Dec 2013 22:58:45.648,4 Dec 2013 23:13:25.129,879.481
12,5 Dec 2013 00:45:15.484,5 Dec 2013 00:49:39.934,264.449
13,5 Dec 2013 09:33:07.537,5 Dec 2013 09:45:22.733,735.196
14,5 Dec 2013 11:16:32.491,5 Dec 2013 11:33:09.933,997.442
15,5 Dec 2013 18:41:27.924,5 Dec 2013 18:52:42.293,674.369
16,5 Dec 2013 20:23:08.588,5 Dec 2013 20:38:02.753,894.165
17,5 Dec 2013 22:03:07.022,5 Dec 2013 22:19:17.181,970.159
18,5 Dec 2013 23:45:20.365,5 Dec 2013 23:59:50.896,870.531
19,6 Dec 2013 01:31:09.803,6 Dec 2013 01:38:41.201,451.399
20,6 Dec 2013 10:16:12.099,6 Dec 2013 10:22:51.544,399.446
21,6 Dec 2013 11:56:37.629,6 Dec 2013 12:13:38.292,1020.663
22,6 Dec 2013 13:45:58.195,6 Dec 2013 13:59:03.231,785.035
23,6 Dec 2013 17:29:32.560,6 Dec 2013 17:38:53.427,560.868
24,6 Dec 2013 19:15:48.478,6 Dec 2013 19:31:19.012,930.534
25,6 Dec 2013 21:03:39.981,6 Dec 2013 21:20:46.980,1026.999
26,6 Dec 2013 22:49:02.163,6 Dec 2013 23:05:15.089,972.926
27,7 Dec 2013 00:30:51.533,7 Dec 2013 00:46:42.136,950.603
28,7 Dec 2013 02:14:20.133,7 Dec 2013 02:28:29.575,849.442
29,7 Dec 2013 03:59:10.546,7 Dec 2013 04:10:43.399,692.853
30,7 Dec 2013 05:44:30.207,7 Dec 2013 05:53:32.137,541.931
31,7 Dec 2013 07:29:13.548,7 Dec 2013 07:36:55.432,461.884
32,7 Dec 2013 09:12:55.737,7 Dec 2013 09:20:20.314,444.577
33,7 Dec 2013 10:55:47.706,7 Dec 2013 11:03:00.109,432.404
34,7 Dec 2013 12:36:37.643,7 Dec 2013 12:52:57.420,979.777
35,7 Dec 2013 14:23:50.112,7 Dec 2013 14:40:15.833,985.722
36,7 Dec 2013 16:14:22.899,7 Dec 2013 16:28:39.142,856.243
37,7 Dec 2013 18:03:32.184,7 Dec 2013 18:19:20.186,948.002
38,7 Dec 2013 19:51:51.153,7 Dec 2013 20:09:12.268,1041.115
39,7 Dec 2013 21:40:54.390,7 Dec 2013 21:58:12.623,1038.234
40,7 Dec 2013 23:29:44.005,7 Dec 2013 23:47:05.875,1041.870
41,8 Dec 2013 01:15:55.840,8 Dec 2013 01:31:59.317,963.477
42,8 Dec 2013 02:58:01.004,8 Dec 2013 03:14:25.862,984.858
43,8 Dec 2013 04:40:59.227,8 Dec 2013 04:57:30.489,991.262
44,8 Dec 2013 06:24:29.208,8 Dec 2013 06:41:01.439,992.231
45,8 Dec 2013 08:08:09.659,8 Dec 2013 08:24:41.098,991.439
46,8 Dec 2013 09:51:42.412,8 Dec 2013 10:08:09.706,987.294
47,8 Dec 2013 11:34:51.307,8 Dec 2013 11:51:06.689,975.383
48,8 Dec 2013 13:17:23.704,8 Dec 2013 13:33:12.580,948.875
49,8 Dec 2013 15:02:08.364,8 Dec 2013 15:19:28.349,1039.984
50,8 Dec 2013 16:51:01.669,8 Dec 2013 17:08:08.694,1027.025
51,8 Dec 2013 18:40:01.743,8 Dec 2013 18:57:27.142,1045.399
52,8 Dec 2013 20:29:26.984,8 Dec 2013 20:46:03.209,996.225
53,8 Dec 2013 22:19:53.156,8 Dec 2013 22:34:55.157,902.001
54,9 Dec 2013 00:08:47.399,9 Dec 2013 00:25:09.230,981.831
55,9 Dec 2013 01:56:13.049,9 Dec 2013 02:12:56.379,1003.330
56,9 Dec 2013 03:44:42.578,9 Dec 2013 03:55:12.573,629.995
57,9 Dec 2013 05:27:10.971,9 Dec 2013 05:38:01.355,650.384
58,9 Dec 2013 07:10:29.981,9 Dec 2013 07:21:30.630,660.649
59,9 Dec 2013 08:54:07.873,9 Dec 2013 09:05:40.613,692.740
60,9 Dec 2013 10:37:27.294,9 Dec 2013 10:50:19.943,772.649
61,9 Dec 2013 12:20:09.608,9 Dec 2013 12:34:46.941,877.333
62,9 Dec 2013 14:02:16.353,9 Dec 2013 14:18:11.903,955.550
63,9 Dec 2013 15:43:54.213,9 Dec 2013 16:00:08.872,974.659
64,9 Dec 2013 17:28:27.367,9 Dec 2013 17:45:45.063,1037.696
65,9 Dec 2013 19:17:36.736,9 Dec 2013 19:33:59.765,983.029
66,9 Dec 2013 21:08:48.189,9 Dec 2013 21:21:00.688,732.499
67,9 Dec 2013 23:02:42.617,9 Dec 2013 23:08:28.260,345.642
68,10 Dec 2013 00:49:59.300,10 Dec 2013 01:02:36.124,756.824
69,10 Dec 2013 02:35:35.931,10 Dec 2013 02:52:38.982,1023.051
70,10 Dec 2013 04:24:44.688,10 Dec 2013 04:35:03.065,618.376

"Access","Start Time (UTCG)","Stop Time (UTCG)","Duration (sec)"
1,3 Dec 2013 07:43:49.342,3 Dec 2013 07:58:55.941,906.599
2,3 Dec 2013 09:29:27.250,3 Dec 2013 09:44:41.030,913.780
3,3 Dec 2013 18:31:05.230,3 Dec 2013 18:34:45.590,220.360
4,3 Dec 2013 20:06:32.589,3 Dec 2013 20:21:10.649,878.060
5,3 Dec 2013 21:46:39.971,3 Dec 2013 22:02:40.793,960.821
6,3 Dec 2013 23:29:11.397,3 Dec 2013 23:41:29.691,738.294
7,4 Dec 2013 08:26:04.680,4 Dec 2013 08:38:12.334,727.654
8,4 Dec 2013 10:09:30.199,4 Dec 2013 10:26:01.577,991.377
9,4 Dec 2013 19:13:59.505,4 Dec 2013 19:25:08.765,669.260
10,4 Dec 2013 20:52:07.999,4 Dec 2013 21:07:50.831,942.832
11,4 Dec 2013 22:33:05.441,4 Dec 2013 22:48:32.755,927.314
12,5 Dec 2013 00:17:29.026,5 Dec 2013 00:26:39.699,550.673
13,5 Dec 2013 09:09:52.835,5 Dec 2013 09:15:49.258,356.423
14,5 Dec 2013 10:49:54.613,5 Dec 2013 11:06:51.169,1016.556
15,5 Dec 2013 12:40:09.691,5 Dec 2013 12:50:02.134,592.442
16,5 Dec 2013 18:15:48.729,5 Dec 2013 18:23:58.903,490.174
17,5 Dec 2013 19:58:27.693,5 Dec 2013 20:12:38.187,850.494
18,5 Dec 2013 21:37:55.845,5 Dec 2013 21:54:01.961,966.116
19,5 Dec 2013 23:19:32.270,5 Dec 2013 23:34:47.461,915.191
20,6 Dec 2013 01:04:07.631,6 Dec 2013 01:14:21.705,614.074
21,6 Dec 2013 11:30:24.260,6 Dec 2013 11:46:52.663,988.403
22,6 Dec 2013 13:17:56.398,6 Dec 2013 13:32:50.977,894.579
23,6 Dec 2013 15:13:10.810,6 Dec 2013 15:17:07.939,237.129
24,6 Dec 2013 17:03:17.278,6 Dec 2013 17:09:53.733,396.455
25,6 Dec 2013 18:49:04.652,6 Dec 2013 19:03:37.021,872.369
26,6 Dec 2013 20:36:35.285,6 Dec 2013 20:53:32.540,1017.255
27,6 Dec 2013 22:23:49.669,6 Dec 2013 22:39:56.155,966.486
28,7 Dec 2013 00:05:14.883,7 Dec 2013 00:21:18.617,963.735
29,7 Dec 2013 01:48:19.056,7 Dec 2013 02:03:00.536,881.480
30,7 Dec 2013 03:32:52.565,7 Dec 2013 03:45:07.012,734.446
31,7 Dec 2013 05:18:11.439,7 Dec 2013 05:27:46.298,574.859
32,7 Dec 2013 07:03:08.490,7 Dec 2013 07:11:02.540,474.049
33,7 Dec 2013 08:47:05.393,7 Dec 2013 08:54:31.772,446.379
34,7 Dec 2013 10:30:09.005,7 Dec 2013 10:37:26.062,437.057
35,7 Dec 2013 12:10:49.475,7 Dec 2013 12:25:44.220,894.745
36,7 Dec 2013 13:56:33.015,7 Dec 2013 14:13:29.298,1016.283
37,7 Dec 2013 15:46:43.922,7 Dec 2013 16:01:16.475,872.554
38,7 Dec 2013 17:36:26.131,7 Dec 2013 17:51:38.310,912.179
39,7 Dec 2013 19:24:43.164,7 Dec 2013 19:41:52.556,1029.392
40,7 Dec 2013 21:13:35.840,7 Dec 2013 21:30:57.480,1041.640
41,7 Dec 2013 23:02:37.108,7 Dec 2013 23:19:57.890,1040.782
42,8 Dec 2013 00:50:34.461,8 Dec 2013 01:06:29.372,954.912
43,8 Dec 2013 02:32:24.043,8 Dec 2013 02:48:45.357,981.313
44,8 Dec 2013 04:15:10.797,8 Dec 2013 04:31:41.280,990.483
45,8 Dec 2013 05:58:34.964,8 Dec 2013 06:15:07.129,992.164
46,8 Dec 2013 07:42:14.600,8 Dec 2013 07:58:46.432,991.832
47,8 Dec 2013 09:25:50.866,8 Dec 2013 09:42:19.703,988.837
48,8 Dec 2013 11:09:07.092,8 Dec 2013 11:25:26.549,979.457
49,8 Dec 2013 12:51:49.528,8 Dec 2013 13:07:46.711,957.184
50,8 Dec 2013 14:35:14.635,8 Dec 2013 14:52:26.469,1031.834
51,8 Dec 2013 16:23:43.551,8 Dec 2013 16:40:51.877,1028.327
52,8 Dec 2013 18:12:48.000,8 Dec 2013 18:30:09.795,1041.796
53,8 Dec 2013 20:01:58.454,8 Dec 2013 20:18:57.773,1019.319
54,8 Dec 2013 21:52:17.410,8 Dec 2013 22:07:32.906,915.496
55,8 Dec 2013 23:41:48.527,8 Dec 2013 23:57:37.401,948.874
56,9 Dec 2013 01:29:18.446,9 Dec 2013 01:46:27.623,1029.177
57,9 Dec 2013 03:18:56.652,9 Dec 2013 03:29:37.288,640.636
58,9 Dec 2013 05:01:28.289,9 Dec 2013 05:12:15.278,646.989
59,9 Dec 2013 06:44:36.940,9 Dec 2013 06:55:34.523,657.583
60,9 Dec 2013 08:28:13.829,9 Dec 2013 08:39:34.445,680.616
61,9 Dec 2013 10:11:40.645,9 Dec 2013 10:24:09.177,748.532
62,9 Dec 2013 11:54:32.620,9 Dec 2013 12:08:44.324,851.704
63,9 Dec 2013 13:36:47.618,9 Dec 2013 13:52:28.426,940.808
64,9 Dec 2013 15:18:32.163,9 Dec 2013 15:34:48.171,976.008
65,9 Dec 2013 17:01:17.736,9 Dec 2013 17:18:35.550,1037.814
66,9 Dec 2013 18:50:13.189,9 Dec 2013 19:07:02.014,1008.825
67,9 Dec 2013 20:40:40.850,9 Dec 2013 20:54:22.004,821.153
68,9 Dec 2013 22:34:24.792,9 Dec 2013 22:41:07.341,402.548
69,10 Dec 2013 00:23:36.211,10 Dec 2013 00:34:05.158,628.947
70,10 Dec 2013 02:09:05.352,10 Dec 2013 02:25:46.168,1000.816
71,10 Dec 2013 03:56:33.080,10 Dec 2013 04:10:32.663,839.582

"Access","Start Time (UTCG)","Stop Time (UTCG)","Duration (sec)"
1,3 Dec 2013 07:18:27.063,3 Dec 2013 07:31:00.929,753.866
2,3 Dec 2013 09:02:25.670,3 Dec 2013 09:18:58.230,992.560
3,3 Dec 2013 19:41:56.053,3 Dec 2013 19:55:20.444,804.391
4,3 Dec 2013 21:21:25.407,3 Dec 2013 21:37:32.452,967.045
5,3 Dec 2013 23:03:16.171,3 Dec 2013 23:17:06.672,830.501
6,4 Dec 2013 08:02:40.494,4 Dec 2013 08:08:27.363,346.868
7,4 Dec 2013 09:42:55.518,4 Dec 2013 09:59:49.680,1014.162
8,4 Dec 2013 11:33:41.651,4 Dec 2013 11:41:08.858,447.208
9,4 Dec 2013 18:50:12.616,4 Dec 2013 18:58:50.836,518.220
10,4 Dec 2013 20:27:17.664,4 Dec 2013 20:42:23.911,906.247
11,4 Dec 2013 22:07:36.463,4 Dec 2013 22:23:32.308,955.845
12,4 Dec 2013 23:50:50.484,5 Dec 2013 00:02:35.389,704.905
13,5 Dec 2013 10:23:44.695,5 Dec 2013 10:40:12.980,988.285
14,5 Dec 2013 12:11:26.931,5 Dec 2013 12:24:53.010,806.079
15,5 Dec 2013 19:33:54.182,5 Dec 2013 19:47:10.722,796.539
16,5 Dec 2013 21:12:52.535,5 Dec 2013 21:28:44.492,951.957
17,5 Dec 2013 22:53:54.627,5 Dec 2013 23:09:40.278,945.651
18,6 Dec 2013 00:37:34.685,6 Dec 2013 00:49:41.034,726.349
19,6 Dec 2013 11:04:41.022,6 Dec 2013 11:19:46.577,905.555
20,6 Dec 2013 12:50:23.386,6 Dec 2013 13:06:34.036,970.650
21,6 Dec 2013 14:43:33.068,6 Dec 2013 14:51:15.744,462.675
22,6 Dec 2013 16:37:23.234,6 Dec 2013 16:40:16.105,172.871
23,6 Dec 2013 18:22:27.289,6 Dec 2013 18:35:41.174,793.885
24,6 Dec 2013 20:09:34.435,6 Dec 2013 20:26:14.216,999.781
25,6 Dec 2013 21:57:55.776,6 Dec 2013 22:14:38.325,1002.549
26,6 Dec 2013 23:39:44.528,6 Dec 2013 23:55:56.297,971.769
27,7 Dec 2013 01:22:23.748,7 Dec 2013 01:37:33.015,909.267
28,7 Dec 2013 03:06:37.578,7 Dec 2013 03:19:32.674,775.096
29,7 Dec 2013 04:51:51.145,7 Dec 2013 05:02:02.925,611.780
30,7 Dec 2013 06:36:59.382,7 Dec 2013 06:45:10.621,491.239
31,7 Dec 2013 08:21:11.766,7 Dec 2013 08:28:40.917,449.150
32,7 Dec 2013 10:04:27.431,7 Dec 2013 10:11:47.909,440.478
33,7 Dec 2013 11:45:41.437,7 Dec 2013 11:58:00.325,738.888
34,7 Dec 2013 13:29:33.407,7 Dec 2013 13:46:43.620,1030.213
35,7 Dec 2013 15:19:01.203,7 Dec 2013 15:34:06.209,905.006
36,7 Dec 2013 17:09:14.156,7 Dec 2013 17:23:54.424,880.268
37,7 Dec 2013 18:57:38.343,7 Dec 2013 19:14:27.854,1009.511
38,7 Dec 2013 20:46:18.119,7 Dec 2013 21:03:43.117,1044.998
39,7 Dec 2013 22:35:26.391,7 Dec 2013 22:52:44.461,1038.070
40,8 Dec 2013 00:23:52.242,8 Dec 2013 00:40:51.459,1019.217
41,8 Dec 2013 02:06:50.731,8 Dec 2013 02:23:07.375,976.644
42,8 Dec 2013 03:49:24.714,8 Dec 2013 04:05:53.979,989.265
43,8 Dec 2013 05:32:41.659,8 Dec 2013 05:49:13.681,992.022
44,8 Dec 2013 07:16:19.320,8 Dec 2013 07:32:51.397,992.076
45,8 Dec 2013 08:59:58.059,8 Dec 2013 09:16:28.050,989.991
46,8 Dec 2013 10:43:20.742,8 Dec 2013 10:59:43.460,982.718
47,8 Dec 2013 12:26:12.658,8 Dec 2013 12:42:17.004,964.346
48,8 Dec 2013 14:08:36.033,8 Dec 2013 14:25:23.220,1007.187
49,8 Dec 2013 15:56:26.480,8 Dec 2013 16:13:39.561,1033.081
50,8 Dec 2013 17:45:34.092,8 Dec 2013 18:02:49.734,1035.642
51,8 Dec 2013 19:34:35.395,8 Dec 2013 19:51:50.803,1035.409
52,8 Dec 2013 21:24:38.637,8 Dec 2013 21:40:18.221,939.584
53,8 Dec 2013 23:14:40.437,8 Dec 2013 23:30:00.827,920.390
54,9 Dec 2013 01:02:28.822,9 Dec 2013 01:19:38.155,1029.333
55,9 Dec 2013 02:50:45.314,9 Dec 2013 03:04:32.512,827.199
56,9 Dec 2013 04:35:49.191,9 Dec 2013 04:46:31.720,642.530
57,9 Dec 2013 06:18:45.734,9 Dec 2013 06:29:40.969,655.235
58,9 Dec 2013 08:02:19.075,9 Dec 2013 08:13:30.625,671.550
59,9 Dec 2013 09:45:51.682,9 Dec 2013 09:57:58.545,726.863
60,9 Dec 2013 11:28:53.278,9 Dec 2013 11:42:38.401,825.123
61,9 Dec 2013 13:11:16.994,9 Dec 2013 13:26:39.521,922.528
62,9 Dec 2013 14:53:08.545,9 Dec 2013 15:09:21.821,973.276
63,9 Dec 2013 16:34:33.744,9 Dec 2013 16:51:25.967,1012.223
64,9 Dec 2013 18:22:54.706,9 Dec 2013 18:39:59.596,1024.890
65,9 Dec 2013 20:12:48.016,9 Dec 2013 20:27:39.566,891.550
66,9 Dec 2013 22:05:46.360,9 Dec 2013 22:14:16.855,510.495
67,9 Dec 2013 23:57:04.975,10 Dec 2013 00:05:19.808,494.833
68,10 Dec 2013 01:42:40.901,10 Dec 2013 01:58:28.213,947.312
69,10 Dec 2013 03:29:11.989,10 Dec 2013 03:45:06.579,954.590

"Access","Start Time (UTCG)","Stop Time (UTCG)","Duration (sec)"
1,3 Dec 2013 06:54:04.191,3 Dec 2013 07:01:44.357,460.167
2,3 Dec 2013 08:35:51.635,3 Dec 2013 08:52:46.603,1014.968
3,3 Dec 2013 10:26:30.178,3 Dec 2013 10:33:21.761,411.583
4,3 Dec 2013 19:17:35.680,3 Dec 2013 19:29:13.174,697.493
5,3 Dec 2013 20:56:18.913,3 Dec 2013 21:12:15.028,956.115
6,3 Dec 2013 22:37:34.264,3 Dec 2013 22:52:29.054,894.790
7,4 Dec 2013 00:22:21.901,4 Dec 2013 00:28:51.464,389.563
8,4 Dec 2013 09:16:47.288,4 Dec 2013 09:33:12.992,985.705
9,4 Dec 2013 11:04:24.998,4 Dec 2013 11:17:03.758,758.760
10,4 Dec 2013 18:27:25.398,4 Dec 2013 18:31:36.423,251.025
11,4 Dec 2013 20:02:37.987,4 Dec 2013 20:16:49.384,851.397
12,4 Dec 2013 21:42:17.525,4 Dec 2013 21:58:24.898,967.373
13,4 Dec 2013 23:24:39.259,4 Dec 2013 23:38:07.357,808.098
14,5 Dec 2013 09:58:05.065,5 Dec 2013 10:13:08.845,903.780
15,5 Dec 2013 11:43:40.778,5 Dec 2013 11:59:11.323,930.545
16,5 Dec 2013 19:07:38.275,5 Dec 2013 19:20:46.871,788.596
17,5 Dec 2013 20:47:56.842,5 Dec 2013 21:03:24.786,927.944
18,5 Dec 2013 22:28:26.450,5 Dec 2013 22:44:30.041,963.591
19,6 Dec 2013 00:11:20.381,6 Dec 2013 00:24:49.431,809.050
20,6 Dec 2013 01:59:53.497,6 Dec 2013 02:01:27.555,94.058
21,6 Dec 2013 10:39:39.668,6 Dec 2013 10:52:04.733,745.064
22,6 Dec 2013 12:23:17.487,6 Dec 2013 12:40:10.689,1013.202
23,6 Dec 2013 14:14:30.205,6 Dec 2013 14:25:11.683,641.477
24,6 Dec 2013 17:55:56.478,6 Dec 2013 18:07:27.880,691.402
25,6 Dec 2013 19:42:38.560,6 Dec 2013 19:58:50.463,971.903
26,6 Dec 2013 21:30:47.213,6 Dec 2013 21:47:58.237,1031.025
27,6 Dec 2013 23:14:20.359,6 Dec 2013 23:30:35.131,974.773
28,7 Dec 2013 00:56:34.511,7 Dec 2013 01:12:06.909,932.398
29,7 Dec 2013 02:40:26.509,7 Dec 2013 02:54:00.245,813.737
30,7 Dec 2013 04:25:30.450,7 Dec 2013 04:36:21.991,651.540
31,7 Dec 2013 06:10:46.452,7 Dec 2013 06:19:20.332,513.880
32,7 Dec 2013 07:55:14.579,7 Dec 2013 08:02:48.513,453.934
33,7 Dec 2013 09:38:43.031,7 Dec 2013 09:46:05.866,442.835
34,7 Dec 2013 11:21:23.410,7 Dec 2013 11:28:56.104,452.694
35,7 Dec 2013 13:02:53.970,7 Dec 2013 13:19:54.690,1020.720
36,7 Dec 2013 14:51:21.168,7 Dec 2013 15:07:06.967,945.799
37,7 Dec 2013 16:41:53.494,7 Dec 2013 16:56:13.038,859.544
38,7 Dec 2013 18:30:35.364,7 Dec 2013 18:46:57.107,981.744
39,7 Dec 2013 20:19:02.886,7 Dec 2013 20:36:28.556,1045.670
40,7 Dec 2013 22:08:11.817,7 Dec 2013 22:25:28.636,1036.820
41,7 Dec 2013 23:56:48.274,8 Dec 2013 00:14:04.934,1036.660
42,8 Dec 2013 01:41:21.282,8 Dec 2013 01:57:32.004,970.722
43,8 Dec 2013 03:23:41.331,8 Dec 2013 03:40:08.781,987.450
44,8 Dec 2013 05:06:49.637,8 Dec 2013 05:23:21.374,991.737
45,8 Dec 2013 06:50:24.091,8 Dec 2013 07:06:56.297,992.205
46,8 Dec 2013 08:34:04.234,8 Dec 2013 08:50:35.072,990.838
47,8 Dec 2013 10:17:32.448,8 Dec 2013 10:33:57.735,985.287
48,8 Dec 2013 12:00:33.209,8 Dec 2013 12:16:43.596,970.386
49,8 Dec 2013 13:42:55.096,8 Dec 2013 13:58:34.530,939.434
50,8 Dec 2013 15:29:13.551,8 Dec 2013 15:46:32.027,1038.476
51,8 Dec 2013 17:18:18.777,8 Dec 2013 17:35:28.660,1029.883
52,8 Dec 2013 19:07:16.968,8 Dec 2013 19:24:40.835,1043.866
53,8 Dec 2013 20:57:00.859,8 Dec 2013 21:13:09.188,968.328
54,8 Dec 2013 22:47:21.765,8 Dec 2013 23:02:25.217,903.452
55,9 Dec 2013 00:35:39.725,9 Dec 2013 00:52:30.923,1011.197
56,9 Dec 2013 02:23:18.649,9 Dec 2013 02:39:00.525,941.876
57,9 Dec 2013 04:10:13.906,9 Dec 2013 04:20:50.777,636.871
58,9 Dec 2013 05:52:56.923,9 Dec 2013 06:03:49.922,653.000
59,9 Dec 2013 07:36:24.244,9 Dec 2013 07:47:29.332,665.088
60,9 Dec 2013 09:20:00.647,9 Dec 2013 09:31:48.811,708.164
61,9 Dec 2013 11:03:11.518,9 Dec 2013 11:16:29.981,798.462
62,9 Dec 2013 12:45:44.361,9 Dec 2013 13:00:45.537,901.176
63,9 Dec 2013 14:27:43.296,9 Dec 2013 14:43:49.738,966.442
64,9 Dec 2013 16:09:14.733,9 Dec 2013 16:25:24.137,969.405
65,9 Dec 2013 17:55:39.709,9 Dec 2013 18:12:53.519,1033.809
66,9 Dec 2013 19:45:07.506,9 Dec 2013 20:00:52.307,944.801
67,9 Dec 2013 21:37:10.854,9 Dec 2013 21:47:37.631,626.778
68,9 Dec 2013 23:30:13.944,9 Dec 2013 23:36:37.707,383.763
69,10 Dec 2013 01:16:19.775,10 Dec 2013 01:30:44.742,864.967
70,10 Dec 2013 03:02:16.302,10 Dec 2013 03:19:06.466,1010.164

