Raw and processed data/constellation variations/us_greatcircle_8sat/Aircraft-B747LAX_Sydney-Transmitter-adsb_out6212-To-Satellite-700km_p1_1-Receiver-adsb_satrcvr2 Access.csv

"Access","Start Time (UTCG)","Stop Time (UTCG)","Duration (sec)"
1,3 Dec 2013 04:02:52.854,3 Dec 2013 04:06:10.653,197.799
2,3 Dec 2013 05:43:54.782,3 Dec 2013 06:00:31.589,996.807
3,3 Dec 2013 07:32:04.153,3 Dec 2013 07:44:08.790,724.637
4,3 Dec 2013 13:01:21.687,3 Dec 2013 13:16:37.201,915.514
5,3 Dec 2013 14:43:35.204,3 Dec 2013 14:58:47.521,912.317
6,3 Dec 2013 16:26:45.939,3 Dec 2013 16:39:57.635,791.696
7,3 Dec 2013 18:12:38.438,3 Dec 2013 18:19:44.441,426.002
8,4 Dec 2013 02:56:12.536,4 Dec 2013 02:59:44.340,211.804
9,4 Dec 2013 04:38:04.926,4 Dec 2013 04:50:45.490,760.564
10,4 Dec 2013 06:23:02.083,4 Dec 2013 06:39:59.125,1017.043
11,4 Dec 2013 08:15:50.111,4 Dec 2013 08:18:07.891,137.780
12,4 Dec 2013 13:46:11.938,4 Dec 2013 13:59:49.589,817.651
13,4 Dec 2013 15:27:36.830,4 Dec 2013 15:41:01.236,804.406
14,5 Dec 2013 03:44:26.322,5 Dec 2013 03:52:13.192,466.870
15,5 Dec 2013 05:20:42.646,5 Dec 2013 05:35:17.301,874.655
16,5 Dec 2013 07:02:32.516,5 Dec 2013 07:19:06.407,993.891
17,5 Dec 2013 14:31:43.933,5 Dec 2013 14:43:36.853,712.920
18,5 Dec 2013 16:11:33.268,5 Dec 2013 16:25:40.065,846.796
19,6 Dec 2013 04:29:58.962,6 Dec 2013 04:44:25.316,866.354
20,6 Dec 2013 06:08:00.735,6 Dec 2013 06:23:39.707,938.972
21,6 Dec 2013 07:47:44.755,6 Dec 2013 08:00:24.235,759.480
22,6 Dec 2013 15:17:24.989,6 Dec 2013 15:27:54.149,629.159
23,6 Dec 2013 16:56:01.143,6 Dec 2013 17:10:31.407,870.265
24,7 Dec 2013 03:39:14.424,7 Dec 2013 03:53:38.878,864.454
25,7 Dec 2013 05:17:08.571,7 Dec 2013 05:32:36.443,927.872
26,7 Dec 2013 06:58:21.119,7 Dec 2013 07:08:01.225,580.106
27,7 Dec 2013 16:02:54.414,7 Dec 2013 16:12:25.794,571.380
28,7 Dec 2013 17:40:40.309,7 Dec 2013 17:55:31.323,891.014
29,8 Dec 2013 01:12:21.073,8 Dec 2013 01:22:30.458,609.385
30,8 Dec 2013 02:48:01.334,8 Dec 2013 03:03:00.123,898.789
31,8 Dec 2013 04:26:16.078,8 Dec 2013 04:41:43.357,927.279
32,8 Dec 2013 06:08:04.499,8 Dec 2013 06:17:34.019,569.520
33,8 Dec 2013 16:48:11.373,8 Dec 2013 16:56:43.996,512.623
34,8 Dec 2013 18:25:12.829,8 Dec 2013 18:40:31.803,918.975
35,9 Dec 2013 01:51:37.935,9 Dec 2013 02:06:24.768,886.833
36,9 Dec 2013 03:35:21.352,9 Dec 2013 03:50:43.599,922.246
37,9 Dec 2013 05:16:43.738,9 Dec 2013 05:28:07.753,684.015
38,9 Dec 2013 17:33:32.062,9 Dec 2013 17:40:09.620,397.558
39,9 Dec 2013 19:09:23.922,9 Dec 2013 19:25:17.559,953.637
40,10 Dec 2013 02:30:07.189,10 Dec 2013 02:46:11.999,964.809
41,10 Dec 2013 04:16:53.034,10 Dec 2013 04:31:50.660,897.625

"Access","Start Time (UTCG)","Stop Time (UTCG)","Duration (sec)"
1,3 Dec 2013 01:42:44.743,3 Dec 2013 01:47:47.755,303.012
2,3 Dec 2013 05:17:55.197,3 Dec 2013 05:33:22.652,927.455
3,3 Dec 2013 07:04:04.000,3 Dec 2013 07:19:02.090,898.090
4,3 Dec 2013 12:36:38.489,3 Dec 2013 12:49:23.590,765.101
5,3 Dec 2013 14:18:00.829,3 Dec 2013 14:33:28.091,927.262
6,3 Dec 2013 16:00:48.457,3 Dec 2013 16:14:43.015,834.558
7,3 Dec 2013 17:45:41.742,3 Dec 2013 17:55:07.740,565.998
8,4 Dec 2013 04:11:41.388,4 Dec 2013 04:22:25.959,644.571
9,4 Dec 2013 05:56:38.849,4 Dec 2013 06:13:24.620,1005.770
10,4 Dec 2013 07:44:46.269,4 Dec 2013 07:56:19.779,693.510
11,4 Dec 2013 13:22:48.533,4 Dec 2013 13:31:36.789,528.256
12,4 Dec 2013 15:01:25.956,4 Dec 2013 15:17:02.005,936.049
13,5 Dec 2013 04:56:17.780,5 Dec 2013 05:10:00.464,822.684
14,5 Dec 2013 06:35:58.575,5 Dec 2013 06:52:58.067,1019.492
15,5 Dec 2013 08:26:13.978,5 Dec 2013 08:32:24.650,370.673
16,5 Dec 2013 14:11:53.164,5 Dec 2013 14:12:23.308,30.144
17,5 Dec 2013 15:45:36.016,5 Dec 2013 16:01:28.020,952.004
18,6 Dec 2013 04:05:54.123,6 Dec 2013 04:19:04.426,790.303
19,6 Dec 2013 05:43:19.201,6 Dec 2013 05:59:06.529,947.329
20,6 Dec 2013 07:22:39.777,6 Dec 2013 07:36:26.497,826.720
21,6 Dec 2013 16:30:10.955,6 Dec 2013 16:46:09.750,958.795
22,7 Dec 2013 03:15:18.200,7 Dec 2013 03:28:24.561,786.360
23,7 Dec 2013 04:52:23.764,7 Dec 2013 05:08:08.126,944.362
24,7 Dec 2013 06:32:34.563,7 Dec 2013 06:44:42.023,727.461
25,7 Dec 2013 17:14:54.099,7 Dec 2013 17:30:58.301,964.202
26,8 Dec 2013 00:49:01.212,8 Dec 2013 00:56:54.459,473.247
27,8 Dec 2013 02:23:50.765,8 Dec 2013 02:38:03.770,853.005
28,8 Dec 2013 04:01:27.810,8 Dec 2013 04:17:12.781,944.971
29,8 Dec 2013 05:42:02.087,8 Dec 2013 05:54:08.627,726.539
30,8 Dec 2013 17:59:31.536,8 Dec 2013 18:15:42.365,970.829
31,9 Dec 2013 01:27:06.738,9 Dec 2013 01:38:40.666,693.928
32,9 Dec 2013 03:09:34.346,9 Dec 2013 03:26:07.302,992.956
33,9 Dec 2013 04:51:01.125,9 Dec 2013 05:04:01.210,780.085
34,9 Dec 2013 18:43:51.511,9 Dec 2013 19:00:06.602,975.091
35,10 Dec 2013 02:04:45.612,10 Dec 2013 02:18:55.766,850.154
36,10 Dec 2013 03:49:27.430,10 Dec 2013 04:05:39.941,972.511
37,10 Dec 2013 05:41:14.157,10 Dec 2013 05:51:10.717,596.560

"Access","Start Time (UTCG)","Stop Time (UTCG)","Duration (sec)"
1,3 Dec 2013 01:12:51.235,3 Dec 2013 01:23:30.791,639.556
2,3 Dec 2013 04:52:13.042,3 Dec 2013 05:05:34.241,801.200
3,3 Dec 2013 06:36:52.779,3 Dec 2013 06:53:19.337,986.559
4,3 Dec 2013 12:13:01.697,3 Dec 2013 12:20:23.841,442.144
5,3 Dec 2013 13:52:04.750,3 Dec 2013 14:08:18.880,974.130
6,3 Dec 2013 15:34:58.147,3 Dec 2013 15:49:25.789,867.642
7,3 Dec 2013 17:19:09.359,3 Dec 2013 17:30:12.840,663.482
8,4 Dec 2013 03:44:49.373,4 Dec 2013 03:54:12.091,562.718
9,4 Dec 2013 05:30:25.461,4 Dec 2013 05:46:20.765,955.304
10,4 Dec 2013 07:16:49.010,4 Dec 2013 07:31:36.177,887.167
11,4 Dec 2013 14:35:50.961,4 Dec 2013 14:52:08.136,977.175
12,5 Dec 2013 04:32:01.709,5 Dec 2013 04:44:29.744,748.035
13,5 Dec 2013 06:09:48.758,5 Dec 2013 06:26:20.670,991.912
14,5 Dec 2013 07:56:56.279,5 Dec 2013 08:09:28.150,751.871
15,5 Dec 2013 15:20:17.241,5 Dec 2013 15:36:25.141,967.900
16,6 Dec 2013 03:42:08.968,6 Dec 2013 03:53:21.578,672.610
17,6 Dec 2013 05:18:44.162,6 Dec 2013 05:34:23.885,939.723
18,6 Dec 2013 06:57:41.090,6 Dec 2013 07:12:19.596,878.506
19,6 Dec 2013 08:38:20.412,6 Dec 2013 08:47:46.480,566.067
20,6 Dec 2013 16:05:03.364,6 Dec 2013 16:21:00.859,957.495
21,7 Dec 2013 02:51:42.786,7 Dec 2013 03:02:51.685,668.899
22,7 Dec 2013 04:27:49.316,7 Dec 2013 04:43:29.177,939.861
23,7 Dec 2013 06:07:11.613,7 Dec 2013 06:20:56.380,824.767
24,7 Dec 2013 16:49:53.825,7 Dec 2013 17:05:43.052,949.227
25,8 Dec 2013 01:59:49.673,8 Dec 2013 02:13:01.000,791.327
26,8 Dec 2013 03:36:49.699,8 Dec 2013 03:52:34.854,945.155
27,8 Dec 2013 05:16:29.613,8 Dec 2013 05:30:15.131,825.518
28,8 Dec 2013 17:34:37.730,8 Dec 2013 17:50:17.235,939.505
29,8 Dec 2013 19:20:57.488,8 Dec 2013 19:26:29.449,331.961
30,9 Dec 2013 01:05:54.034,9 Dec 2013 01:07:41.065,107.031
31,9 Dec 2013 02:43:03.666,9 Dec 2013 03:00:01.032,1017.366
32,9 Dec 2013 04:25:36.200,9 Dec 2013 04:39:42.445,846.245
33,9 Dec 2013 06:10:17.291,9 Dec 2013 06:14:31.998,254.707
34,9 Dec 2013 18:19:06.878,9 Dec 2013 18:34:26.454,919.576
35,9 Dec 2013 20:03:38.378,9 Dec 2013 20:13:35.899,597.521
36,10 Dec 2013 01:40:21.985,10 Dec 2013 01:50:38.302,616.317
37,10 Dec 2013 03:22:31.285,10 Dec 2013 03:39:24.089,1012.805
38,10 Dec 2013 05:13:00.291,10 Dec 2013 05:24:24.424,684.133

"Access","Start Time (UTCG)","Stop Time (UTCG)","Duration (sec)"
1,3 Dec 2013 04:26:54.180,3 Dec 2013 04:36:51.162,596.982
2,3 Dec 2013 06:10:12.555,3 Dec 2013 06:27:09.125,1016.570
3,3 Dec 2013 08:01:58.095,3 Dec 2013 08:07:45.973,347.878
4,3 Dec 2013 13:26:32.639,3 Dec 2013 13:42:51.726,979.088
5,3 Dec 2013 15:09:13.976,3 Dec 2013 15:24:07.001,893.025
6,3 Dec 2013 16:52:52.127,3 Dec 2013 17:05:08.262,736.136
7,3 Dec 2013 18:40:45.155,3 Dec 2013 18:43:18.068,152.913
8,4 Dec 2013 03:19:42.533,4 Dec 2013 03:26:55.091,432.558
9,4 Dec 2013 05:04:16.304,4 Dec 2013 05:18:47.035,870.731
10,4 Dec 2013 06:49:41.914,4 Dec 2013 07:06:04.206,982.293
11,4 Dec 2013 14:10:44.454,4 Dec 2013 14:26:26.653,942.199
12,4 Dec 2013 15:55:02.973,4 Dec 2013 16:03:24.783,501.810
13,5 Dec 2013 04:07:59.863,5 Dec 2013 04:18:38.959,639.096
14,5 Dec 2013 05:45:13.515,5 Dec 2013 06:00:23.744,910.229
15,5 Dec 2013 07:29:25.550,5 Dec 2013 07:44:40.887,915.337
16,5 Dec 2013 14:55:34.488,5 Dec 2013 15:10:33.927,899.440
17,5 Dec 2013 16:38:36.643,5 Dec 2013 16:48:32.095,595.452
18,6 Dec 2013 03:19:01.514,6 Dec 2013 03:26:59.012,477.498
19,6 Dec 2013 04:54:16.771,6 Dec 2013 05:09:30.743,913.973
20,6 Dec 2013 06:32:48.118,6 Dec 2013 06:48:03.981,915.863
21,6 Dec 2013 08:12:57.346,6 Dec 2013 08:24:11.731,674.385
22,6 Dec 2013 15:40:39.239,6 Dec 2013 15:55:04.402,865.163
23,6 Dec 2013 17:22:56.772,6 Dec 2013 17:33:41.800,645.027
24,7 Dec 2013 02:28:43.159,7 Dec 2013 02:36:45.983,482.824
25,7 Dec 2013 04:03:25.729,7 Dec 2013 04:18:39.699,913.970
26,7 Dec 2013 05:42:04.059,7 Dec 2013 05:56:53.198,889.139
27,7 Dec 2013 07:25:03.279,7 Dec 2013 07:30:21.302,318.023
28,7 Dec 2013 16:25:42.686,7 Dec 2013 16:39:43.015,840.329
29,7 Dec 2013 18:07:31.173,7 Dec 2013 18:19:03.103,691.931
30,8 Dec 2013 01:35:59.051,8 Dec 2013 01:47:50.699,711.648
31,8 Dec 2013 03:12:20.983,8 Dec 2013 03:27:50.492,929.509
32,8 Dec 2013 04:51:15.855,8 Dec 2013 05:06:05.037,889.182
33,8 Dec 2013 06:35:27.118,8 Dec 2013 06:39:40.694,253.576
34,8 Dec 2013 17:10:37.289,8 Dec 2013 17:24:10.881,813.593
35,8 Dec 2013 18:51:54.259,8 Dec 2013 19:04:33.886,759.626
36,9 Dec 2013 02:17:02.861,9 Dec 2013 02:33:23.876,981.015
37,9 Dec 2013 04:00:23.945,9 Dec 2013 04:15:15.786,891.841
38,9 Dec 2013 05:42:54.756,9 Dec 2013 05:51:52.094,537.339
39,9 Dec 2013 17:55:20.376,9 Dec 2013 18:08:06.772,766.396
40,9 Dec 2013 19:35:49.319,9 Dec 2013 19:49:56.084,846.765
41,10 Dec 2013 02:56:04.262,10 Dec 2013 03:12:57.263,1013.001
42,10 Dec 2013 04:44:46.609,10 Dec 2013 04:58:02.501,795.892

"Access","Start Time (UTCG)","Stop Time (UTCG)","Duration (sec)"
1,3 Dec 2013 06:39:36.637,3 Dec 2013 06:55:40.866,964.230
2,3 Dec 2013 14:13:05.892,3 Dec 2013 14:22:31.970,566.078
3,3 Dec 2013 15:48:31.837,3 Dec 2013 16:03:08.917,877.080
4,3 Dec 2013 17:26:26.146,3 Dec 2013 17:42:07.062,940.916
5,3 Dec 2013 19:07:23.147,3 Dec 2013 19:18:48.346,685.199
6,4 Dec 2013 07:24:12.956,4 Dec 2013 07:40:24.178,971.222
7,4 Dec 2013 14:51:13.107,4 Dec 2013 15:03:04.037,710.930
8,4 Dec 2013 16:33:53.888,4 Dec 2013 16:50:44.790,1010.902
9,4 Dec 2013 18:16:15.956,4 Dec 2013 18:28:52.564,756.608
10,5 Dec 2013 08:08:30.903,5 Dec 2013 08:24:46.265,975.361
11,5 Dec 2013 15:28:53.700,5 Dec 2013 15:43:18.521,864.820
12,5 Dec 2013 17:13:49.434,5 Dec 2013 17:29:54.556,965.122
13,5 Dec 2013 19:05:55.793,5 Dec 2013 19:15:16.762,560.969
14,6 Dec 2013 05:30:11.244,6 Dec 2013 05:41:27.568,676.324
15,6 Dec 2013 07:11:03.513,6 Dec 2013 07:25:38.541,875.028
16,6 Dec 2013 08:52:21.794,6 Dec 2013 09:08:27.061,965.266
17,6 Dec 2013 10:39:13.319,6 Dec 2013 10:48:11.022,537.703
18,6 Dec 2013 16:07:03.129,6 Dec 2013 16:23:20.403,977.274
19,6 Dec 2013 17:54:28.233,6 Dec 2013 18:08:11.593,823.360
20,6 Dec 2013 21:37:15.646,6 Dec 2013 21:46:58.340,582.694
21,6 Dec 2013 23:19:03.286,6 Dec 2013 23:31:38.852,755.565
22,7 Dec 2013 01:01:37.193,7 Dec 2013 01:15:20.356,823.163
23,7 Dec 2013 02:44:05.712,7 Dec 2013 02:59:33.544,927.833
24,7 Dec 2013 04:26:51.195,7 Dec 2013 04:43:18.768,987.573
25,7 Dec 2013 06:10:14.454,7 Dec 2013 06:26:20.714,966.261
26,7 Dec 2013 07:54:12.445,7 Dec 2013 08:08:55.025,882.580
27,7 Dec 2013 09:38:01.579,7 Dec 2013 09:51:24.585,803.007
28,7 Dec 2013 11:20:42.892,7 Dec 2013 11:33:44.307,781.415
29,7 Dec 2013 15:02:58.040,7 Dec 2013 15:12:09.038,550.998
30,7 Dec 2013 16:45:55.886,7 Dec 2013 17:02:52.576,1016.691
31,7 Dec 2013 18:37:02.522,7 Dec 2013 18:44:08.963,426.441
32,8 Dec 2013 00:01:55.031,8 Dec 2013 00:18:15.855,980.823
33,8 Dec 2013 01:44:25.033,8 Dec 2013 01:59:49.122,924.089
34,8 Dec 2013 03:27:49.604,8 Dec 2013 03:41:10.295,800.691
35,8 Dec 2013 05:13:54.134,8 Dec 2013 05:21:07.332,433.198
36,8 Dec 2013 13:54:25.697,8 Dec 2013 14:01:52.735,447.038
37,8 Dec 2013 15:40:04.341,8 Dec 2013 15:54:20.013,855.672
38,8 Dec 2013 17:25:22.782,8 Dec 2013 17:41:50.744,987.962
39,9 Dec 2013 00:46:03.131,9 Dec 2013 01:01:47.582,944.451
40,9 Dec 2013 02:30:25.746,9 Dec 2013 02:38:44.556,498.810
41,9 Dec 2013 14:43:10.880,9 Dec 2013 14:53:16.628,605.748
42,9 Dec 2013 16:20:19.869,9 Dec 2013 16:35:18.386,898.516
43,9 Dec 2013 18:05:05.683,9 Dec 2013 18:20:28.426,922.743
44,10 Dec 2013 01:30:51.502,10 Dec 2013 01:45:52.237,900.734
45,10 Dec 2013 03:13:54.610,10 Dec 2013 03:23:51.517,596.906

"Access","Start Time (UTCG)","Stop Time (UTCG)","Duration (sec)"
1,3 Dec 2013 06:14:36.085,3 Dec 2013 06:30:25.679,949.594
2,3 Dec 2013 15:24:24.806,3 Dec 2013 15:38:10.364,825.558
3,3 Dec 2013 17:01:44.089,3 Dec 2013 17:17:31.454,947.365
4,3 Dec 2013 18:41:42.487,3 Dec 2013 18:55:00.624,798.137
5,4 Dec 2013 06:59:18.922,4 Dec 2013 07:14:58.636,939.713
6,4 Dec 2013 08:45:36.825,4 Dec 2013 08:51:19.668,342.843
7,4 Dec 2013 14:29:12.494,4 Dec 2013 14:32:49.540,217.046
8,4 Dec 2013 16:07:21.033,4 Dec 2013 16:24:19.223,1018.190
9,4 Dec 2013 17:50:46.870,4 Dec 2013 18:04:34.892,828.022
10,4 Dec 2013 19:36:34.657,4 Dec 2013 19:38:32.505,117.847
11,5 Dec 2013 07:43:46.352,5 Dec 2013 07:59:05.189,918.837
12,5 Dec 2013 09:28:14.629,5 Dec 2013 09:38:24.528,609.899
13,5 Dec 2013 15:04:20.930,5 Dec 2013 15:15:08.597,647.666
14,5 Dec 2013 16:46:50.142,5 Dec 2013 17:03:40.276,1010.134
15,5 Dec 2013 18:37:36.523,5 Dec 2013 18:48:32.306,655.783
16,6 Dec 2013 05:05:14.048,6 Dec 2013 05:14:56.430,582.381
17,6 Dec 2013 06:45:45.174,6 Dec 2013 06:59:47.964,842.790
18,6 Dec 2013 08:27:04.544,6 Dec 2013 08:42:36.863,932.319
19,6 Dec 2013 10:10:44.994,6 Dec 2013 10:24:10.511,805.517
20,6 Dec 2013 15:41:24.638,6 Dec 2013 15:56:03.131,878.493
21,6 Dec 2013 17:26:46.374,6 Dec 2013 17:42:27.351,940.976
22,6 Dec 2013 21:13:55.569,6 Dec 2013 21:15:57.594,122.025
23,6 Dec 2013 22:53:24.271,6 Dec 2013 23:05:56.095,751.824
24,7 Dec 2013 00:35:59.639,7 Dec 2013 00:49:19.091,799.452
25,7 Dec 2013 02:18:28.058,7 Dec 2013 02:33:31.226,903.168
26,7 Dec 2013 04:01:06.839,7 Dec 2013 04:17:26.649,979.811
27,7 Dec 2013 05:44:19.660,7 Dec 2013 06:00:38.722,979.063
28,7 Dec 2013 07:28:11.348,7 Dec 2013 07:43:17.684,906.337
29,7 Dec 2013 09:12:08.764,7 Dec 2013 09:25:46.902,818.138
30,7 Dec 2013 10:55:10.654,7 Dec 2013 11:08:15.502,784.849
31,7 Dec 2013 16:19:40.736,7 Dec 2013 16:36:11.793,991.057
32,7 Dec 2013 18:07:34.150,7 Dec 2013 18:20:06.518,752.368
33,7 Dec 2013 23:36:41.634,7 Dec 2013 23:52:02.292,920.658
34,8 Dec 2013 01:18:47.491,8 Dec 2013 01:34:26.074,938.583
35,8 Dec 2013 03:01:48.706,8 Dec 2013 03:15:53.348,844.642
36,8 Dec 2013 04:46:55.218,8 Dec 2013 04:56:27.218,572.000
37,8 Dec 2013 13:30:37.011,8 Dec 2013 13:34:58.705,261.694
38,8 Dec 2013 15:13:55.574,8 Dec 2013 15:26:13.224,737.650
39,8 Dec 2013 16:58:44.786,8 Dec 2013 17:15:42.503,1017.717
40,8 Dec 2013 18:50:29.434,8 Dec 2013 18:55:00.501,271.067
41,9 Dec 2013 00:21:27.935,9 Dec 2013 00:35:11.203,823.268
42,9 Dec 2013 02:02:58.844,9 Dec 2013 02:16:21.688,802.843
43,9 Dec 2013 14:19:44.530,9 Dec 2013 14:26:39.659,415.128
44,9 Dec 2013 15:55:49.496,9 Dec 2013 16:10:08.759,859.262
45,9 Dec 2013 17:38:13.804,9 Dec 2013 17:54:50.964,997.160
46,10 Dec 2013 01:06:58.826,10 Dec 2013 01:18:55.072,716.246
47,10 Dec 2013 02:46:51.970,10 Dec 2013 03:00:59.091,847.121

"Access","Start Time (UTCG)","Stop Time (UTCG)","Duration (sec)"
1,3 Dec 2013 05:50:24.829,3 Dec 2013 06:04:26.214,841.384
2,3 Dec 2013 07:32:15.316,3 Dec 2013 07:43:46.635,691.319
3,3 Dec 2013 15:00:26.633,3 Dec 2013 15:13:05.741,759.108
4,3 Dec 2013 16:37:11.348,3 Dec 2013 16:52:49.538,938.189
5,3 Dec 2013 18:16:22.969,3 Dec 2013 18:30:54.174,871.206
6,4 Dec 2013 06:35:18.295,4 Dec 2013 06:48:52.387,814.091
7,4 Dec 2013 08:16:36.244,4 Dec 2013 08:29:18.426,762.182
8,4 Dec 2013 15:41:17.796,4 Dec 2013 15:57:42.805,985.009
9,4 Dec 2013 17:25:31.086,4 Dec 2013 17:40:08.959,877.874
10,4 Dec 2013 19:08:24.023,4 Dec 2013 19:16:36.285,492.262
11,5 Dec 2013 07:20:00.083,5 Dec 2013 07:32:44.886,764.803
12,5 Dec 2013 09:00:28.121,5 Dec 2013 09:14:39.553,851.432
13,5 Dec 2013 16:20:20.164,5 Dec 2013 16:37:15.011,1014.847
14,5 Dec 2013 18:09:17.101,5 Dec 2013 18:22:13.027,775.926
15,5 Dec 2013 20:00:28.210,5 Dec 2013 20:05:08.952,280.742
16,6 Dec 2013 04:40:33.157,6 Dec 2013 04:48:02.929,449.773
17,6 Dec 2013 06:20:29.379,6 Dec 2013 06:33:50.366,800.987
18,6 Dec 2013 08:01:43.985,6 Dec 2013 08:17:02.374,918.390
19,6 Dec 2013 09:43:44.954,6 Dec 2013 09:59:19.627,934.673
20,6 Dec 2013 15:16:24.742,6 Dec 2013 15:27:52.509,687.767
21,6 Dec 2013 16:59:42.629,6 Dec 2013 17:16:25.454,1002.826
22,6 Dec 2013 18:53:15.767,6 Dec 2013 18:57:54.832,279.065
23,6 Dec 2013 22:27:46.192,6 Dec 2013 22:40:19.250,753.058
24,7 Dec 2013 00:10:21.394,7 Dec 2013 00:23:21.052,779.658
25,7 Dec 2013 01:52:51.041,7 Dec 2013 02:07:27.607,876.566
26,7 Dec 2013 03:35:24.703,7 Dec 2013 03:51:31.640,966.937
27,7 Dec 2013 05:18:27.496,7 Dec 2013 05:34:54.599,987.103
28,7 Dec 2013 07:02:10.811,7 Dec 2013 07:17:39.787,928.976
29,7 Dec 2013 08:46:12.262,7 Dec 2013 09:00:09.426,837.164
30,7 Dec 2013 10:29:32.967,7 Dec 2013 10:42:39.404,786.437
31,7 Dec 2013 12:18:58.343,7 Dec 2013 12:22:27.165,208.822
32,7 Dec 2013 15:53:44.291,7 Dec 2013 16:08:58.838,914.548
33,7 Dec 2013 17:39:40.819,7 Dec 2013 17:54:52.870,912.051
34,7 Dec 2013 23:11:54.250,7 Dec 2013 23:24:51.102,776.851
35,8 Dec 2013 00:53:14.321,8 Dec 2013 01:09:03.382,949.061
36,8 Dec 2013 02:35:54.977,8 Dec 2013 02:50:33.537,878.560
37,8 Dec 2013 04:20:19.756,8 Dec 2013 04:31:29.859,670.103
38,8 Dec 2013 14:47:35.090,8 Dec 2013 14:57:47.330,612.240
39,8 Dec 2013 16:32:23.150,8 Dec 2013 16:49:05.003,1001.853
40,8 Dec 2013 18:20:18.620,8 Dec 2013 18:32:17.703,719.083
41,8 Dec 2013 23:57:58.006,9 Dec 2013 00:07:02.203,544.197
42,9 Dec 2013 01:36:47.254,9 Dec 2013 01:52:22.672,935.418
43,9 Dec 2013 15:31:25.310,9 Dec 2013 15:44:48.347,803.037
44,9 Dec 2013 17:11:40.594,9 Dec 2013 17:28:40.237,1019.643
45,9 Dec 2013 19:01:38.764,9 Dec 2013 19:08:32.281,413.517
46,10 Dec 2013 00:46:33.735,10 Dec 2013 00:48:12.592,98.857
47,10 Dec 2013 02:20:54.679,10 Dec 2013 02:36:46.880,952.201

"Access","Start Time (UTCG)","Stop Time (UTCG)","Duration (sec)"
1,3 Dec 2013 05:27:36.063,3 Dec 2013 05:37:10.640,574.577
2,3 Dec 2013 07:05:23.421,3 Dec 2013 07:20:14.212,890.791
3,3 Dec 2013 14:36:38.259,3 Dec 2013 14:47:53.817,675.558
4,3 Dec 2013 16:12:47.359,3 Dec 2013 16:28:01.941,914.582
5,3 Dec 2013 17:51:18.534,3 Dec 2013 18:06:35.253,916.720
6,3 Dec 2013 19:33:40.792,3 Dec 2013 19:42:01.263,500.472
7,4 Dec 2013 06:12:51.757,4 Dec 2013 06:21:26.627,514.870
8,4 Dec 2013 07:49:54.577,4 Dec 2013 08:05:14.560,919.983
9,4 Dec 2013 15:15:49.713,4 Dec 2013 15:30:44.968,895.255
10,4 Dec 2013 17:00:25.302,4 Dec 2013 17:15:37.336,912.035
11,4 Dec 2013 18:42:04.024,4 Dec 2013 18:52:57.064,653.040
12,5 Dec 2013 06:58:12.636,5 Dec 2013 07:04:46.881,394.244
13,5 Dec 2013 08:34:03.201,5 Dec 2013 08:49:58.653,955.452
14,5 Dec 2013 15:54:19.808,5 Dec 2013 16:10:31.665,971.857
15,5 Dec 2013 17:41:18.795,5 Dec 2013 17:56:03.454,884.658
16,5 Dec 2013 19:33:37.379,5 Dec 2013 19:41:20.391,463.012
17,6 Dec 2013 04:16:39.262,6 Dec 2013 04:20:15.571,216.308
18,6 Dec 2013 05:55:17.441,6 Dec 2013 06:07:44.303,746.862
19,6 Dec 2013 07:36:23.398,6 Dec 2013 07:51:23.100,899.703
20,6 Dec 2013 09:17:40.115,6 Dec 2013 09:34:03.779,983.663
21,6 Dec 2013 14:53:25.867,6 Dec 2013 14:57:14.271,228.404
22,6 Dec 2013 16:33:09.416,6 Dec 2013 16:50:04.717,1015.301
23,6 Dec 2013 18:23:02.366,6 Dec 2013 18:33:33.412,631.046
24,6 Dec 2013 22:02:14.999,6 Dec 2013 22:14:48.184,753.185
25,6 Dec 2013 23:44:42.511,6 Dec 2013 23:57:27.347,764.836
26,7 Dec 2013 01:27:14.222,7 Dec 2013 01:41:23.610,849.388
27,7 Dec 2013 03:09:44.452,7 Dec 2013 03:25:33.847,949.395
28,7 Dec 2013 04:52:38.026,7 Dec 2013 05:09:08.029,990.002
29,7 Dec 2013 06:36:11.643,7 Dec 2013 06:52:00.935,949.293
30,7 Dec 2013 08:20:13.111,7 Dec 2013 08:34:32.183,859.072
31,7 Dec 2013 10:03:49.846,7 Dec 2013 10:17:02.234,792.388
32,7 Dec 2013 11:48:30.388,7 Dec 2013 11:58:44.053,613.665
33,7 Dec 2013 15:28:06.873,7 Dec 2013 15:41:04.335,777.462
34,7 Dec 2013 17:12:33.336,7 Dec 2013 17:29:06.030,992.694
35,7 Dec 2013 22:48:05.396,7 Dec 2013 22:56:01.489,476.092
36,8 Dec 2013 00:27:28.880,8 Dec 2013 00:43:42.465,973.585
37,8 Dec 2013 02:10:07.344,8 Dec 2013 02:25:11.852,904.509
38,8 Dec 2013 03:53:59.190,8 Dec 2013 04:06:23.097,743.908
39,8 Dec 2013 05:41:55.464,8 Dec 2013 05:44:52.076,176.612
40,8 Dec 2013 14:20:44.884,8 Dec 2013 14:29:27.938,523.054
41,8 Dec 2013 16:06:11.454,8 Dec 2013 16:21:57.830,946.375
42,8 Dec 2013 17:52:27.143,8 Dec 2013 18:07:26.817,899.674
43,9 Dec 2013 01:11:11.229,9 Dec 2013 01:27:28.902,977.673
44,9 Dec 2013 15:07:10.373,9 Dec 2013 15:19:13.320,722.947
45,9 Dec 2013 16:45:16.596,9 Dec 2013 17:02:00.630,1004.034
46,9 Dec 2013 18:32:33.839,9 Dec 2013 18:45:20.388,766.549
47,10 Dec 2013 01:55:35.363,10 Dec 2013 02:11:43.762,968.399

