Raw and processed data/constellation variations/us_greatcircle_8sat/Aircraft-B747LAX_Heathrow-Transmitter-adsb_out6-To-Satellite-700km_p1_1-Receiver-adsb_satrcvr2 Access.csv

"Access","Start Time (UTCG)","Stop Time (UTCG)","Duration (sec)"
1,3 Dec 2013 01:16:46.370,3 Dec 2013 01:32:32.203,945.833
2,3 Dec 2013 02:55:55.868,3 Dec 2013 03:11:51.358,955.490
3,3 Dec 2013 04:34:22.350,3 Dec 2013 04:50:11.484,949.135
4,3 Dec 2013 06:12:51.411,3 Dec 2013 06:28:49.442,958.031
5,3 Dec 2013 07:52:47.520,3 Dec 2013 08:08:17.969,930.449
6,3 Dec 2013 09:35:26.090,3 Dec 2013 09:48:50.462,804.372
7,3 Dec 2013 11:18:32.792,3 Dec 2013 11:33:52.483,919.691
8,3 Dec 2013 13:00:26.726,3 Dec 2013 13:14:06.517,819.791
9,3 Dec 2013 19:19:31.200,3 Dec 2013 19:23:21.321,230.121
10,3 Dec 2013 20:53:26.801,3 Dec 2013 21:08:45.255,918.454
11,3 Dec 2013 22:34:23.190,3 Dec 2013 22:48:48.519,865.329
12,4 Dec 2013 00:13:41.956,4 Dec 2013 00:27:16.994,815.038
13,4 Dec 2013 01:51:17.560,4 Dec 2013 02:05:21.138,843.578
14,4 Dec 2013 03:28:17.261,4 Dec 2013 03:43:46.963,929.701
15,4 Dec 2013 05:06:45.803,4 Dec 2013 05:22:13.592,927.789
16,4 Dec 2013 06:50:46.533,4 Dec 2013 07:04:32.175,825.641
17,4 Dec 2013 08:36:33.650,4 Dec 2013 08:52:48.852,975.203
18,4 Dec 2013 10:20:24.974,4 Dec 2013 10:35:14.379,889.404
19,5 Dec 2013 02:26:18.358,5 Dec 2013 02:41:09.268,890.910
20,5 Dec 2013 04:10:53.229,5 Dec 2013 04:28:01.776,1028.547
21,5 Dec 2013 05:57:22.450,5 Dec 2013 06:14:27.692,1025.242
22,5 Dec 2013 07:43:02.379,5 Dec 2013 07:57:57.908,895.529
23,6 Dec 2013 01:35:52.073,6 Dec 2013 01:51:41.530,949.457
24,6 Dec 2013 03:20:49.557,6 Dec 2013 03:37:53.829,1024.272
25,6 Dec 2013 05:07:01.042,6 Dec 2013 05:22:58.642,957.600
26,6 Dec 2013 23:00:57.901,6 Dec 2013 23:15:40.722,882.821
27,7 Dec 2013 00:44:15.264,7 Dec 2013 01:01:20.059,1024.795
28,7 Dec 2013 02:30:29.808,7 Dec 2013 02:46:23.021,953.213
29,7 Dec 2013 04:08:55.850,7 Dec 2013 04:24:22.677,926.827
30,7 Dec 2013 05:47:06.235,7 Dec 2013 06:02:23.418,917.183
31,7 Dec 2013 07:25:46.829,7 Dec 2013 07:41:37.098,950.269
32,7 Dec 2013 09:06:02.486,7 Dec 2013 09:22:22.681,980.195
33,7 Dec 2013 10:48:09.334,7 Dec 2013 11:04:41.072,991.739
34,7 Dec 2013 12:31:07.120,7 Dec 2013 12:46:40.820,933.699
35,7 Dec 2013 20:23:44.109,7 Dec 2013 20:38:19.312,875.203

"Access","Start Time (UTCG)","Stop Time (UTCG)","Duration (sec)"
1,3 Dec 2013 01:00:00.000,3 Dec 2013 01:07:22.445,442.445
2,3 Dec 2013 02:31:13.277,3 Dec 2013 02:47:10.758,957.481
3,3 Dec 2013 04:09:48.138,3 Dec 2013 04:25:37.096,948.958
4,3 Dec 2013 05:48:09.584,3 Dec 2013 06:04:05.792,956.208
5,3 Dec 2013 07:27:35.509,3 Dec 2013 07:43:20.491,944.983
6,3 Dec 2013 09:09:29.187,3 Dec 2013 09:23:34.918,845.731
7,3 Dec 2013 10:53:36.165,3 Dec 2013 11:07:02.331,806.166
8,3 Dec 2013 12:34:37.059,3 Dec 2013 12:50:05.049,927.990
9,3 Dec 2013 20:28:03.765,3 Dec 2013 20:43:26.160,922.394
10,3 Dec 2013 22:09:17.347,3 Dec 2013 22:23:58.409,881.062
11,3 Dec 2013 23:49:02.503,4 Dec 2013 00:02:45.318,822.815
12,4 Dec 2013 01:27:01.245,4 Dec 2013 01:40:48.575,827.330
13,4 Dec 2013 03:03:59.090,4 Dec 2013 03:19:08.763,909.674
14,4 Dec 2013 04:41:53.180,4 Dec 2013 04:57:39.781,946.601
15,4 Dec 2013 06:23:34.833,4 Dec 2013 06:37:31.362,836.529
16,4 Dec 2013 08:10:28.964,4 Dec 2013 08:26:02.699,933.735
17,4 Dec 2013 09:54:22.212,4 Dec 2013 10:10:27.371,965.160
18,5 Dec 2013 02:01:13.162,5 Dec 2013 02:13:48.478,755.316
19,5 Dec 2013 03:44:21.295,5 Dec 2013 04:01:25.251,1023.956
20,5 Dec 2013 05:30:49.673,5 Dec 2013 05:47:55.338,1025.665
21,5 Dec 2013 07:16:35.732,5 Dec 2013 07:32:40.998,965.266
22,6 Dec 2013 01:10:21.160,6 Dec 2013 01:24:58.459,877.299
23,6 Dec 2013 02:54:20.637,6 Dec 2013 03:11:21.973,1021.336
24,6 Dec 2013 04:40:26.174,6 Dec 2013 04:57:00.830,994.657
25,6 Dec 2013 06:28:16.416,6 Dec 2013 06:37:42.618,566.202
26,6 Dec 2013 22:36:26.037,6 Dec 2013 22:48:58.037,752.000
27,7 Dec 2013 00:17:54.996,7 Dec 2013 00:34:53.512,1018.516
28,7 Dec 2013 02:04:02.612,7 Dec 2013 02:21:09.464,1026.852
29,7 Dec 2013 03:44:21.317,7 Dec 2013 03:59:56.787,935.470
30,7 Dec 2013 05:22:33.499,7 Dec 2013 05:37:48.080,914.581
31,7 Dec 2013 07:00:59.866,7 Dec 2013 07:16:40.261,940.395
32,7 Dec 2013 08:40:47.591,7 Dec 2013 08:57:02.476,974.885
33,7 Dec 2013 10:22:28.776,7 Dec 2013 10:38:58.257,989.481
34,7 Dec 2013 12:05:35.985,7 Dec 2013 12:21:58.280,982.295
35,7 Dec 2013 19:59:50.279,7 Dec 2013 20:11:57.229,726.950
36,7 Dec 2013 21:39:33.252,7 Dec 2013 21:56:13.699,1000.447

"Access","Start Time (UTCG)","Stop Time (UTCG)","Duration (sec)"
1,3 Dec 2013 02:06:27.585,3 Dec 2013 02:22:25.005,957.420
2,3 Dec 2013 03:45:12.816,3 Dec 2013 04:01:03.109,950.293
3,3 Dec 2013 05:23:31.767,3 Dec 2013 05:39:25.182,953.414
4,3 Dec 2013 07:02:32.978,3 Dec 2013 07:18:26.664,953.687
5,3 Dec 2013 08:43:43.787,3 Dec 2013 08:58:24.771,880.984
6,3 Dec 2013 10:27:49.886,3 Dec 2013 10:39:42.543,712.657
7,3 Dec 2013 12:09:04.196,3 Dec 2013 12:25:20.042,975.846
8,3 Dec 2013 20:03:50.952,3 Dec 2013 20:17:45.961,835.009
9,3 Dec 2013 21:44:05.728,3 Dec 2013 21:59:01.369,895.641
10,3 Dec 2013 23:24:16.100,3 Dec 2013 23:38:10.898,834.798
11,4 Dec 2013 01:02:40.673,4 Dec 2013 01:16:17.506,816.833
12,4 Dec 2013 02:39:44.468,4 Dec 2013 02:54:31.423,886.955
13,4 Dec 2013 04:17:12.310,4 Dec 2013 04:33:03.314,951.005
14,4 Dec 2013 05:57:18.134,4 Dec 2013 06:11:05.308,827.174
15,4 Dec 2013 07:44:12.570,4 Dec 2013 07:58:58.122,885.553
16,4 Dec 2013 09:28:26.099,4 Dec 2013 09:45:04.604,998.505
17,4 Dec 2013 11:13:46.647,4 Dec 2013 11:22:03.389,496.742
18,5 Dec 2013 01:37:31.406,5 Dec 2013 01:45:25.290,473.884
19,5 Dec 2013 03:18:01.150,5 Dec 2013 03:34:47.597,1006.448
20,5 Dec 2013 05:04:11.972,5 Dec 2013 05:21:17.870,1025.898
21,5 Dec 2013 06:50:13.245,5 Dec 2013 07:06:56.097,1002.852
22,5 Dec 2013 08:36:59.004,5 Dec 2013 08:46:12.537,553.533
23,6 Dec 2013 00:45:25.321,6 Dec 2013 00:57:57.458,752.137
24,6 Dec 2013 02:27:58.116,6 Dec 2013 02:44:49.699,1011.584
25,6 Dec 2013 04:13:53.520,6 Dec 2013 04:30:47.274,1013.753
26,6 Dec 2013 06:00:39.886,6 Dec 2013 06:13:36.677,776.792
27,6 Dec 2013 22:13:03.820,6 Dec 2013 22:21:32.111,508.292
28,6 Dec 2013 23:51:51.357,7 Dec 2013 00:08:30.672,999.315
29,7 Dec 2013 01:37:23.836,7 Dec 2013 01:54:29.183,1025.346
30,7 Dec 2013 03:19:45.367,7 Dec 2013 03:35:29.461,944.094
31,7 Dec 2013 04:58:01.422,7 Dec 2013 05:13:16.894,915.473
32,7 Dec 2013 06:36:18.201,7 Dec 2013 06:51:49.152,930.950
33,7 Dec 2013 08:15:40.145,7 Dec 2013 08:31:48.161,968.017
34,7 Dec 2013 09:56:53.621,7 Dec 2013 10:13:20.703,987.081
35,7 Dec 2013 11:39:43.556,7 Dec 2013 11:56:19.895,996.339
36,7 Dec 2013 13:23:05.836,7 Dec 2013 13:33:35.379,629.543
37,7 Dec 2013 19:37:19.660,7 Dec 2013 19:44:42.663,443.003
38,7 Dec 2013 21:13:43.488,7 Dec 2013 21:30:19.448,995.960

"Access","Start Time (UTCG)","Stop Time (UTCG)","Duration (sec)"
1,3 Dec 2013 01:41:38.643,3 Dec 2013 01:57:32.628,953.985
2,3 Dec 2013 03:20:35.586,3 Dec 2013 03:36:28.315,952.729
3,3 Dec 2013 04:58:56.478,3 Dec 2013 05:14:47.263,950.785
4,3 Dec 2013 06:37:38.729,3 Dec 2013 06:53:36.351,957.622
5,3 Dec 2013 08:18:10.025,3 Dec 2013 08:33:19.289,909.264
6,3 Dec 2013 10:01:33.613,3 Dec 2013 10:14:12.496,758.883
7,3 Dec 2013 11:43:43.089,3 Dec 2013 11:59:56.186,973.098
8,3 Dec 2013 13:26:48.804,3 Dec 2013 13:37:07.681,618.877
9,3 Dec 2013 19:40:34.171,3 Dec 2013 19:51:25.026,650.855
10,3 Dec 2013 21:18:48.742,3 Dec 2013 21:33:57.022,908.280
11,3 Dec 2013 22:59:22.893,3 Dec 2013 23:13:32.364,849.471
12,4 Dec 2013 00:38:14.534,4 Dec 2013 00:51:47.308,812.774
13,4 Dec 2013 02:15:31.312,4 Dec 2013 02:29:55.445,864.134
14,4 Dec 2013 03:52:41.009,4 Dec 2013 04:08:25.394,944.385
15,4 Dec 2013 05:31:52.865,4 Dec 2013 05:46:43.016,890.151
16,4 Dec 2013 07:17:39.544,4 Dec 2013 07:31:44.209,844.665
17,4 Dec 2013 09:02:31.302,4 Dec 2013 09:19:10.710,999.408
18,4 Dec 2013 10:46:43.896,4 Dec 2013 10:59:16.028,752.132
19,5 Dec 2013 02:51:58.059,5 Dec 2013 03:08:04.606,966.547
20,5 Dec 2013 04:37:31.794,5 Dec 2013 04:54:39.300,1027.506
21,5 Dec 2013 06:23:49.840,5 Dec 2013 06:40:49.779,1019.939
22,5 Dec 2013 08:09:42.336,5 Dec 2013 08:22:36.627,774.292
23,6 Dec 2013 00:21:33.800,6 Dec 2013 00:30:09.824,516.024
24,6 Dec 2013 02:01:46.737,6 Dec 2013 02:18:16.956,990.220
25,6 Dec 2013 03:47:21.233,6 Dec 2013 04:04:23.410,1022.177
26,6 Dec 2013 05:33:42.574,6 Dec 2013 05:48:34.017,891.443
27,6 Dec 2013 23:26:10.054,6 Dec 2013 23:42:08.228,958.175
28,7 Dec 2013 01:10:46.628,7 Dec 2013 01:27:51.997,1025.369
29,7 Dec 2013 02:55:08.100,7 Dec 2013 03:10:58.847,950.746
30,7 Dec 2013 04:33:29.091,7 Dec 2013 04:48:48.862,919.771
31,7 Dec 2013 06:11:40.733,7 Dec 2013 06:27:03.623,922.890
32,7 Dec 2013 07:50:40.026,7 Dec 2013 08:06:39.717,959.691
33,7 Dec 2013 09:31:24.639,7 Dec 2013 09:47:48.777,984.138
34,7 Dec 2013 11:13:54.500,7 Dec 2013 11:30:28.559,994.059
35,7 Dec 2013 12:56:47.874,7 Dec 2013 13:10:38.893,831.020
36,7 Dec 2013 20:48:25.446,7 Dec 2013 21:04:23.193,957.748

"Access","Start Time (UTCG)","Stop Time (UTCG)","Duration (sec)"
1,3 Dec 2013 14:18:39.844,3 Dec 2013 14:33:49.316,909.472
2,3 Dec 2013 16:03:08.625,3 Dec 2013 16:20:12.361,1023.736
3,3 Dec 2013 17:49:14.766,3 Dec 2013 18:05:40.826,986.060
4,3 Dec 2013 19:37:28.819,3 Dec 2013 19:45:15.639,466.821
5,4 Dec 2013 11:45:07.474,4 Dec 2013 11:57:45.552,758.078
6,4 Dec 2013 13:26:55.626,4 Dec 2013 13:43:53.695,1018.069
7,4 Dec 2013 15:12:58.844,4 Dec 2013 15:30:08.277,1029.432
8,4 Dec 2013 16:54:53.704,4 Dec 2013 17:10:07.353,913.649
9,4 Dec 2013 18:33:04.479,4 Dec 2013 18:47:37.916,873.437
10,4 Dec 2013 20:11:21.384,4 Dec 2013 20:26:21.004,899.621
11,4 Dec 2013 21:50:52.455,4 Dec 2013 22:06:41.756,949.302
12,4 Dec 2013 23:32:14.703,4 Dec 2013 23:48:31.303,976.600
13,5 Dec 2013 01:15:12.627,5 Dec 2013 01:31:22.431,969.805
14,5 Dec 2013 09:09:01.859,5 Dec 2013 09:21:07.961,726.102
15,5 Dec 2013 10:48:59.848,5 Dec 2013 11:05:46.299,1006.451
16,5 Dec 2013 12:31:05.008,5 Dec 2013 12:47:06.446,961.437
17,5 Dec 2013 14:10:08.574,5 Dec 2013 14:25:59.631,951.057
18,5 Dec 2013 15:48:27.891,5 Dec 2013 16:04:18.130,950.240
19,5 Dec 2013 17:27:07.700,5 Dec 2013 17:43:00.860,953.159
20,5 Dec 2013 19:07:46.634,5 Dec 2013 19:22:21.808,875.173
21,5 Dec 2013 20:52:03.505,5 Dec 2013 21:02:14.033,610.527
22,5 Dec 2013 22:33:47.683,5 Dec 2013 22:50:03.589,975.905
23,6 Dec 2013 00:16:56.566,6 Dec 2013 00:27:54.212,657.646
24,6 Dec 2013 06:31:19.948,6 Dec 2013 06:41:40.725,620.777
25,6 Dec 2013 08:10:13.558,6 Dec 2013 08:23:37.973,804.415
26,6 Dec 2013 09:50:42.005,6 Dec 2013 10:02:53.433,731.428
27,6 Dec 2013 11:29:19.590,6 Dec 2013 11:40:54.766,695.176
28,6 Dec 2013 13:05:59.908,6 Dec 2013 13:19:08.987,789.079
29,6 Dec 2013 14:42:26.708,6 Dec 2013 14:57:50.307,923.599
30,6 Dec 2013 16:20:55.564,6 Dec 2013 16:36:12.741,917.178
31,6 Dec 2013 18:07:33.990,6 Dec 2013 18:22:42.390,908.401
32,6 Dec 2013 19:52:58.199,6 Dec 2013 20:09:44.379,1006.180
33,6 Dec 2013 21:37:32.997,6 Dec 2013 21:50:04.021,751.024
34,7 Dec 2013 13:43:45.847,7 Dec 2013 13:59:02.733,916.887
35,7 Dec 2013 15:28:34.237,7 Dec 2013 15:45:43.445,1029.208
36,7 Dec 2013 17:14:49.632,7 Dec 2013 17:31:49.258,1019.627
37,7 Dec 2013 19:00:54.582,7 Dec 2013 19:13:54.565,779.983

"Access","Start Time (UTCG)","Stop Time (UTCG)","Duration (sec)"
1,3 Dec 2013 13:53:27.014,3 Dec 2013 14:06:53.753,806.739
2,3 Dec 2013 15:36:42.504,3 Dec 2013 15:53:39.566,1017.062
3,3 Dec 2013 17:22:42.937,3 Dec 2013 17:39:32.627,1009.690
4,3 Dec 2013 19:09:33.435,3 Dec 2013 19:21:42.082,728.647
5,4 Dec 2013 11:21:34.567,4 Dec 2013 11:30:18.520,523.953
6,4 Dec 2013 13:00:49.684,4 Dec 2013 13:17:27.824,998.141
7,4 Dec 2013 14:46:22.257,4 Dec 2013 15:03:31.596,1029.340
8,4 Dec 2013 16:30:17.702,4 Dec 2013 16:45:46.312,928.610
9,4 Dec 2013 18:08:33.325,4 Dec 2013 18:23:10.962,877.637
10,4 Dec 2013 19:46:42.914,4 Dec 2013 20:01:31.083,888.170
11,4 Dec 2013 21:25:49.626,4 Dec 2013 21:41:27.696,938.070
12,4 Dec 2013 23:06:44.039,4 Dec 2013 23:22:56.577,972.539
13,5 Dec 2013 00:49:20.578,5 Dec 2013 01:05:36.626,976.048
14,5 Dec 2013 02:33:40.420,5 Dec 2013 02:42:32.512,532.092
15,5 Dec 2013 08:46:26.123,5 Dec 2013 08:53:48.532,442.409
16,5 Dec 2013 10:23:08.126,5 Dec 2013 10:39:45.495,997.369
17,5 Dec 2013 12:06:09.024,5 Dec 2013 12:22:08.031,959.006
18,5 Dec 2013 13:45:28.228,5 Dec 2013 14:01:22.793,954.565
19,5 Dec 2013 15:23:54.537,5 Dec 2013 15:39:42.700,948.163
20,5 Dec 2013 17:02:20.619,5 Dec 2013 17:18:16.554,955.935
21,5 Dec 2013 18:42:20.167,5 Dec 2013 18:57:28.236,908.069
22,5 Dec 2013 20:25:33.931,5 Dec 2013 20:37:13.749,699.817
23,5 Dec 2013 22:08:29.600,5 Dec 2013 22:23:54.290,924.689
24,5 Dec 2013 23:50:39.249,6 Dec 2013 00:04:38.774,839.525
25,6 Dec 2013 06:11:51.370,6 Dec 2013 06:12:12.063,20.693
26,6 Dec 2013 07:44:54.322,6 Dec 2013 07:58:30.117,815.796
27,6 Dec 2013 09:25:43.565,6 Dec 2013 09:38:14.758,751.192
28,6 Dec 2013 11:04:52.601,6 Dec 2013 11:16:26.118,693.518
29,6 Dec 2013 12:41:56.731,6 Dec 2013 12:54:31.803,755.072
30,6 Dec 2013 14:18:13.436,6 Dec 2013 14:33:09.499,896.063
31,6 Dec 2013 15:55:59.995,6 Dec 2013 16:11:42.707,942.712
32,6 Dec 2013 17:40:38.438,6 Dec 2013 17:55:42.282,903.843
33,6 Dec 2013 19:26:52.821,6 Dec 2013 19:43:23.325,990.504
34,6 Dec 2013 21:11:09.348,6 Dec 2013 21:25:57.402,888.054
35,7 Dec 2013 13:18:28.904,7 Dec 2013 13:31:55.798,806.895
36,7 Dec 2013 15:02:02.506,7 Dec 2013 15:19:07.365,1024.859
37,7 Dec 2013 16:48:20.131,7 Dec 2013 17:05:26.743,1026.611
38,7 Dec 2013 18:34:11.630,7 Dec 2013 18:49:08.691,897.061

"Access","Start Time (UTCG)","Stop Time (UTCG)","Duration (sec)"
1,3 Dec 2013 13:29:03.176,3 Dec 2013 13:39:25.047,621.871
2,3 Dec 2013 15:10:25.320,3 Dec 2013 15:27:06.213,1000.893
3,3 Dec 2013 16:56:11.231,3 Dec 2013 17:13:12.058,1020.827
4,3 Dec 2013 18:42:31.675,3 Dec 2013 18:56:55.451,863.776
5,4 Dec 2013 12:35:04.404,4 Dec 2013 12:51:02.060,957.657
6,4 Dec 2013 14:19:46.972,4 Dec 2013 14:36:55.458,1028.486
7,4 Dec 2013 16:05:40.578,4 Dec 2013 16:21:22.175,941.597
8,4 Dec 2013 17:44:01.443,4 Dec 2013 17:58:47.883,886.441
9,4 Dec 2013 19:22:08.114,4 Dec 2013 19:36:47.410,879.296
10,4 Dec 2013 21:00:53.859,4 Dec 2013 21:16:19.436,925.577
11,4 Dec 2013 22:41:19.843,4 Dec 2013 22:57:26.470,966.627
12,5 Dec 2013 00:23:33.419,5 Dec 2013 00:39:52.163,978.744
13,5 Dec 2013 02:07:00.752,5 Dec 2013 02:20:06.193,785.441
14,5 Dec 2013 09:57:46.571,5 Dec 2013 10:13:43.602,957.031
15,5 Dec 2013 11:41:08.566,5 Dec 2013 11:57:01.281,952.715
16,5 Dec 2013 13:20:44.390,5 Dec 2013 13:36:42.557,958.167
17,5 Dec 2013 14:59:20.927,5 Dec 2013 15:15:08.422,947.495
18,5 Dec 2013 16:37:39.375,5 Dec 2013 16:53:34.741,955.366
19,5 Dec 2013 18:17:05.884,5 Dec 2013 18:32:36.803,930.919
20,5 Dec 2013 19:59:22.102,5 Dec 2013 20:12:14.755,772.652
21,5 Dec 2013 21:43:20.447,5 Dec 2013 21:57:01.865,821.417
22,5 Dec 2013 23:24:49.326,5 Dec 2013 23:40:27.569,938.243
23,6 Dec 2013 07:19:31.668,6 Dec 2013 07:33:14.101,822.433
24,6 Dec 2013 09:00:38.874,6 Dec 2013 09:13:29.845,770.971
25,6 Dec 2013 10:40:17.150,6 Dec 2013 10:51:57.468,700.318
26,6 Dec 2013 12:17:50.305,6 Dec 2013 12:29:57.019,726.714
27,6 Dec 2013 13:54:05.945,6 Dec 2013 14:08:28.515,862.569
28,6 Dec 2013 15:31:18.117,6 Dec 2013 15:47:07.964,949.847
29,6 Dec 2013 17:13:31.200,6 Dec 2013 17:28:50.651,919.451
30,6 Dec 2013 19:00:39.455,6 Dec 2013 19:16:41.377,961.922
31,6 Dec 2013 20:45:01.496,6 Dec 2013 21:01:06.033,964.537
32,7 Dec 2013 12:54:03.132,7 Dec 2013 13:04:07.162,604.030
33,7 Dec 2013 14:35:40.213,7 Dec 2013 14:52:30.894,1010.681
34,7 Dec 2013 16:21:46.676,7 Dec 2013 16:38:55.426,1028.749
35,7 Dec 2013 18:07:41.695,7 Dec 2013 18:23:46.382,964.687

"Access","Start Time (UTCG)","Stop Time (UTCG)","Duration (sec)"
1,3 Dec 2013 13:07:45.030,3 Dec 2013 13:09:06.503,81.473
2,3 Dec 2013 14:44:22.333,3 Dec 2013 15:00:30.787,968.453
3,3 Dec 2013 16:29:39.269,3 Dec 2013 16:46:44.000,1024.731
4,3 Dec 2013 18:15:49.212,3 Dec 2013 18:31:30.892,941.680
5,4 Dec 2013 12:09:46.682,4 Dec 2013 12:24:31.231,884.548
6,4 Dec 2013 13:53:16.509,4 Dec 2013 14:10:22.550,1026.041
7,4 Dec 2013 15:39:35.063,4 Dec 2013 15:56:41.343,1026.280
8,4 Dec 2013 17:19:28.304,4 Dec 2013 17:34:27.249,898.945
9,4 Dec 2013 18:57:35.713,4 Dec 2013 19:12:09.817,874.104
10,4 Dec 2013 20:36:04.695,4 Dec 2013 20:51:17.162,912.466
11,4 Dec 2013 22:16:02.550,4 Dec 2013 22:32:01.429,958.878
12,4 Dec 2013 23:57:51.328,5 Dec 2013 00:14:10.081,978.754
13,5 Dec 2013 01:41:09.622,5 Dec 2013 01:56:24.543,914.921
14,5 Dec 2013 09:33:00.750,5 Dec 2013 09:47:34.715,873.965
15,5 Dec 2013 11:15:17.757,5 Dec 2013 11:31:45.406,987.648
16,5 Dec 2013 12:55:56.729,5 Dec 2013 13:11:57.553,960.823
17,5 Dec 2013 14:34:45.912,5 Dec 2013 14:50:34.424,948.512
18,5 Dec 2013 16:13:02.336,5 Dec 2013 16:28:55.339,953.004
19,5 Dec 2013 17:52:02.254,5 Dec 2013 18:07:47.633,945.379
20,5 Dec 2013 19:33:26.793,5 Dec 2013 19:47:17.371,830.577
21,5 Dec 2013 21:18:26.000,5 Dec 2013 21:29:15.384,649.384
22,5 Dec 2013 22:59:13.732,5 Dec 2013 23:15:34.475,980.743
23,6 Dec 2013 00:44:52.167,6 Dec 2013 00:49:00.839,248.672
24,6 Dec 2013 06:54:24.577,6 Dec 2013 07:07:49.917,805.340
25,6 Dec 2013 08:35:28.636,6 Dec 2013 08:48:37.778,789.142
26,6 Dec 2013 10:15:33.437,6 Dec 2013 10:27:27.152,713.715
27,6 Dec 2013 11:53:38.481,6 Dec 2013 12:05:24.776,706.295
28,6 Dec 2013 13:30:02.184,6 Dec 2013 13:43:48.103,825.919
29,6 Dec 2013 15:06:47.658,6 Dec 2013 15:22:30.107,942.449
30,6 Dec 2013 16:46:19.537,6 Dec 2013 17:02:09.105,949.568
31,6 Dec 2013 18:34:14.182,6 Dec 2013 18:49:44.957,930.775
32,6 Dec 2013 20:18:59.648,6 Dec 2013 20:35:39.951,1000.302
33,6 Dec 2013 22:04:40.626,6 Dec 2013 22:12:56.465,495.839
34,7 Dec 2013 14:09:32.640,7 Dec 2013 14:25:51.150,978.511
35,7 Dec 2013 15:55:10.398,7 Dec 2013 16:12:19.910,1029.512
36,7 Dec 2013 17:41:15.947,7 Dec 2013 17:57:57.689,1001.742
37,7 Dec 2013 19:28:12.750,7 Dec 2013 19:37:40.599,567.849

