Raw and processed data/constellation variations/us_greatcircle_8sat/Aircraft-B747LAX_Narita-Transmitter-adsb_out6211-To-Satellite-700km_p1_1-Receiver-adsb_satrcvr2 Access.csv

"Access","Start Time (UTCG)","Stop Time (UTCG)","Duration (sec)"
1,3 Dec 2013 06:03:06.288,3 Dec 2013 06:14:24.566,678.279
2,3 Dec 2013 07:43:17.784,3 Dec 2013 07:59:55.017,997.233
3,3 Dec 2013 09:32:39.668,3 Dec 2013 09:44:44.466,724.798
4,3 Dec 2013 11:17:44.235,3 Dec 2013 11:30:57.733,793.498
5,3 Dec 2013 12:56:10.157,3 Dec 2013 13:11:34.961,924.804
6,3 Dec 2013 14:35:05.646,3 Dec 2013 14:51:01.491,955.845
7,3 Dec 2013 16:14:28.511,3 Dec 2013 16:30:31.959,963.448
8,3 Dec 2013 17:54:37.047,3 Dec 2013 18:10:47.757,970.710
9,3 Dec 2013 19:35:45.848,3 Dec 2013 19:52:01.226,975.378
10,3 Dec 2013 21:19:55.194,3 Dec 2013 21:29:30.284,575.090
11,4 Dec 2013 03:29:55.574,4 Dec 2013 03:32:25.597,150.024
12,4 Dec 2013 05:03:39.902,4 Dec 2013 05:20:09.216,989.314
13,4 Dec 2013 06:48:01.927,4 Dec 2013 07:02:11.824,849.897
14,4 Dec 2013 08:29:04.949,4 Dec 2013 08:43:47.174,882.226
15,4 Dec 2013 10:09:12.809,4 Dec 2013 10:24:11.469,898.660
16,4 Dec 2013 11:49:03.139,4 Dec 2013 12:03:48.138,884.998
17,4 Dec 2013 13:29:27.451,4 Dec 2013 13:43:07.216,819.765
18,4 Dec 2013 15:11:37.050,4 Dec 2013 15:22:22.107,645.058
19,4 Dec 2013 16:55:07.257,4 Dec 2013 17:10:54.349,947.093
20,4 Dec 2013 18:39:12.716,4 Dec 2013 18:53:05.815,833.099
21,5 Dec 2013 02:27:38.272,5 Dec 2013 02:36:38.502,540.229
22,5 Dec 2013 04:07:15.977,5 Dec 2013 04:19:02.549,706.572
23,5 Dec 2013 05:46:42.311,5 Dec 2013 05:59:39.614,777.303
24,5 Dec 2013 07:25:17.877,5 Dec 2013 07:39:19.312,841.434
25,5 Dec 2013 09:03:16.287,5 Dec 2013 09:18:31.323,915.035
26,5 Dec 2013 10:41:31.791,5 Dec 2013 10:57:22.481,950.690
27,5 Dec 2013 12:27:47.564,5 Dec 2013 12:42:56.394,908.830
28,5 Dec 2013 14:15:36.410,5 Dec 2013 14:31:41.563,965.153
29,5 Dec 2013 16:00:57.639,5 Dec 2013 16:16:45.262,947.623
30,6 Dec 2013 08:05:25.396,6 Dec 2013 08:19:37.445,852.049
31,6 Dec 2013 09:49:11.220,6 Dec 2013 10:06:02.579,1011.359
32,6 Dec 2013 11:37:23.654,6 Dec 2013 11:53:21.322,957.668
33,6 Dec 2013 13:23:52.201,6 Dec 2013 13:40:51.661,1019.460
34,6 Dec 2013 15:12:57.828,6 Dec 2013 15:20:13.176,435.347
35,7 Dec 2013 05:33:12.786,7 Dec 2013 05:41:05.668,472.882
36,7 Dec 2013 07:11:38.059,7 Dec 2013 07:28:30.797,1012.738
37,7 Dec 2013 08:59:27.799,7 Dec 2013 09:14:03.252,875.453
38,7 Dec 2013 10:47:31.888,7 Dec 2013 11:03:16.705,944.816
39,7 Dec 2013 12:29:12.545,7 Dec 2013 12:45:03.328,950.783
40,7 Dec 2013 14:08:08.492,7 Dec 2013 14:23:11.436,902.944
41,7 Dec 2013 15:47:24.498,7 Dec 2013 16:01:16.966,832.468
42,7 Dec 2013 17:27:13.182,7 Dec 2013 17:40:06.703,773.522
43,7 Dec 2013 19:08:07.364,7 Dec 2013 19:19:44.143,696.779
44,7 Dec 2013 20:51:03.140,7 Dec 2013 20:59:16.692,493.551
45,8 Dec 2013 04:33:18.610,8 Dec 2013 04:49:45.641,987.031
46,8 Dec 2013 06:20:16.871,8 Dec 2013 06:32:21.602,724.731
47,8 Dec 2013 08:04:16.473,8 Dec 2013 08:15:57.245,700.772
48,8 Dec 2013 09:43:34.387,8 Dec 2013 09:57:35.272,840.885
49,8 Dec 2013 11:22:56.216,8 Dec 2013 11:37:46.550,890.334
50,8 Dec 2013 13:02:41.345,8 Dec 2013 13:17:36.785,895.440
51,8 Dec 2013 14:43:21.383,8 Dec 2013 14:57:53.401,872.018
52,8 Dec 2013 16:25:14.193,8 Dec 2013 16:39:25.305,851.112
53,8 Dec 2013 18:07:57.540,8 Dec 2013 18:23:08.603,911.063
54,9 Dec 2013 01:54:13.706,9 Dec 2013 02:09:26.200,912.494

"Access","Start Time (UTCG)","Stop Time (UTCG)","Duration (sec)"
1,3 Dec 2013 05:42:33.824,3 Dec 2013 05:44:40.852,127.028
2,3 Dec 2013 07:17:10.410,3 Dec 2013 07:33:54.276,1003.866
3,3 Dec 2013 09:04:49.211,3 Dec 2013 09:18:11.130,801.918
4,3 Dec 2013 10:53:18.141,3 Dec 2013 11:05:22.932,724.792
5,3 Dec 2013 12:31:29.935,3 Dec 2013 12:46:36.125,906.190
6,3 Dec 2013 14:10:19.680,3 Dec 2013 14:26:11.776,952.097
7,3 Dec 2013 15:49:34.334,3 Dec 2013 16:05:36.187,961.853
8,3 Dec 2013 17:29:29.592,3 Dec 2013 17:45:38.413,968.821
9,3 Dec 2013 19:10:22.755,3 Dec 2013 19:26:37.809,975.054
10,3 Dec 2013 20:52:54.308,3 Dec 2013 21:06:39.399,825.092
11,4 Dec 2013 04:38:20.609,4 Dec 2013 04:54:26.491,965.882
12,4 Dec 2013 06:22:33.790,4 Dec 2013 06:36:37.430,843.641
13,4 Dec 2013 08:03:55.681,4 Dec 2013 08:18:30.289,874.608
14,4 Dec 2013 09:44:14.117,4 Dec 2013 09:59:11.128,897.011
15,4 Dec 2013 11:24:04.705,4 Dec 2013 11:38:56.637,891.932
16,4 Dec 2013 13:04:14.656,4 Dec 2013 13:18:17.938,843.282
17,4 Dec 2013 14:45:49.944,4 Dec 2013 14:57:34.156,704.212
18,4 Dec 2013 16:29:22.213,4 Dec 2013 16:43:42.896,860.683
19,4 Dec 2013 18:12:49.648,4 Dec 2013 18:28:37.919,948.271
20,5 Dec 2013 02:02:56.842,5 Dec 2013 02:10:32.086,455.243
21,5 Dec 2013 03:42:19.583,5 Dec 2013 03:53:39.344,679.761
22,5 Dec 2013 05:21:54.942,5 Dec 2013 05:34:37.237,762.295
23,5 Dec 2013 07:00:43.822,5 Dec 2013 07:14:27.823,824.001
24,5 Dec 2013 08:38:47.701,5 Dec 2013 08:53:45.085,897.384
25,5 Dec 2013 10:16:52.410,5 Dec 2013 10:32:42.297,949.887
26,5 Dec 2013 12:00:25.242,5 Dec 2013 12:16:10.796,945.555
27,5 Dec 2013 13:49:02.865,5 Dec 2013 14:04:28.801,925.936
28,5 Dec 2013 15:34:33.015,5 Dec 2013 15:51:15.127,1002.112
29,6 Dec 2013 07:41:19.990,6 Dec 2013 07:52:01.364,641.374
30,6 Dec 2013 09:22:32.360,6 Dec 2013 09:39:34.307,1021.947
31,6 Dec 2013 11:10:22.720,6 Dec 2013 11:26:15.818,953.098
32,6 Dec 2013 12:57:23.397,6 Dec 2013 13:14:23.044,1019.647
33,6 Dec 2013 14:44:23.629,6 Dec 2013 14:57:06.396,762.767
34,7 Dec 2013 06:45:46.070,7 Dec 2013 07:02:15.869,989.799
35,7 Dec 2013 08:32:04.264,7 Dec 2013 08:47:23.291,919.027
36,7 Dec 2013 10:20:53.720,7 Dec 2013 10:35:49.862,896.142
37,7 Dec 2013 12:04:32.775,7 Dec 2013 12:20:22.745,949.970
38,7 Dec 2013 13:43:22.543,7 Dec 2013 13:58:42.191,919.648
39,7 Dec 2013 15:22:33.357,7 Dec 2013 15:36:42.630,849.273
40,7 Dec 2013 17:02:11.391,7 Dec 2013 17:15:19.112,787.720
41,7 Dec 2013 18:42:45.384,7 Dec 2013 18:54:46.945,721.562
42,7 Dec 2013 20:25:01.567,7 Dec 2013 20:34:30.854,569.286
43,8 Dec 2013 04:08:18.231,8 Dec 2013 04:23:42.516,924.285
44,8 Dec 2013 05:52:27.275,8 Dec 2013 06:06:51.169,863.894
45,8 Dec 2013 07:39:27.807,8 Dec 2013 07:50:09.415,641.608
46,8 Dec 2013 09:18:44.818,8 Dec 2013 09:32:21.898,817.080
47,8 Dec 2013 10:58:04.668,8 Dec 2013 11:12:47.936,883.269
48,8 Dec 2013 12:37:41.171,8 Dec 2013 12:52:38.329,897.157
49,8 Dec 2013 14:18:04.687,8 Dec 2013 14:32:44.706,880.020
50,8 Dec 2013 15:59:39.674,8 Dec 2013 16:13:45.025,845.351
51,8 Dec 2013 17:41:57.854,8 Dec 2013 17:58:18.383,980.528
52,9 Dec 2013 01:30:27.932,9 Dec 2013 01:43:07.354,759.423

"Access","Start Time (UTCG)","Stop Time (UTCG)","Duration (sec)"
1,3 Dec 2013 06:51:39.708,3 Dec 2013 07:07:46.420,966.713
2,3 Dec 2013 08:37:11.430,3 Dec 2013 08:51:57.464,886.033
3,3 Dec 2013 10:27:40.445,3 Dec 2013 10:39:23.292,702.846
4,3 Dec 2013 12:06:51.681,3 Dec 2013 12:21:31.598,879.918
5,3 Dec 2013 13:45:35.148,3 Dec 2013 14:01:21.519,946.371
6,3 Dec 2013 15:24:42.685,3 Dec 2013 15:40:42.928,960.243
7,3 Dec 2013 17:04:25.840,3 Dec 2013 17:20:32.772,966.933
8,3 Dec 2013 18:45:03.582,3 Dec 2013 19:01:17.585,974.003
9,3 Dec 2013 20:26:46.693,3 Dec 2013 20:42:29.667,942.973
10,4 Dec 2013 04:13:47.855,4 Dec 2013 04:28:23.589,875.735
11,4 Dec 2013 05:56:32.199,4 Dec 2013 06:10:59.923,867.724
12,4 Dec 2013 07:38:42.420,4 Dec 2013 07:53:08.671,866.251
13,4 Dec 2013 09:19:13.630,4 Dec 2013 09:34:07.271,893.641
14,4 Dec 2013 10:59:07.375,4 Dec 2013 11:14:03.686,896.310
15,4 Dec 2013 12:39:07.088,4 Dec 2013 12:53:28.474,861.385
16,4 Dec 2013 14:20:13.713,4 Dec 2013 14:32:45.436,751.723
17,4 Dec 2013 16:03:35.066,4 Dec 2013 16:15:53.264,738.198
18,4 Dec 2013 17:46:46.587,4 Dec 2013 18:03:22.599,996.012
19,5 Dec 2013 01:38:35.996,5 Dec 2013 01:43:58.425,322.429
20,5 Dec 2013 03:17:23.241,5 Dec 2013 03:28:08.726,645.486
21,5 Dec 2013 04:57:04.429,5 Dec 2013 05:09:30.715,746.286
22,5 Dec 2013 06:36:06.727,5 Dec 2013 06:49:34.354,807.626
23,5 Dec 2013 08:14:19.057,5 Dec 2013 08:28:57.727,878.670
24,5 Dec 2013 09:52:17.508,5 Dec 2013 10:08:00.136,942.627
25,5 Dec 2013 11:33:10.929,5 Dec 2013 11:49:36.428,985.498
26,5 Dec 2013 13:22:13.509,5 Dec 2013 13:37:10.083,896.574
27,5 Dec 2013 15:08:15.744,5 Dec 2013 15:25:10.963,1015.219
28,5 Dec 2013 16:55:09.465,5 Dec 2013 17:05:08.531,599.066
29,6 Dec 2013 08:56:17.415,6 Dec 2013 09:13:06.048,1008.633
30,6 Dec 2013 10:43:14.816,6 Dec 2013 10:59:20.187,965.371
31,6 Dec 2013 12:30:52.141,6 Dec 2013 12:47:33.670,1001.528
32,6 Dec 2013 14:17:10.026,6 Dec 2013 14:32:23.380,913.354
33,7 Dec 2013 06:20:31.301,7 Dec 2013 06:35:50.638,919.337
34,7 Dec 2013 08:04:52.355,7 Dec 2013 08:20:58.551,966.196
35,7 Dec 2013 09:54:00.614,7 Dec 2013 10:08:21.106,860.492
36,7 Dec 2013 11:39:55.626,7 Dec 2013 11:55:36.177,940.551
37,7 Dec 2013 13:18:37.780,7 Dec 2013 13:34:11.842,934.062
38,7 Dec 2013 14:57:43.795,7 Dec 2013 15:12:10.751,866.956
39,7 Dec 2013 16:37:13.045,7 Dec 2013 16:50:34.957,801.912
40,7 Dec 2013 18:17:29.527,7 Dec 2013 18:29:51.129,741.602
41,7 Dec 2013 19:59:13.825,7 Dec 2013 20:09:37.941,624.116
42,8 Dec 2013 03:44:10.031,8 Dec 2013 03:57:14.340,784.309
43,8 Dec 2013 05:25:23.338,8 Dec 2013 05:41:16.046,952.708
44,8 Dec 2013 07:14:40.588,8 Dec 2013 07:24:08.795,568.207
45,8 Dec 2013 08:53:55.268,8 Dec 2013 09:07:01.983,786.716
46,8 Dec 2013 10:33:14.077,8 Dec 2013 10:47:47.194,873.117
47,8 Dec 2013 12:12:43.954,8 Dec 2013 12:27:40.940,896.986
48,8 Dec 2013 13:52:52.655,8 Dec 2013 14:07:39.402,886.748
49,8 Dec 2013 15:34:09.064,8 Dec 2013 15:48:23.045,853.982
50,8 Dec 2013 17:16:14.603,8 Dec 2013 17:32:44.243,989.640
51,8 Dec 2013 19:02:12.595,8 Dec 2013 19:09:12.183,419.588
52,9 Dec 2013 01:08:31.631,9 Dec 2013 01:15:24.623,412.991

"Access","Start Time (UTCG)","Stop Time (UTCG)","Duration (sec)"
1,3 Dec 2013 06:26:52.154,3 Dec 2013 06:41:22.917,870.763
2,3 Dec 2013 08:09:59.009,3 Dec 2013 08:25:54.300,955.290
3,3 Dec 2013 10:00:22.781,3 Dec 2013 10:11:47.634,684.853
4,3 Dec 2013 11:42:16.073,3 Dec 2013 11:56:19.569,843.496
5,3 Dec 2013 13:20:51.957,3 Dec 2013 13:36:29.641,937.684
6,3 Dec 2013 14:59:53.228,3 Dec 2013 15:15:51.600,958.372
7,3 Dec 2013 16:39:25.571,3 Dec 2013 16:55:30.703,965.132
8,3 Dec 2013 18:19:48.352,3 Dec 2013 18:36:00.844,972.492
9,3 Dec 2013 20:01:12.809,3 Dec 2013 20:17:27.442,974.633
10,4 Dec 2013 03:50:18.577,4 Dec 2013 04:01:43.492,684.914
11,4 Dec 2013 05:29:42.394,4 Dec 2013 05:45:37.243,954.849
12,4 Dec 2013 07:13:24.662,4 Dec 2013 07:27:42.411,857.749
13,4 Dec 2013 08:54:10.759,4 Dec 2013 09:08:59.410,888.651
14,4 Dec 2013 10:34:10.334,4 Dec 2013 10:49:08.804,898.470
15,4 Dec 2013 12:14:03.608,4 Dec 2013 12:28:38.631,875.023
16,4 Dec 2013 13:54:46.692,4 Dec 2013 14:07:56.395,789.703
17,4 Dec 2013 15:37:37.066,4 Dec 2013 15:47:30.870,593.803
18,4 Dec 2013 17:20:54.143,4 Dec 2013 17:37:27.452,993.309
19,4 Dec 2013 19:06:21.355,4 Dec 2013 19:16:20.712,599.356
20,5 Dec 2013 02:52:28.615,5 Dec 2013 03:02:29.230,600.615
21,5 Dec 2013 04:32:11.222,5 Dec 2013 04:44:19.395,728.173
22,5 Dec 2013 06:11:26.260,5 Dec 2013 06:24:38.460,792.199
23,5 Dec 2013 07:49:49.388,5 Dec 2013 08:04:09.191,859.802
24,5 Dec 2013 09:27:45.856,5 Dec 2013 09:43:16.388,930.533
25,5 Dec 2013 11:06:16.971,5 Dec 2013 11:23:07.687,1010.716
26,5 Dec 2013 12:55:06.916,5 Dec 2013 13:09:56.674,889.758
27,5 Dec 2013 14:41:58.838,5 Dec 2013 14:58:38.058,999.220
28,5 Dec 2013 16:27:40.662,5 Dec 2013 16:41:31.936,831.274
29,6 Dec 2013 08:30:32.125,6 Dec 2013 08:46:30.743,958.618
30,6 Dec 2013 10:16:07.956,6 Dec 2013 10:32:36.434,988.478
31,6 Dec 2013 12:04:13.375,6 Dec 2013 12:20:30.249,976.874
32,6 Dec 2013 13:50:24.847,6 Dec 2013 14:06:53.984,989.137
33,7 Dec 2013 05:56:05.967,7 Dec 2013 06:09:01.511,775.544
34,7 Dec 2013 07:38:01.619,7 Dec 2013 07:54:43.021,1001.403
35,7 Dec 2013 09:26:50.362,7 Dec 2013 09:41:02.816,852.454
36,7 Dec 2013 11:14:00.895,7 Dec 2013 11:30:30.647,989.752
37,7 Dec 2013 12:53:54.350,7 Dec 2013 13:09:39.277,944.926
38,7 Dec 2013 14:32:55.554,7 Dec 2013 14:47:40.636,885.082
39,7 Dec 2013 16:12:17.584,7 Dec 2013 16:25:54.294,816.710
40,7 Dec 2013 17:52:19.019,7 Dec 2013 18:04:57.517,758.498
41,7 Dec 2013 19:33:36.415,7 Dec 2013 19:44:41.635,665.220
42,7 Dec 2013 21:18:16.148,7 Dec 2013 21:21:26.198,190.049
43,8 Dec 2013 03:21:33.258,8 Dec 2013 03:29:42.593,489.335
44,8 Dec 2013 04:59:01.039,8 Dec 2013 05:15:35.093,994.053
45,8 Dec 2013 06:48:57.273,8 Dec 2013 06:57:52.638,535.365
46,8 Dec 2013 08:29:05.767,8 Dec 2013 08:41:34.242,748.476
47,8 Dec 2013 10:08:24.076,8 Dec 2013 10:22:43.331,859.255
48,8 Dec 2013 11:47:49.144,8 Dec 2013 12:02:43.937,894.793
49,8 Dec 2013 13:27:45.009,8 Dec 2013 13:42:36.948,891.939
50,8 Dec 2013 15:08:42.872,8 Dec 2013 15:23:06.000,863.128
51,8 Dec 2013 16:50:43.224,8 Dec 2013 17:06:27.927,944.704
52,8 Dec 2013 18:34:26.009,8 Dec 2013 18:47:03.415,757.406

"Access","Start Time (UTCG)","Stop Time (UTCG)","Duration (sec)"
1,3 Dec 2013 01:09:03.937,3 Dec 2013 01:24:07.132,903.196
2,3 Dec 2013 02:57:59.992,3 Dec 2013 03:12:44.986,884.994
3,3 Dec 2013 04:43:08.996,3 Dec 2013 04:59:54.730,1005.733
4,3 Dec 2013 20:49:07.241,3 Dec 2013 21:00:09.339,662.098
5,3 Dec 2013 22:30:46.093,3 Dec 2013 22:47:48.672,1022.579
6,4 Dec 2013 00:18:43.592,4 Dec 2013 00:34:35.211,951.619
7,4 Dec 2013 02:05:39.771,4 Dec 2013 02:22:38.950,1019.179
8,4 Dec 2013 03:52:30.648,4 Dec 2013 04:05:02.723,752.075
9,4 Dec 2013 19:54:24.467,4 Dec 2013 20:10:46.273,981.806
10,4 Dec 2013 21:40:24.361,4 Dec 2013 21:56:14.741,950.379
11,4 Dec 2013 23:28:52.195,4 Dec 2013 23:44:29.899,937.704
12,5 Dec 2013 01:15:03.863,5 Dec 2013 01:31:28.742,984.878
13,5 Dec 2013 02:55:05.272,5 Dec 2013 03:08:39.491,814.219
14,5 Dec 2013 04:34:52.534,5 Dec 2013 04:45:09.664,617.130
15,5 Dec 2013 06:15:25.080,5 Dec 2013 06:21:48.428,383.349
16,5 Dec 2013 17:17:39.186,5 Dec 2013 17:32:39.173,899.988
17,5 Dec 2013 19:01:14.881,5 Dec 2013 19:16:31.783,916.902
18,5 Dec 2013 20:52:33.552,5 Dec 2013 21:01:12.051,518.498
19,5 Dec 2013 22:30:40.472,5 Dec 2013 22:44:13.158,812.686
20,6 Dec 2013 00:09:34.462,6 Dec 2013 00:24:42.209,907.747
21,6 Dec 2013 01:48:50.145,6 Dec 2013 02:04:27.435,937.290
22,6 Dec 2013 03:28:43.580,6 Dec 2013 03:44:29.817,946.236
23,6 Dec 2013 05:09:34.851,6 Dec 2013 05:25:25.437,950.586
24,6 Dec 2013 06:51:26.120,6 Dec 2013 07:07:50.327,984.207
25,6 Dec 2013 14:40:24.463,6 Dec 2013 14:52:32.379,727.916
26,6 Dec 2013 16:19:57.448,6 Dec 2013 16:35:59.507,962.059
27,6 Dec 2013 18:01:44.871,6 Dec 2013 18:17:36.436,951.565
28,6 Dec 2013 19:42:26.324,6 Dec 2013 19:58:12.949,946.625
29,6 Dec 2013 21:22:20.589,6 Dec 2013 21:37:55.314,934.725
30,6 Dec 2013 23:02:08.620,6 Dec 2013 23:17:04.912,896.292
31,7 Dec 2013 00:42:58.373,7 Dec 2013 00:55:52.657,774.284
32,7 Dec 2013 02:27:27.989,7 Dec 2013 02:39:43.622,735.633
33,7 Dec 2013 04:11:43.424,7 Dec 2013 04:28:27.316,1003.891
34,7 Dec 2013 05:58:07.393,7 Dec 2013 06:06:38.327,510.934
35,7 Dec 2013 17:04:37.227,7 Dec 2013 17:11:31.370,414.143
36,7 Dec 2013 18:41:04.529,7 Dec 2013 18:51:56.000,651.471
37,7 Dec 2013 20:17:33.879,7 Dec 2013 20:31:38.784,844.905
38,7 Dec 2013 21:58:01.719,7 Dec 2013 22:15:02.795,1021.076
39,7 Dec 2013 23:46:25.054,8 Dec 2013 00:01:49.744,924.690
40,8 Dec 2013 01:33:22.109,8 Dec 2013 01:50:11.327,1009.219
41,8 Dec 2013 03:19:28.831,8 Dec 2013 03:32:57.062,808.231
42,8 Dec 2013 19:22:19.450,8 Dec 2013 19:38:17.962,958.511
43,8 Dec 2013 21:07:49.116,8 Dec 2013 21:24:13.097,983.981
44,8 Dec 2013 22:55:59.240,8 Dec 2013 23:12:08.531,969.290
45,9 Dec 2013 00:42:14.637,9 Dec 2013 00:58:51.060,996.423

"Access","Start Time (UTCG)","Stop Time (UTCG)","Duration (sec)"
1,3 Dec 2013 02:31:12.299,3 Dec 2013 02:45:17.391,845.092
2,3 Dec 2013 04:16:57.872,3 Dec 2013 04:33:47.088,1009.216
3,3 Dec 2013 06:03:10.694,3 Dec 2013 06:14:06.469,655.775
4,3 Dec 2013 22:04:27.102,3 Dec 2013 22:21:18.658,1011.556
5,3 Dec 2013 23:51:35.297,4 Dec 2013 00:07:38.684,963.387
6,4 Dec 2013 01:39:10.187,4 Dec 2013 01:55:51.757,1001.570
7,4 Dec 2013 03:25:19.651,4 Dec 2013 03:40:26.925,907.274
8,4 Dec 2013 19:29:12.526,4 Dec 2013 19:44:13.218,900.693
9,4 Dec 2013 21:13:19.303,4 Dec 2013 21:29:45.755,986.452
10,4 Dec 2013 23:02:00.777,4 Dec 2013 23:17:09.589,908.812
11,5 Dec 2013 00:48:30.641,5 Dec 2013 01:05:32.805,1022.164
12,5 Dec 2013 02:30:13.362,5 Dec 2013 02:44:28.030,854.668
13,5 Dec 2013 04:09:52.655,5 Dec 2013 04:21:02.621,669.966
14,5 Dec 2013 05:50:09.853,5 Dec 2013 05:57:37.499,447.646
15,5 Dec 2013 16:53:41.208,5 Dec 2013 17:05:57.144,735.936
16,5 Dec 2013 18:34:23.736,5 Dec 2013 18:50:42.908,979.172
17,5 Dec 2013 20:25:03.315,5 Dec 2013 20:34:35.040,571.725
18,5 Dec 2013 22:06:01.212,5 Dec 2013 22:18:48.576,767.364
19,5 Dec 2013 23:44:49.083,5 Dec 2013 23:59:42.092,893.010
20,6 Dec 2013 01:23:58.597,6 Dec 2013 01:39:31.427,932.830
21,6 Dec 2013 03:03:40.390,6 Dec 2013 03:19:25.272,944.882
22,6 Dec 2013 04:44:16.125,6 Dec 2013 05:00:05.357,949.232
23,6 Dec 2013 06:25:52.536,6 Dec 2013 06:42:10.391,977.855
24,6 Dec 2013 08:10:52.177,6 Dec 2013 08:19:24.078,511.901
25,6 Dec 2013 14:18:55.529,6 Dec 2013 14:24:21.527,325.998
26,6 Dec 2013 15:54:05.827,6 Dec 2013 16:10:27.406,981.580
27,6 Dec 2013 17:36:24.424,6 Dec 2013 17:52:17.543,953.119
28,6 Dec 2013 19:17:21.494,6 Dec 2013 19:33:09.560,948.066
29,6 Dec 2013 20:57:24.609,6 Dec 2013 21:13:03.663,939.054
30,6 Dec 2013 22:37:09.026,6 Dec 2013 22:52:19.553,910.527
31,7 Dec 2013 00:17:35.020,7 Dec 2013 00:31:13.406,818.386
32,7 Dec 2013 02:00:45.381,7 Dec 2013 02:11:47.164,661.783
33,7 Dec 2013 03:45:46.436,7 Dec 2013 04:02:02.651,976.214
34,7 Dec 2013 05:30:32.857,7 Dec 2013 05:43:45.290,792.433
35,7 Dec 2013 16:40:30.142,7 Dec 2013 16:46:12.111,341.968
36,7 Dec 2013 18:16:58.922,7 Dec 2013 18:26:54.874,595.952
37,7 Dec 2013 19:53:23.721,7 Dec 2013 20:06:46.143,802.422
38,7 Dec 2013 21:31:35.576,7 Dec 2013 21:48:31.799,1016.223
39,7 Dec 2013 23:19:10.956,7 Dec 2013 23:34:52.277,941.320
40,8 Dec 2013 01:06:55.874,8 Dec 2013 01:23:18.914,983.040
41,8 Dec 2013 02:52:36.911,8 Dec 2013 03:08:12.726,935.815
42,8 Dec 2013 18:57:16.459,8 Dec 2013 19:11:28.987,852.528
43,8 Dec 2013 20:40:52.535,8 Dec 2013 20:57:41.138,1008.603
44,8 Dec 2013 22:29:08.210,8 Dec 2013 22:44:57.364,949.154
45,9 Dec 2013 00:15:41.080,9 Dec 2013 00:32:42.628,1021.548
46,9 Dec 2013 02:04:35.770,9 Dec 2013 02:12:53.958,498.188

"Access","Start Time (UTCG)","Stop Time (UTCG)","Duration (sec)"
1,3 Dec 2013 02:04:03.190,3 Dec 2013 02:17:56.912,833.722
2,3 Dec 2013 03:50:46.623,3 Dec 2013 04:07:09.360,982.736
3,3 Dec 2013 05:35:59.781,3 Dec 2013 05:50:18.773,858.992
4,3 Dec 2013 21:38:36.654,3 Dec 2013 21:54:41.386,964.732
5,3 Dec 2013 23:24:27.095,3 Dec 2013 23:40:53.733,986.638
6,4 Dec 2013 01:12:32.805,4 Dec 2013 01:28:49.619,976.813
7,4 Dec 2013 02:58:37.040,4 Dec 2013 03:15:02.789,985.749
8,4 Dec 2013 19:04:52.672,4 Dec 2013 19:17:12.239,739.567
9,4 Dec 2013 20:46:33.711,4 Dec 2013 21:03:25.204,1011.493
10,4 Dec 2013 22:34:55.289,4 Dec 2013 22:49:56.150,900.861
11,5 Dec 2013 00:22:01.837,5 Dec 2013 00:38:49.621,1007.784
12,5 Dec 2013 02:05:23.546,5 Dec 2013 02:20:13.063,889.518
13,5 Dec 2013 03:44:54.915,5 Dec 2013 03:56:55.821,720.905
14,5 Dec 2013 05:25:00.343,5 Dec 2013 05:33:26.950,506.607
15,5 Dec 2013 07:06:30.717,5 Dec 2013 07:09:55.871,205.154
16,5 Dec 2013 16:31:40.848,5 Dec 2013 16:37:45.636,364.788
17,5 Dec 2013 18:08:09.537,5 Dec 2013 18:24:51.248,1001.711
18,5 Dec 2013 19:56:43.021,5 Dec 2013 20:08:19.639,696.618
19,5 Dec 2013 21:41:25.186,5 Dec 2013 21:53:12.893,707.707
20,5 Dec 2013 23:20:04.856,5 Dec 2013 23:34:38.174,873.318
21,6 Dec 2013 00:59:09.002,6 Dec 2013 01:14:35.828,926.826
22,6 Dec 2013 02:38:40.660,6 Dec 2013 02:54:23.713,943.053
23,6 Dec 2013 04:19:01.326,6 Dec 2013 04:34:49.538,948.212
24,6 Dec 2013 06:00:23.346,6 Dec 2013 06:16:18.637,955.291
25,6 Dec 2013 07:43:33.443,6 Dec 2013 07:56:49.388,795.945
26,6 Dec 2013 15:28:41.545,6 Dec 2013 15:44:54.304,972.760
27,6 Dec 2013 17:10:59.645,6 Dec 2013 17:26:54.916,955.270
28,6 Dec 2013 18:52:13.188,6 Dec 2013 19:08:02.439,949.251
29,6 Dec 2013 20:32:27.340,6 Dec 2013 20:48:09.643,942.303
30,6 Dec 2013 22:12:11.869,6 Dec 2013 22:27:32.962,921.093
31,6 Dec 2013 23:52:20.140,7 Dec 2013 00:06:32.029,851.889
32,7 Dec 2013 01:34:20.932,7 Dec 2013 01:44:59.684,638.752
33,7 Dec 2013 03:19:48.952,7 Dec 2013 03:35:04.195,915.243
34,7 Dec 2013 05:03:57.476,7 Dec 2013 05:19:25.759,928.283
35,7 Dec 2013 16:16:28.542,7 Dec 2013 16:20:40.540,251.998
36,7 Dec 2013 17:52:52.560,7 Dec 2013 18:01:50.967,538.407
37,7 Dec 2013 19:29:16.077,7 Dec 2013 19:41:51.473,755.396
38,7 Dec 2013 21:06:05.569,7 Dec 2013 21:21:52.566,946.997
39,7 Dec 2013 22:51:56.132,7 Dec 2013 23:08:07.547,971.415
40,8 Dec 2013 00:40:19.609,8 Dec 2013 00:56:11.440,951.831
41,8 Dec 2013 02:26:05.944,8 Dec 2013 02:42:43.935,997.991
42,8 Dec 2013 18:33:15.426,8 Dec 2013 18:43:58.802,643.376
43,8 Dec 2013 20:14:14.776,8 Dec 2013 20:31:15.238,1020.463
44,8 Dec 2013 22:02:05.834,8 Dec 2013 22:17:50.922,945.088
45,8 Dec 2013 23:49:11.339,9 Dec 2013 00:06:08.935,1017.597
46,9 Dec 2013 01:36:13.211,9 Dec 2013 01:49:22.398,789.187

"Access","Start Time (UTCG)","Stop Time (UTCG)","Duration (sec)"
1,3 Dec 2013 01:36:36.649,3 Dec 2013 01:50:53.046,856.397
2,3 Dec 2013 03:24:29.396,3 Dec 2013 03:40:06.168,936.772
3,3 Dec 2013 05:09:26.436,3 Dec 2013 05:25:27.895,961.459
4,3 Dec 2013 21:13:23.086,3 Dec 2013 21:27:46.107,863.022
5,3 Dec 2013 22:57:28.090,3 Dec 2013 23:14:18.496,1010.407
6,4 Dec 2013 00:45:44.098,4 Dec 2013 01:01:41.087,956.988
7,4 Dec 2013 02:32:06.636,4 Dec 2013 02:49:04.500,1017.864
8,4 Dec 2013 04:21:06.003,4 Dec 2013 04:27:55.760,409.757
9,4 Dec 2013 18:42:24.885,4 Dec 2013 18:48:43.134,378.248
10,4 Dec 2013 20:20:13.764,4 Dec 2013 20:37:07.460,1013.696
11,4 Dec 2013 22:07:39.989,4 Dec 2013 22:22:57.238,917.249
12,4 Dec 2013 23:55:30.973,5 Dec 2013 00:11:46.435,975.462
13,5 Dec 2013 01:40:36.051,5 Dec 2013 01:55:53.627,917.575
14,5 Dec 2013 03:19:59.138,5 Dec 2013 03:32:48.428,769.290
15,5 Dec 2013 04:59:54.901,5 Dec 2013 05:09:17.648,562.747
16,5 Dec 2013 06:40:49.227,5 Dec 2013 06:45:57.191,307.964
17,5 Dec 2013 17:42:33.222,5 Dec 2013 17:58:52.293,979.072
18,5 Dec 2013 19:28:42.515,5 Dec 2013 19:42:22.095,819.580
19,5 Dec 2013 21:16:54.479,5 Dec 2013 21:27:22.676,628.197
20,5 Dec 2013 22:55:21.887,5 Dec 2013 23:09:29.054,847.167
21,6 Dec 2013 00:34:21.048,6 Dec 2013 00:49:39.754,918.706
22,6 Dec 2013 02:13:44.039,6 Dec 2013 02:29:24.632,940.593
23,6 Dec 2013 03:53:50.499,6 Dec 2013 04:09:37.786,947.286
24,6 Dec 2013 05:34:57.341,6 Dec 2013 05:50:49.872,952.531
25,6 Dec 2013 07:17:16.395,6 Dec 2013 07:32:46.135,929.740
26,6 Dec 2013 15:04:03.343,6 Dec 2013 15:19:00.445,897.101
27,6 Dec 2013 16:45:30.588,6 Dec 2013 17:01:28.803,958.215
28,6 Dec 2013 18:27:01.069,6 Dec 2013 18:42:51.420,950.350
29,6 Dec 2013 20:07:28.107,6 Dec 2013 20:23:12.864,944.758
30,6 Dec 2013 21:47:16.051,6 Dec 2013 22:02:44.970,928.919
31,6 Dec 2013 23:27:11.868,6 Dec 2013 23:41:49.104,877.236
32,7 Dec 2013 01:08:32.572,7 Dec 2013 01:20:28.739,716.167
33,7 Dec 2013 02:53:45.411,7 Dec 2013 03:07:35.083,829.673
34,7 Dec 2013 04:37:44.955,7 Dec 2013 04:54:16.290,991.336
35,7 Dec 2013 15:52:56.449,7 Dec 2013 15:54:32.143,95.694
36,7 Dec 2013 17:28:45.212,7 Dec 2013 17:36:43.557,478.345
37,7 Dec 2013 19:05:09.981,7 Dec 2013 19:16:54.787,704.806
38,7 Dec 2013 20:41:47.514,7 Dec 2013 20:56:29.285,881.771
39,7 Dec 2013 22:24:50.420,7 Dec 2013 22:41:32.725,1002.306
40,8 Dec 2013 00:13:29.496,8 Dec 2013 00:28:58.407,928.912
41,8 Dec 2013 01:59:43.495,8 Dec 2013 02:16:41.494,1017.999
42,8 Dec 2013 03:47:15.124,8 Dec 2013 03:56:24.436,549.312
43,8 Dec 2013 19:48:01.844,8 Dec 2013 20:04:49.823,1007.979
44,8 Dec 2013 21:34:56.664,8 Dec 2013 21:50:55.596,958.932
45,8 Dec 2013 23:22:39.112,8 Dec 2013 23:39:15.310,996.198
46,9 Dec 2013 01:09:00.439,9 Dec 2013 01:24:28.216,927.777

