Raw and processed data/constellation variations/us_greatcircle_8sat/Aircraft-B747LAX_Narita-Transmitter-adsb_out6211-To-Satellite-Inverted_Molniya_p1_1-Receiver-adsb_satrcvr_moln_lowthresh Access.csv

"Access","Start Time (UTCG)","Stop Time (UTCG)","Duration (sec)"
1,3 Dec 2013 23:54:26.410,4 Dec 2013 00:04:59.093,632.682
2,4 Dec 2013 23:57:14.426,5 Dec 2013 00:09:08.233,713.807
3,5 Dec 2013 23:50:45.925,6 Dec 2013 00:01:11.755,625.830
4,6 Dec 2013 23:38:54.197,6 Dec 2013 23:47:16.145,501.948
5,7 Dec 2013 23:34:34.189,7 Dec 2013 23:43:57.595,563.406
6,8 Dec 2013 23:37:40.451,8 Dec 2013 23:48:58.343,677.892

"Access","Start Time (UTCG)","Stop Time (UTCG)","Duration (sec)"
1,3 Dec 2013 22:27:48.311,3 Dec 2013 22:36:49.380,541.069
2,4 Dec 2013 22:30:58.458,4 Dec 2013 22:42:08.335,669.876
3,5 Dec 2013 22:28:00.700,5 Dec 2013 22:39:10.691,669.991
4,6 Dec 2013 22:16:27.734,6 Dec 2013 22:26:23.071,595.337
5,7 Dec 2013 22:07:49.461,7 Dec 2013 22:15:59.779,490.318
6,8 Dec 2013 22:11:13.275,8 Dec 2013 22:21:47.910,634.635

"Access","Start Time (UTCG)","Stop Time (UTCG)","Duration (sec)"
1,3 Dec 2013 20:14:07.470,3 Dec 2013 20:21:54.356,466.886
2,4 Dec 2013 20:16:57.816,4 Dec 2013 20:27:20.718,622.902
3,5 Dec 2013 20:18:52.413,5 Dec 2013 20:31:04.876,732.464
4,6 Dec 2013 20:09:53.133,6 Dec 2013 20:19:51.909,598.776
5,7 Dec 2013 19:57:51.710,7 Dec 2013 20:05:38.657,466.947
6,8 Dec 2013 19:56:28.477,8 Dec 2013 20:06:56.173,627.696

"Access","Start Time (UTCG)","Stop Time (UTCG)","Duration (sec)"
1,3 Dec 2013 18:48:55.977,3 Dec 2013 18:56:49.277,473.300
2,4 Dec 2013 18:46:39.178,4 Dec 2013 18:56:58.638,619.460
3,5 Dec 2013 18:49:35.130,5 Dec 2013 19:01:14.935,699.805
4,6 Dec 2013 18:44:19.990,6 Dec 2013 18:55:01.654,641.664
5,7 Dec 2013 18:32:34.355,7 Dec 2013 18:41:35.121,540.766
6,8 Dec 2013 18:26:44.654,8 Dec 2013 18:35:27.904,523.250

"Access","Start Time (UTCG)","Stop Time (UTCG)","Duration (sec)"
1,3 Dec 2013 16:11:16.782,3 Dec 2013 16:21:05.298,588.516
2,4 Dec 2013 16:00:21.115,4 Dec 2013 16:08:29.986,488.871
3,5 Dec 2013 16:03:44.526,5 Dec 2013 16:14:08.511,623.985
4,6 Dec 2013 16:05:23.216,6 Dec 2013 16:17:20.332,717.116
5,7 Dec 2013 15:55:18.772,7 Dec 2013 16:05:09.205,590.433
6,8 Dec 2013 15:43:16.336,8 Dec 2013 15:50:58.901,462.565

"Access","Start Time (UTCG)","Stop Time (UTCG)","Duration (sec)"
1,3 Dec 2013 13:41:56.644,3 Dec 2013 13:52:23.014,626.370
2,4 Dec 2013 13:30:05.327,4 Dec 2013 13:38:27.827,502.501
3,5 Dec 2013 13:25:39.899,5 Dec 2013 13:34:58.260,558.361
4,6 Dec 2013 13:28:46.663,6 Dec 2013 13:40:03.121,676.458
5,7 Dec 2013 13:25:16.856,7 Dec 2013 13:36:20.027,663.172
6,8 Dec 2013 13:13:41.097,8 Dec 2013 13:23:30.071,588.974

"Access","Start Time (UTCG)","Stop Time (UTCG)","Duration (sec)"
1,3 Dec 2013 12:04:07.353,3 Dec 2013 12:15:24.991,677.638
2,4 Dec 2013 11:52:44.601,4 Dec 2013 12:02:40.530,595.929
3,5 Dec 2013 11:43:08.408,5 Dec 2013 11:51:13.991,485.583
4,6 Dec 2013 11:46:32.403,6 Dec 2013 11:57:00.132,627.729
5,7 Dec 2013 11:47:24.621,7 Dec 2013 11:59:06.082,701.461
6,8 Dec 2013 11:37:00.151,8 Dec 2013 11:46:44.896,584.745

"Access","Start Time (UTCG)","Stop Time (UTCG)","Duration (sec)"
1,3 Dec 2013 10:41:21.715,3 Dec 2013 10:53:03.455,701.740
2,4 Dec 2013 10:31:01.627,4 Dec 2013 10:40:49.224,587.597
3,5 Dec 2013 10:18:59.637,5 Dec 2013 10:26:39.191,459.553
4,6 Dec 2013 10:19:07.880,6 Dec 2013 10:29:44.212,636.332
5,7 Dec 2013 10:21:47.588,7 Dec 2013 10:33:48.033,720.444
6,8 Dec 2013 10:14:35.886,8 Dec 2013 10:24:52.253,616.367

"Access","Start Time (UTCG)","Stop Time (UTCG)","Duration (sec)"
1,3 Dec 2013 08:28:05.029,3 Dec 2013 08:39:36.739,691.710
2,4 Dec 2013 08:23:25.214,4 Dec 2013 08:34:13.543,648.330
3,5 Dec 2013 08:11:43.706,5 Dec 2013 08:21:04.814,561.107
4,6 Dec 2013 08:05:11.186,6 Dec 2013 08:13:37.317,506.131
5,7 Dec 2013 08:08:27.602,7 Dec 2013 08:19:20.496,652.893
6,8 Dec 2013 08:06:43.146,8 Dec 2013 08:18:05.751,682.606

"Access","Start Time (UTCG)","Stop Time (UTCG)","Duration (sec)"
1,3 Dec 2013 06:58:40.159,3 Dec 2013 07:09:23.857,643.697
2,4 Dec 2013 06:57:41.373,4 Dec 2013 07:09:10.957,689.584
3,5 Dec 2013 06:46:50.720,5 Dec 2013 06:56:33.875,583.156
4,6 Dec 2013 06:35:18.026,6 Dec 2013 06:43:25.336,487.310
5,7 Dec 2013 06:38:40.474,7 Dec 2013 06:49:00.857,620.384
6,8 Dec 2013 06:40:23.275,8 Dec 2013 06:52:37.720,734.445

"Access","Start Time (UTCG)","Stop Time (UTCG)","Duration (sec)"
1,3 Dec 2013 04:11:44.472,3 Dec 2013 04:22:06.176,621.704
2,4 Dec 2013 04:14:37.381,4 Dec 2013 04:26:21.436,704.055
3,5 Dec 2013 04:08:58.739,5 Dec 2013 04:19:34.320,635.581
4,6 Dec 2013 03:57:11.470,6 Dec 2013 04:05:55.323,523.853
5,7 Dec 2013 03:51:51.041,7 Dec 2013 04:00:42.246,531.205
6,8 Dec 2013 03:55:02.354,8 Dec 2013 04:06:08.292,665.938

"Access","Start Time (UTCG)","Stop Time (UTCG)","Duration (sec)"
1,3 Dec 2013 01:34:15.302,3 Dec 2013 01:42:22.750,487.448
2,4 Dec 2013 01:37:40.723,4 Dec 2013 01:48:07.596,626.874
3,5 Dec 2013 01:38:37.792,5 Dec 2013 01:50:19.769,701.977
4,6 Dec 2013 01:28:14.245,6 Dec 2013 01:37:59.013,584.768
5,7 Dec 2013 01:16:11.672,7 Dec 2013 01:23:53.667,461.995
6,8 Dec 2013 01:17:14.646,8 Dec 2013 01:27:43.374,628.729
7,9 Dec 2013 01:19:36.990,9 Dec 2013 01:31:42.114,725.123

