Raw and processed data/Altitude Variations/us_greatcircle_12sat_800km/Aircraft-B747LAX_Heathrow-Transmitter-adsb_out6-To-Satellite-800km_p1_1-Receiver-adsb_satrcvr2 Access.csv

"Access","Start Time (UTCG)","Stop Time (UTCG)","Duration (sec)"
1,3 Dec 2013 01:16:40.043,3 Dec 2013 01:33:42.097,1022.054
2,3 Dec 2013 02:57:56.872,3 Dec 2013 03:15:05.816,1028.944
3,3 Dec 2013 04:38:27.550,3 Dec 2013 04:55:30.411,1022.860
4,3 Dec 2013 06:19:04.404,3 Dec 2013 06:36:16.809,1032.405
5,3 Dec 2013 08:01:18.355,3 Dec 2013 08:18:00.019,1001.664
6,3 Dec 2013 09:46:24.824,3 Dec 2013 10:00:58.484,873.660
7,3 Dec 2013 11:31:26.310,3 Dec 2013 11:48:40.573,1034.263
8,3 Dec 2013 13:16:05.932,3 Dec 2013 13:29:25.561,799.629
9,3 Dec 2013 19:38:37.787,3 Dec 2013 19:50:48.859,731.072
10,3 Dec 2013 21:19:01.736,3 Dec 2013 21:35:28.038,986.303
11,3 Dec 2013 23:01:43.830,3 Dec 2013 23:17:10.382,926.552
12,4 Dec 2013 00:42:36.847,4 Dec 2013 00:57:28.708,891.862
13,4 Dec 2013 02:21:54.282,4 Dec 2013 02:37:40.136,945.854
14,4 Dec 2013 04:01:12.766,4 Dec 2013 04:18:14.096,1021.329
15,4 Dec 2013 05:42:48.535,4 Dec 2013 05:58:34.368,945.832
16,4 Dec 2013 07:31:31.228,4 Dec 2013 07:47:28.398,957.170
17,4 Dec 2013 09:18:28.668,4 Dec 2013 09:36:29.678,1081.010
18,4 Dec 2013 11:05:25.273,4 Dec 2013 11:16:58.144,692.871
19,5 Dec 2013 01:47:35.019,5 Dec 2013 01:59:52.276,737.258
20,5 Dec 2013 03:32:08.915,5 Dec 2013 03:50:27.888,1098.973
21,5 Dec 2013 05:20:57.046,5 Dec 2013 05:39:24.500,1107.454
22,5 Dec 2013 07:09:12.687,5 Dec 2013 07:26:51.663,1058.976
23,5 Dec 2013 08:59:51.630,5 Dec 2013 09:05:28.394,336.764
24,6 Dec 2013 01:26:45.464,6 Dec 2013 01:43:35.815,1010.350
25,6 Dec 2013 03:13:49.143,6 Dec 2013 03:32:14.302,1105.159
26,6 Dec 2013 05:02:23.750,6 Dec 2013 05:19:52.953,1049.203
27,6 Dec 2013 06:54:39.890,6 Dec 2013 06:59:59.408,319.518
28,6 Dec 2013 23:19:52.330,6 Dec 2013 23:36:55.735,1023.405
29,7 Dec 2013 01:06:33.751,7 Dec 2013 01:25:00.335,1106.584
30,7 Dec 2013 02:53:27.237,7 Dec 2013 03:10:32.270,1025.032
31,7 Dec 2013 04:33:52.792,7 Dec 2013 04:50:28.312,995.520
32,7 Dec 2013 06:14:09.172,7 Dec 2013 06:30:49.485,1000.313
33,7 Dec 2013 07:55:18.679,7 Dec 2013 08:12:36.485,1037.806
34,7 Dec 2013 09:38:21.280,7 Dec 2013 09:56:03.189,1061.909
35,7 Dec 2013 11:23:13.754,7 Dec 2013 11:41:06.657,1072.904
36,7 Dec 2013 13:08:22.215,7 Dec 2013 13:22:32.038,849.823
37,7 Dec 2013 19:32:10.825,7 Dec 2013 19:39:53.444,462.619
38,7 Dec 2013 21:10:03.787,7 Dec 2013 21:27:53.800,1070.012

"Access","Start Time (UTCG)","Stop Time (UTCG)","Duration (sec)"
1,3 Dec 2013 01:00:00.000,3 Dec 2013 01:08:00.558,480.558
2,3 Dec 2013 02:32:42.939,3 Dec 2013 02:49:54.300,1031.361
3,3 Dec 2013 04:13:22.259,3 Dec 2013 04:30:24.639,1022.380
4,3 Dec 2013 05:53:49.876,3 Dec 2013 06:11:00.556,1030.680
5,3 Dec 2013 07:35:30.761,3 Dec 2013 07:52:28.116,1017.355
6,3 Dec 2013 09:19:50.526,3 Dec 2013 09:35:04.836,914.309
7,3 Dec 2013 11:05:45.593,3 Dec 2013 11:21:43.813,958.219
8,3 Dec 2013 12:49:31.208,3 Dec 2013 13:05:22.558,951.350
9,3 Dec 2013 19:16:37.309,3 Dec 2013 19:22:43.112,365.803
10,3 Dec 2013 20:53:06.708,3 Dec 2013 21:09:43.562,996.854
11,3 Dec 2013 22:36:12.828,3 Dec 2013 22:51:55.288,942.460
12,4 Dec 2013 00:17:34.342,4 Dec 2013 00:32:27.659,893.317
13,4 Dec 2013 01:57:09.902,4 Dec 2013 02:12:34.933,925.031
14,4 Dec 2013 03:36:15.693,4 Dec 2013 03:53:04.628,1008.935
15,4 Dec 2013 05:17:03.496,4 Dec 2013 05:33:34.774,991.278
16,4 Dec 2013 07:04:09.950,4 Dec 2013 07:19:37.787,927.837
17,4 Dec 2013 08:51:57.385,4 Dec 2013 09:09:50.507,1073.122
18,4 Dec 2013 10:38:15.653,4 Dec 2013 10:53:03.763,888.111
19,5 Dec 2013 01:24:29.428,5 Dec 2013 01:31:46.420,436.993
20,5 Dec 2013 03:05:20.414,5 Dec 2013 03:23:12.228,1071.814
21,5 Dec 2013 04:53:41.278,5 Dec 2013 05:12:09.706,1108.428
22,5 Dec 2013 06:42:14.822,5 Dec 2013 07:00:24.754,1089.932
23,5 Dec 2013 08:30:52.532,5 Dec 2013 08:42:50.959,718.428
24,6 Dec 2013 01:00:50.256,6 Dec 2013 01:16:13.737,923.481
25,6 Dec 2013 02:46:45.511,6 Dec 2013 03:05:05.874,1100.363
26,6 Dec 2013 04:35:13.887,6 Dec 2013 04:53:15.463,1081.576
27,6 Dec 2013 06:25:01.689,6 Dec 2013 06:36:53.334,711.645
28,6 Dec 2013 22:54:15.184,6 Dec 2013 23:09:52.138,936.954
29,7 Dec 2013 00:39:28.062,7 Dec 2013 00:57:52.933,1104.871
30,7 Dec 2013 02:28:17.322,7 Dec 2013 02:45:24.332,1027.010
31,7 Dec 2013 04:08:48.591,7 Dec 2013 04:25:30.793,1002.203
32,7 Dec 2013 05:49:03.171,7 Dec 2013 06:05:37.378,994.207
33,7 Dec 2013 07:29:52.197,7 Dec 2013 07:47:00.567,1028.370
34,7 Dec 2013 09:12:23.992,7 Dec 2013 09:30:01.996,1058.004
35,7 Dec 2013 10:56:52.793,7 Dec 2013 11:14:42.943,1070.149
36,7 Dec 2013 12:42:00.386,7 Dec 2013 12:58:21.133,980.748
37,7 Dec 2013 20:44:18.795,7 Dec 2013 21:01:23.121,1024.327

"Access","Start Time (UTCG)","Stop Time (UTCG)","Duration (sec)"
1,3 Dec 2013 02:07:25.619,3 Dec 2013 02:24:37.543,1031.924
2,3 Dec 2013 03:48:15.952,3 Dec 2013 04:05:19.490,1023.538
3,3 Dec 2013 05:28:39.930,3 Dec 2013 05:45:47.688,1027.758
4,3 Dec 2013 07:09:53.405,3 Dec 2013 07:27:00.411,1027.007
5,3 Dec 2013 08:53:27.818,3 Dec 2013 09:09:17.810,949.992
6,3 Dec 2013 10:40:01.740,3 Dec 2013 10:53:55.131,833.391
7,3 Dec 2013 12:23:17.721,3 Dec 2013 12:40:29.275,1031.554
8,3 Dec 2013 20:27:12.005,3 Dec 2013 20:43:51.363,999.358
9,3 Dec 2013 22:10:35.219,3 Dec 2013 22:26:33.633,958.414
10,3 Dec 2013 23:52:24.749,4 Dec 2013 00:07:25.210,900.460
11,4 Dec 2013 01:32:23.375,4 Dec 2013 01:47:31.528,908.154
12,4 Dec 2013 03:11:25.000,4 Dec 2013 03:27:55.400,990.400
13,4 Dec 2013 04:51:34.420,4 Dec 2013 05:08:30.333,1015.914
14,4 Dec 2013 06:36:28.784,4 Dec 2013 06:51:53.084,924.299
15,4 Dec 2013 08:25:20.462,4 Dec 2013 08:42:43.720,1043.258
16,4 Dec 2013 10:11:31.877,4 Dec 2013 10:28:11.611,999.734
17,5 Dec 2013 02:38:52.157,5 Dec 2013 02:55:48.728,1016.570
18,5 Dec 2013 04:26:24.674,5 Dec 2013 04:44:54.721,1110.047
19,5 Dec 2013 06:15:14.238,5 Dec 2013 06:33:37.435,1103.197
20,5 Dec 2013 08:03:20.317,5 Dec 2013 08:18:17.198,896.880
21,6 Dec 2013 00:35:36.191,6 Dec 2013 00:48:29.203,773.012
22,6 Dec 2013 02:19:50.063,6 Dec 2013 02:37:57.400,1087.337
23,6 Dec 2013 04:08:05.253,6 Dec 2013 04:26:23.050,1097.796
24,6 Dec 2013 05:57:05.538,6 Dec 2013 06:11:55.059,889.521
25,6 Dec 2013 22:29:22.641,6 Dec 2013 22:42:31.179,788.538
26,7 Dec 2013 00:12:35.392,7 Dec 2013 00:30:51.284,1095.892
27,7 Dec 2013 02:01:02.404,7 Dec 2013 02:19:30.535,1108.131
28,7 Dec 2013 03:43:43.016,7 Dec 2013 04:00:33.518,1010.501
29,7 Dec 2013 05:23:59.205,7 Dec 2013 05:40:30.379,991.174
30,7 Dec 2013 07:04:32.459,7 Dec 2013 07:21:30.842,1018.384
31,7 Dec 2013 08:46:34.346,7 Dec 2013 09:04:07.156,1052.810
32,7 Dec 2013 10:30:36.480,7 Dec 2013 10:48:24.023,1067.543
33,7 Dec 2013 12:16:02.138,7 Dec 2013 12:33:21.930,1039.792
34,7 Dec 2013 20:19:12.607,7 Dec 2013 20:34:44.652,932.045

"Access","Start Time (UTCG)","Stop Time (UTCG)","Duration (sec)"
1,3 Dec 2013 01:42:04.701,3 Dec 2013 01:59:13.977,1029.275
2,3 Dec 2013 03:23:07.723,3 Dec 2013 03:40:13.690,1025.967
3,3 Dec 2013 05:03:32.984,3 Dec 2013 05:20:37.832,1024.848
4,3 Dec 2013 06:44:25.083,3 Dec 2013 07:01:36.698,1031.615
5,3 Dec 2013 08:27:17.162,3 Dec 2013 08:43:36.430,979.268
6,3 Dec 2013 10:13:09.376,3 Dec 2013 10:27:00.077,830.701
7,3 Dec 2013 11:57:17.066,3 Dec 2013 12:14:54.679,1057.613
8,3 Dec 2013 13:43:31.314,3 Dec 2013 13:52:06.694,515.380
9,3 Dec 2013 20:02:27.319,3 Dec 2013 20:17:38.796,911.477
10,3 Dec 2013 21:44:51.385,3 Dec 2013 22:01:04.682,973.297
11,3 Dec 2013 23:27:07.888,3 Dec 2013 23:42:19.930,912.042
12,4 Dec 2013 01:07:32.848,4 Dec 2013 01:22:29.668,896.820
13,4 Dec 2013 02:46:38.588,4 Dec 2013 03:02:47.064,968.477
14,4 Dec 2013 04:26:18.299,4 Dec 2013 04:43:22.996,1024.697
15,4 Dec 2013 06:08:53.853,4 Dec 2013 06:24:21.387,927.534
16,4 Dec 2013 07:58:33.360,4 Dec 2013 08:15:13.871,1000.511
17,4 Dec 2013 09:44:58.573,4 Dec 2013 10:02:37.972,1059.400
18,4 Dec 2013 11:34:18.941,4 Dec 2013 11:38:34.220,255.279
19,5 Dec 2013 02:12:51.731,5 Dec 2013 02:28:08.303,916.572
20,5 Dec 2013 03:59:12.101,5 Dec 2013 04:17:41.054,1108.953
21,5 Dec 2013 05:48:08.518,5 Dec 2013 06:06:35.453,1106.936
22,5 Dec 2013 07:36:12.114,5 Dec 2013 07:52:51.952,999.838
23,6 Dec 2013 00:11:44.873,6 Dec 2013 00:19:41.161,476.288
24,6 Dec 2013 01:53:08.028,6 Dec 2013 02:10:48.338,1060.310
25,6 Dec 2013 03:40:56.683,6 Dec 2013 03:59:21.128,1104.444
26,6 Dec 2013 05:29:38.484,6 Dec 2013 05:46:09.114,990.630
27,6 Dec 2013 22:05:50.328,6 Dec 2013 22:14:18.897,508.569
28,6 Dec 2013 23:46:01.512,7 Dec 2013 00:03:53.441,1071.929
29,7 Dec 2013 01:33:46.818,7 Dec 2013 01:52:13.553,1106.735
30,7 Dec 2013 03:18:35.884,7 Dec 2013 03:35:34.661,1018.777
31,7 Dec 2013 04:58:56.082,7 Dec 2013 05:15:27.710,991.629
32,7 Dec 2013 06:39:18.508,7 Dec 2013 06:56:07.204,1008.697
33,7 Dec 2013 08:20:52.599,7 Dec 2013 08:38:18.664,1046.065
34,7 Dec 2013 10:04:25.688,7 Dec 2013 10:22:10.616,1064.928
35,7 Dec 2013 11:49:38.621,7 Dec 2013 12:07:34.202,1075.581
36,7 Dec 2013 13:35:29.717,7 Dec 2013 13:45:30.035,600.318
37,7 Dec 2013 19:54:56.947,7 Dec 2013 20:07:47.140,770.193
38,7 Dec 2013 21:36:22.223,7 Dec 2013 21:54:22.637,1080.414

"Access","Start Time (UTCG)","Stop Time (UTCG)","Duration (sec)"
1,3 Dec 2013 09:31:50.725,3 Dec 2013 09:36:29.631,278.906
2,3 Dec 2013 11:07:10.414,3 Dec 2013 11:23:58.214,1007.800
3,3 Dec 2013 12:54:40.432,3 Dec 2013 13:13:08.799,1108.367
4,3 Dec 2013 14:43:42.635,3 Dec 2013 15:02:06.760,1104.125
5,3 Dec 2013 16:31:35.016,3 Dec 2013 16:47:43.164,968.148
6,4 Dec 2013 09:04:45.230,4 Dec 2013 09:16:07.414,682.184
7,4 Dec 2013 10:48:10.985,4 Dec 2013 11:06:10.369,1079.383
8,4 Dec 2013 12:36:19.076,4 Dec 2013 12:54:40.611,1101.535
9,4 Dec 2013 14:25:04.944,4 Dec 2013 14:40:43.556,938.612
10,5 Dec 2013 06:59:27.376,5 Dec 2013 07:10:12.670,645.293
11,5 Dec 2013 08:41:15.340,5 Dec 2013 08:59:17.764,1082.424
12,5 Dec 2013 10:29:17.876,5 Dec 2013 10:47:48.115,1110.238
13,5 Dec 2013 12:14:25.342,5 Dec 2013 12:31:11.243,1005.901
14,5 Dec 2013 13:54:42.404,5 Dec 2013 14:10:50.681,968.277
15,5 Dec 2013 15:35:02.414,5 Dec 2013 15:51:30.688,988.274
16,5 Dec 2013 17:16:35.453,5 Dec 2013 17:33:50.207,1034.755
17,5 Dec 2013 19:00:05.599,5 Dec 2013 19:17:48.230,1062.631
18,5 Dec 2013 20:45:16.032,5 Dec 2013 21:03:02.994,1066.962
19,5 Dec 2013 22:33:05.924,5 Dec 2013 22:38:11.559,305.635
20,6 Dec 2013 04:49:24.634,6 Dec 2013 05:03:25.228,840.594
21,6 Dec 2013 06:32:00.781,6 Dec 2013 06:50:03.031,1082.249
22,6 Dec 2013 08:15:38.046,6 Dec 2013 08:32:55.627,1037.581
23,6 Dec 2013 09:56:44.602,6 Dec 2013 10:13:46.485,1021.884
24,6 Dec 2013 11:37:05.219,6 Dec 2013 11:54:09.544,1024.324
25,6 Dec 2013 13:17:57.796,6 Dec 2013 13:35:00.686,1022.890
26,6 Dec 2013 15:01:12.603,6 Dec 2013 15:16:29.075,916.472
27,6 Dec 2013 16:48:24.562,6 Dec 2013 17:00:32.252,727.691
28,6 Dec 2013 18:31:56.338,6 Dec 2013 18:49:38.205,1061.867
29,6 Dec 2013 20:18:38.503,6 Dec 2013 20:26:48.252,489.748
30,7 Dec 2013 02:37:52.972,7 Dec 2013 02:52:04.165,851.193
31,7 Dec 2013 04:21:17.544,7 Dec 2013 04:34:49.172,811.628
32,7 Dec 2013 06:03:17.366,7 Dec 2013 06:15:29.175,731.809
33,7 Dec 2013 07:43:02.129,7 Dec 2013 07:55:27.534,745.405
34,7 Dec 2013 09:21:05.816,7 Dec 2013 09:36:01.313,895.497
35,7 Dec 2013 10:59:51.779,7 Dec 2013 11:16:50.371,1018.592
36,7 Dec 2013 12:43:40.949,7 Dec 2013 13:00:58.245,1037.296
37,7 Dec 2013 14:33:30.902,7 Dec 2013 14:51:02.329,1051.427
38,7 Dec 2013 16:20:29.860,7 Dec 2013 16:37:57.272,1047.413

"Access","Start Time (UTCG)","Stop Time (UTCG)","Duration (sec)"
1,3 Dec 2013 10:41:27.901,3 Dec 2013 10:56:11.736,883.835
2,3 Dec 2013 12:27:26.490,3 Dec 2013 12:45:55.084,1108.594
3,3 Dec 2013 14:16:34.164,3 Dec 2013 14:34:57.480,1103.316
4,3 Dec 2013 16:04:36.215,3 Dec 2013 16:21:58.190,1041.976
5,4 Dec 2013 08:42:32.889,4 Dec 2013 08:45:41.316,188.426
6,4 Dec 2013 10:21:34.718,4 Dec 2013 10:38:59.386,1044.668
7,4 Dec 2013 12:09:10.784,4 Dec 2013 12:27:36.362,1105.578
8,4 Dec 2013 13:57:46.171,4 Dec 2013 14:14:45.255,1019.085
9,5 Dec 2013 08:14:53.656,5 Dec 2013 08:32:18.103,1044.447
10,5 Dec 2013 10:02:04.921,5 Dec 2013 10:20:34.212,1109.291
11,5 Dec 2013 11:49:17.585,5 Dec 2013 12:06:14.575,1016.989
12,5 Dec 2013 13:29:39.881,5 Dec 2013 13:45:53.237,973.356
13,5 Dec 2013 15:09:53.521,5 Dec 2013 15:26:11.802,978.281
14,5 Dec 2013 16:51:01.813,5 Dec 2013 17:08:05.784,1023.971
15,5 Dec 2013 18:34:02.224,5 Dec 2013 18:51:40.136,1057.912
16,5 Dec 2013 20:18:51.031,5 Dec 2013 20:36:39.695,1068.664
17,5 Dec 2013 22:04:39.914,5 Dec 2013 22:16:49.311,729.397
18,6 Dec 2013 04:25:52.154,6 Dec 2013 04:35:58.181,606.027
19,6 Dec 2013 06:05:29.580,6 Dec 2013 06:23:28.899,1079.319
20,6 Dec 2013 07:50:09.968,6 Dec 2013 08:07:28.641,1038.672
21,6 Dec 2013 09:31:34.116,6 Dec 2013 09:48:39.601,1025.485
22,6 Dec 2013 11:12:00.987,6 Dec 2013 11:29:02.414,1021.427
23,6 Dec 2013 12:52:35.784,6 Dec 2013 13:09:44.197,1028.413
24,6 Dec 2013 14:35:04.306,6 Dec 2013 14:51:03.989,959.683
25,6 Dec 2013 16:21:22.248,6 Dec 2013 16:32:51.717,689.469
26,6 Dec 2013 18:05:54.927,6 Dec 2013 18:23:25.218,1050.291
27,6 Dec 2013 19:51:05.181,6 Dec 2013 20:04:10.277,785.096
28,7 Dec 2013 02:13:22.603,7 Dec 2013 02:25:55.709,753.106
29,7 Dec 2013 03:55:32.151,7 Dec 2013 04:09:21.198,829.047
30,7 Dec 2013 05:37:58.477,7 Dec 2013 05:50:27.519,749.042
31,7 Dec 2013 07:18:19.432,7 Dec 2013 07:30:25.859,726.428
32,7 Dec 2013 08:56:36.985,7 Dec 2013 09:10:49.554,852.569
33,7 Dec 2013 10:34:58.563,7 Dec 2013 10:51:39.504,1000.941
34,7 Dec 2013 12:15:57.744,7 Dec 2013 12:33:42.200,1064.457
35,7 Dec 2013 14:06:22.752,7 Dec 2013 14:23:31.065,1028.313
36,7 Dec 2013 15:53:51.393,7 Dec 2013 16:11:53.008,1081.615
37,7 Dec 2013 17:41:37.167,7 Dec 2013 17:51:53.555,616.388

"Access","Start Time (UTCG)","Stop Time (UTCG)","Duration (sec)"
1,3 Dec 2013 10:17:39.559,3 Dec 2013 10:29:25.294,705.735
2,3 Dec 2013 12:00:23.382,3 Dec 2013 12:18:41.673,1098.291
3,3 Dec 2013 13:49:19.094,3 Dec 2013 14:07:41.781,1102.686
4,3 Dec 2013 15:37:41.084,3 Dec 2013 15:55:42.889,1081.805
5,3 Dec 2013 17:26:34.137,3 Dec 2013 17:36:47.326,613.189
6,4 Dec 2013 09:55:20.365,4 Dec 2013 10:11:42.546,982.181
7,4 Dec 2013 11:42:04.127,4 Dec 2013 12:00:28.466,1104.339
8,4 Dec 2013 13:30:35.412,4 Dec 2013 13:48:20.588,1065.176
9,4 Dec 2013 15:21:12.852,4 Dec 2013 15:30:10.626,537.774
10,5 Dec 2013 07:48:59.883,5 Dec 2013 08:05:15.067,975.184
11,5 Dec 2013 09:34:56.696,5 Dec 2013 09:53:24.061,1107.365
12,5 Dec 2013 11:23:45.000,5 Dec 2013 11:41:13.221,1048.221
13,5 Dec 2013 13:04:36.458,5 Dec 2013 13:20:58.645,982.186
14,5 Dec 2013 14:44:48.087,5 Dec 2013 15:00:59.135,971.048
15,5 Dec 2013 16:25:35.546,5 Dec 2013 16:42:27.683,1012.137
16,5 Dec 2013 18:08:05.785,5 Dec 2013 18:25:37.567,1051.782
17,5 Dec 2013 19:52:30.636,5 Dec 2013 20:10:18.796,1068.159
18,5 Dec 2013 21:37:57.116,5 Dec 2013 21:53:15.257,918.141
19,6 Dec 2013 05:39:29.329,6 Dec 2013 05:56:55.334,1046.005
20,6 Dec 2013 07:24:36.746,6 Dec 2013 07:41:53.524,1036.778
21,6 Dec 2013 09:06:19.813,6 Dec 2013 09:23:29.779,1029.965
22,6 Dec 2013 10:46:57.026,6 Dec 2013 11:03:56.755,1019.728
23,6 Dec 2013 12:27:20.875,6 Dec 2013 12:44:30.208,1029.334
24,6 Dec 2013 14:09:10.276,6 Dec 2013 14:25:40.751,990.475
25,6 Dec 2013 15:54:19.554,6 Dec 2013 16:07:23.487,783.933
26,6 Dec 2013 17:39:58.924,6 Dec 2013 17:56:33.209,994.285
27,6 Dec 2013 19:24:24.771,6 Dec 2013 19:40:07.119,942.348
28,7 Dec 2013 01:51:10.823,7 Dec 2013 01:58:05.767,414.944
29,7 Dec 2013 03:29:42.322,7 Dec 2013 03:43:44.523,842.201
30,7 Dec 2013 05:12:31.597,7 Dec 2013 05:25:21.305,769.708
31,7 Dec 2013 06:53:28.114,7 Dec 2013 07:05:26.493,718.379
32,7 Dec 2013 08:32:08.516,7 Dec 2013 08:45:39.596,811.080
33,7 Dec 2013 10:10:14.437,7 Dec 2013 10:26:27.108,972.671
34,7 Dec 2013 11:50:12.940,7 Dec 2013 12:07:03.013,1010.072
35,7 Dec 2013 13:39:00.010,7 Dec 2013 13:55:55.315,1015.306
36,7 Dec 2013 15:27:11.580,7 Dec 2013 15:45:19.389,1087.810
37,7 Dec 2013 17:14:07.720,7 Dec 2013 17:28:13.345,845.625

"Access","Start Time (UTCG)","Stop Time (UTCG)","Duration (sec)"
1,3 Dec 2013 09:54:17.848,3 Dec 2013 10:03:20.562,542.714
2,3 Dec 2013 11:33:36.231,3 Dec 2013 11:51:24.761,1068.530
3,3 Dec 2013 13:21:59.750,3 Dec 2013 13:40:24.563,1104.814
4,3 Dec 2013 15:10:44.353,3 Dec 2013 15:29:03.839,1099.486
5,3 Dec 2013 16:58:46.737,3 Dec 2013 17:12:47.606,840.870
6,4 Dec 2013 09:29:37.334,4 Dec 2013 09:44:11.622,874.288
7,4 Dec 2013 11:15:02.626,4 Dec 2013 11:33:19.564,1096.938
8,4 Dec 2013 13:03:27.208,4 Dec 2013 13:21:37.059,1089.851
9,4 Dec 2013 14:52:43.021,4 Dec 2013 15:06:03.085,800.064
10,5 Dec 2013 07:23:43.875,5 Dec 2013 07:38:00.052,856.177
11,5 Dec 2013 09:07:58.299,5 Dec 2013 09:26:18.854,1100.555
12,5 Dec 2013 10:56:31.821,5 Dec 2013 11:15:02.613,1110.792
13,5 Dec 2013 12:39:31.663,5 Dec 2013 12:56:05.267,993.604
14,5 Dec 2013 14:19:44.794,5 Dec 2013 14:35:52.315,967.522
15,5 Dec 2013 16:00:16.045,5 Dec 2013 16:16:55.971,999.926
16,5 Dec 2013 17:42:16.777,5 Dec 2013 17:59:40.853,1044.076
17,5 Dec 2013 19:26:15.289,5 Dec 2013 19:44:01.341,1066.052
18,5 Dec 2013 21:11:45.453,5 Dec 2013 21:28:42.500,1017.047
19,6 Dec 2013 05:14:04.741,6 Dec 2013 05:30:17.004,972.263
20,6 Dec 2013 06:58:58.064,6 Dec 2013 07:16:09.450,1031.385
21,6 Dec 2013 08:41:01.237,6 Dec 2013 08:58:15.582,1034.344
22,6 Dec 2013 10:21:51.941,6 Dec 2013 10:38:51.792,1019.851
23,6 Dec 2013 12:02:11.276,6 Dec 2013 12:19:18.701,1027.425
24,6 Dec 2013 13:43:28.701,6 Dec 2013 14:00:19.588,1010.887
25,6 Dec 2013 15:27:37.035,6 Dec 2013 15:41:55.709,858.674
26,6 Dec 2013 17:14:08.102,6 Dec 2013 17:28:58.083,889.982
27,6 Dec 2013 18:58:04.950,6 Dec 2013 19:15:13.140,1028.191
28,7 Dec 2013 03:03:48.943,7 Dec 2013 03:17:58.881,849.937
29,7 Dec 2013 04:46:57.651,7 Dec 2013 05:00:08.926,791.275
30,7 Dec 2013 06:28:27.424,7 Dec 2013 06:40:28.180,720.756
31,7 Dec 2013 08:07:37.756,7 Dec 2013 08:20:32.108,774.352
32,7 Dec 2013 09:45:37.535,7 Dec 2013 10:01:14.099,936.564
33,7 Dec 2013 11:24:55.907,7 Dec 2013 11:41:58.665,1022.759
34,7 Dec 2013 13:11:24.275,7 Dec 2013 13:28:22.818,1018.543
35,7 Dec 2013 15:00:26.070,7 Dec 2013 15:18:20.758,1074.687
36,7 Dec 2013 16:47:12.390,7 Dec 2013 17:03:27.041,974.651

"Access","Start Time (UTCG)","Stop Time (UTCG)","Duration (sec)"
1,3 Dec 2013 16:18:13.792,3 Dec 2013 16:33:25.579,911.787
2,3 Dec 2013 18:03:22.013,3 Dec 2013 18:21:45.994,1103.981
3,3 Dec 2013 19:51:59.324,3 Dec 2013 20:10:27.390,1108.066
4,3 Dec 2013 21:35:21.401,3 Dec 2013 21:51:27.603,966.202
5,3 Dec 2013 23:15:31.941,3 Dec 2013 23:31:03.677,931.736
6,4 Dec 2013 00:56:00.239,4 Dec 2013 01:12:10.010,969.770
7,4 Dec 2013 02:37:59.416,4 Dec 2013 02:55:01.383,1021.966
8,4 Dec 2013 04:21:56.844,4 Dec 2013 04:39:20.686,1043.842
9,4 Dec 2013 06:07:34.297,4 Dec 2013 06:23:49.092,974.795
10,4 Dec 2013 14:09:03.193,4 Dec 2013 14:25:47.304,1004.111
11,4 Dec 2013 15:54:46.897,4 Dec 2013 16:12:02.867,1035.969
12,4 Dec 2013 17:36:51.233,4 Dec 2013 17:54:04.283,1033.050
13,4 Dec 2013 19:17:36.260,4 Dec 2013 19:34:38.190,1021.930
14,4 Dec 2013 20:58:00.303,4 Dec 2013 21:15:09.514,1029.211
15,4 Dec 2013 22:39:31.054,4 Dec 2013 22:56:23.051,1011.997
16,5 Dec 2013 00:23:48.573,5 Dec 2013 00:38:28.922,880.349
17,5 Dec 2013 02:09:59.851,5 Dec 2013 02:25:22.692,922.841
18,5 Dec 2013 03:53:46.361,5 Dec 2013 04:10:22.807,996.446
19,5 Dec 2013 11:58:16.419,5 Dec 2013 12:13:55.298,938.878
20,5 Dec 2013 13:41:24.846,5 Dec 2013 13:56:05.914,881.068
21,5 Dec 2013 15:22:49.870,5 Dec 2013 15:36:33.028,823.158
22,5 Dec 2013 17:02:13.951,5 Dec 2013 17:16:38.153,864.202
23,5 Dec 2013 18:40:49.497,5 Dec 2013 18:57:11.554,982.057
24,5 Dec 2013 20:20:53.845,5 Dec 2013 20:37:46.732,1012.888
25,5 Dec 2013 22:07:43.158,5 Dec 2013 22:23:57.543,974.385
26,5 Dec 2013 23:56:12.442,6 Dec 2013 00:14:05.620,1073.179
27,6 Dec 2013 01:42:42.671,6 Dec 2013 01:58:18.907,936.236
28,6 Dec 2013 18:10:33.116,6 Dec 2013 18:27:39.046,1025.930
29,6 Dec 2013 19:58:09.085,6 Dec 2013 20:16:40.026,1110.941
30,6 Dec 2013 21:46:48.741,6 Dec 2013 22:05:04.845,1096.104
31,6 Dec 2013 23:35:19.123,6 Dec 2013 23:48:40.723,801.600
32,7 Dec 2013 16:06:32.845,7 Dec 2013 16:20:41.090,848.244
33,7 Dec 2013 17:51:29.460,7 Dec 2013 18:09:43.783,1094.323
34,7 Dec 2013 19:39:51.723,7 Dec 2013 19:58:05.331,1093.608
35,7 Dec 2013 21:29:11.412,7 Dec 2013 21:43:04.453,833.041

"Access","Start Time (UTCG)","Stop Time (UTCG)","Duration (sec)"
1,3 Dec 2013 15:53:24.499,3 Dec 2013 16:05:52.684,748.185
2,3 Dec 2013 17:36:31.464,3 Dec 2013 17:54:41.953,1090.489
3,3 Dec 2013 19:24:46.780,3 Dec 2013 19:43:17.759,1110.979
4,3 Dec 2013 21:10:15.448,3 Dec 2013 21:26:38.896,983.449
5,3 Dec 2013 22:50:30.366,3 Dec 2013 23:06:03.235,932.868
6,4 Dec 2013 00:30:47.198,4 Dec 2013 00:46:43.269,956.071
7,4 Dec 2013 02:12:18.442,4 Dec 2013 02:29:09.363,1010.921
8,4 Dec 2013 03:55:47.205,4 Dec 2013 04:13:09.277,1042.072
9,4 Dec 2013 05:41:01.264,4 Dec 2013 05:58:09.323,1028.059
10,4 Dec 2013 13:44:01.808,4 Dec 2013 13:58:58.392,896.584
11,4 Dec 2013 15:27:40.772,4 Dec 2013 15:45:44.590,1083.818
12,4 Dec 2013 17:11:31.000,4 Dec 2013 17:28:45.639,1034.639
13,4 Dec 2013 18:52:29.397,4 Dec 2013 19:09:32.877,1023.480
14,4 Dec 2013 20:32:52.086,4 Dec 2013 20:49:58.585,1026.499
15,4 Dec 2013 22:13:56.382,4 Dec 2013 22:30:59.962,1023.580
16,4 Dec 2013 23:57:23.965,5 Dec 2013 00:12:52.053,928.088
17,5 Dec 2013 01:44:27.414,5 Dec 2013 01:57:12.717,765.303
18,5 Dec 2013 03:27:36.505,5 Dec 2013 03:45:07.767,1051.261
19,5 Dec 2013 05:16:14.344,5 Dec 2013 05:19:07.477,173.133
20,5 Dec 2013 11:32:17.809,5 Dec 2013 11:48:02.384,944.575
21,5 Dec 2013 13:15:45.964,5 Dec 2013 13:30:45.044,899.080
22,5 Dec 2013 14:57:40.195,5 Dec 2013 15:11:31.991,831.796
23,5 Dec 2013 16:37:32.295,5 Dec 2013 16:51:34.584,842.290
24,5 Dec 2013 18:16:07.664,5 Dec 2013 18:32:01.165,953.501
25,5 Dec 2013 19:55:37.143,5 Dec 2013 20:12:40.864,1023.722
26,5 Dec 2013 21:39:58.126,5 Dec 2013 21:56:24.251,986.125
27,5 Dec 2013 23:29:26.379,5 Dec 2013 23:46:51.785,1045.406
28,6 Dec 2013 01:16:00.359,6 Dec 2013 01:33:06.966,1026.607
29,6 Dec 2013 17:44:28.185,6 Dec 2013 18:00:04.462,936.277
30,6 Dec 2013 19:30:57.722,6 Dec 2013 19:49:26.807,1109.086
31,6 Dec 2013 21:19:44.721,6 Dec 2013 21:38:10.746,1106.025
32,6 Dec 2013 23:07:56.351,6 Dec 2013 23:23:39.523,943.172
33,7 Dec 2013 15:41:58.308,7 Dec 2013 15:52:33.645,635.337
34,7 Dec 2013 17:24:41.829,7 Dec 2013 17:42:35.926,1074.097
35,7 Dec 2013 19:12:42.648,7 Dec 2013 19:31:05.858,1103.210
36,7 Dec 2013 21:01:33.623,7 Dec 2013 21:17:32.139,958.517

"Access","Start Time (UTCG)","Stop Time (UTCG)","Duration (sec)"
1,3 Dec 2013 15:30:11.775,3 Dec 2013 15:37:10.385,418.610
2,3 Dec 2013 17:09:58.778,3 Dec 2013 17:27:40.128,1061.350
3,3 Dec 2013 18:57:34.416,3 Dec 2013 19:16:05.250,1110.834
4,3 Dec 2013 20:45:08.009,3 Dec 2013 21:01:48.489,1000.480
5,3 Dec 2013 22:25:28.567,3 Dec 2013 22:41:07.998,939.430
6,4 Dec 2013 00:05:39.017,4 Dec 2013 00:21:23.334,944.318
7,4 Dec 2013 01:46:45.145,4 Dec 2013 02:03:23.279,998.134
8,4 Dec 2013 03:29:44.122,4 Dec 2013 03:47:01.817,1037.694
9,4 Dec 2013 05:14:34.089,4 Dec 2013 05:31:51.793,1037.704
10,4 Dec 2013 07:01:29.643,4 Dec 2013 07:10:27.630,537.987
11,4 Dec 2013 13:19:56.004,4 Dec 2013 13:31:45.357,709.353
12,4 Dec 2013 15:00:58.509,4 Dec 2013 15:19:04.373,1085.864
13,4 Dec 2013 16:46:06.510,4 Dec 2013 17:03:20.020,1033.510
14,4 Dec 2013 18:27:20.028,4 Dec 2013 18:44:26.402,1026.374
15,4 Dec 2013 20:07:46.336,4 Dec 2013 20:24:50.137,1023.801
16,4 Dec 2013 21:48:30.783,4 Dec 2013 22:05:40.051,1029.268
17,4 Dec 2013 23:31:13.532,4 Dec 2013 23:47:18.971,965.439
18,5 Dec 2013 01:17:21.767,5 Dec 2013 01:29:56.523,754.756
19,5 Dec 2013 03:01:36.450,5 Dec 2013 03:19:13.407,1056.957
20,5 Dec 2013 04:47:07.053,5 Dec 2013 04:58:22.946,675.893
21,5 Dec 2013 11:07:47.516,5 Dec 2013 11:21:51.629,844.113
22,5 Dec 2013 12:50:01.181,5 Dec 2013 13:05:16.561,915.380
23,5 Dec 2013 14:32:22.523,5 Dec 2013 14:46:28.149,845.626
24,5 Dec 2013 16:12:45.289,5 Dec 2013 16:26:33.045,827.755
25,5 Dec 2013 17:51:29.336,5 Dec 2013 18:06:51.760,922.424
26,5 Dec 2013 19:30:32.224,5 Dec 2013 19:47:32.287,1020.064
27,5 Dec 2013 21:12:13.268,5 Dec 2013 21:29:02.052,1008.784
28,5 Dec 2013 23:02:28.156,5 Dec 2013 23:19:20.009,1011.853
29,6 Dec 2013 00:49:25.009,6 Dec 2013 01:07:17.272,1072.263
30,6 Dec 2013 02:37:36.883,6 Dec 2013 02:45:37.617,480.734
31,6 Dec 2013 17:19:03.066,6 Dec 2013 17:32:00.310,777.244
32,6 Dec 2013 19:03:54.326,6 Dec 2013 19:22:14.054,1099.728
33,6 Dec 2013 20:52:36.026,6 Dec 2013 21:11:05.243,1109.217
34,6 Dec 2013 22:40:50.087,6 Dec 2013 22:57:55.878,1025.791
35,7 Dec 2013 16:58:11.355,7 Dec 2013 17:15:26.576,1035.222
36,7 Dec 2013 18:45:34.208,7 Dec 2013 19:04:00.101,1105.893
37,7 Dec 2013 20:34:13.639,7 Dec 2013 20:51:24.843,1031.205

"Access","Start Time (UTCG)","Stop Time (UTCG)","Duration (sec)"
1,3 Dec 2013 16:43:50.171,3 Dec 2013 17:00:36.861,1006.690
2,3 Dec 2013 18:30:24.744,3 Dec 2013 18:48:53.879,1109.136
3,3 Dec 2013 20:19:11.691,3 Dec 2013 20:36:54.260,1062.570
4,3 Dec 2013 22:00:25.728,3 Dec 2013 22:16:16.665,950.938
5,3 Dec 2013 23:40:34.393,3 Dec 2013 23:56:10.202,935.809
6,4 Dec 2013 01:21:19.269,4 Dec 2013 01:37:43.414,984.145
7,4 Dec 2013 03:03:48.056,4 Dec 2013 03:20:59.008,1030.952
8,4 Dec 2013 04:48:12.581,4 Dec 2013 05:05:35.199,1042.618
9,4 Dec 2013 06:34:06.113,4 Dec 2013 06:47:50.270,824.157
10,4 Dec 2013 12:57:54.227,4 Dec 2013 13:03:01.990,307.763
11,4 Dec 2013 14:34:44.467,4 Dec 2013 14:52:26.910,1062.443
12,4 Dec 2013 16:20:37.544,4 Dec 2013 16:37:46.120,1028.577
13,4 Dec 2013 18:02:07.462,4 Dec 2013 18:19:17.371,1029.910
14,4 Dec 2013 19:42:41.523,4 Dec 2013 19:59:43.599,1022.076
15,4 Dec 2013 21:23:12.641,4 Dec 2013 21:40:23.270,1030.628
16,4 Dec 2013 23:05:16.301,4 Dec 2013 23:21:49.360,993.060
17,5 Dec 2013 00:50:27.905,5 Dec 2013 01:04:10.110,822.204
18,5 Dec 2013 02:35:44.142,5 Dec 2013 02:52:39.754,1015.612
19,5 Dec 2013 04:20:11.494,5 Dec 2013 04:34:53.348,881.854
20,5 Dec 2013 10:44:35.687,5 Dec 2013 10:54:42.709,607.022
21,5 Dec 2013 12:24:11.121,5 Dec 2013 12:39:40.032,928.911
22,5 Dec 2013 14:06:57.229,5 Dec 2013 14:21:19.921,862.692
23,5 Dec 2013 15:47:51.451,5 Dec 2013 16:01:32.895,821.444
24,5 Dec 2013 17:26:52.218,5 Dec 2013 17:41:43.942,891.724
25,5 Dec 2013 19:05:37.001,5 Dec 2013 19:22:22.199,1005.197
26,5 Dec 2013 20:46:24.775,5 Dec 2013 21:02:48.256,983.482
27,5 Dec 2013 22:35:14.166,5 Dec 2013 22:51:38.718,984.551
28,6 Dec 2013 00:22:50.562,6 Dec 2013 00:40:55.522,1084.960
29,6 Dec 2013 02:09:43.114,6 Dec 2013 02:22:41.456,778.341
30,6 Dec 2013 16:55:05.011,6 Dec 2013 17:02:36.344,451.333
31,6 Dec 2013 18:37:04.244,6 Dec 2013 18:54:59.630,1075.386
32,6 Dec 2013 20:25:23.270,6 Dec 2013 20:43:53.613,1110.343
33,6 Dec 2013 22:13:49.443,6 Dec 2013 22:31:41.886,1072.443
34,7 Dec 2013 00:03:29.114,7 Dec 2013 00:12:27.211,538.097
35,7 Dec 2013 16:32:04.914,7 Dec 2013 16:48:11.296,966.382
36,7 Dec 2013 18:18:28.553,7 Dec 2013 18:36:51.967,1103.414
37,7 Dec 2013 20:07:01.340,7 Dec 2013 20:24:53.564,1072.225
38,7 Dec 2013 21:57:33.360,7 Dec 2013 21:57:56.203,22.843

