Raw and processed data/Altitude Variations/us_greatcircle_12sat_800km/Aircraft-B747LAX_Sydney-Transmitter-adsb_out6212-To-Satellite-800km_p1_1-Receiver-adsb_satrcvr2 Access.csv

"Access","Start Time (UTCG)","Stop Time (UTCG)","Duration (sec)"
1,3 Dec 2013 04:04:50.548,3 Dec 2013 04:12:58.448,487.900
2,3 Dec 2013 05:49:49.417,3 Dec 2013 06:07:57.740,1088.323
3,3 Dec 2013 07:41:02.520,3 Dec 2013 07:53:28.476,745.956
4,3 Dec 2013 13:16:28.264,3 Dec 2013 13:33:51.332,1043.067
5,3 Dec 2013 15:01:15.177,3 Dec 2013 15:17:36.512,981.335
6,3 Dec 2013 16:46:57.056,3 Dec 2013 17:00:59.873,842.817
7,3 Dec 2013 18:35:42.557,3 Dec 2013 18:42:47.224,424.667
8,4 Dec 2013 03:26:55.364,4 Dec 2013 03:36:56.801,601.438
9,4 Dec 2013 05:14:55.455,4 Dec 2013 05:31:33.563,998.108
10,4 Dec 2013 07:03:11.500,4 Dec 2013 07:20:19.338,1027.838
11,4 Dec 2013 14:32:49.541,4 Dec 2013 14:50:23.723,1054.181
12,5 Dec 2013 04:46:28.360,5 Dec 2013 05:01:05.418,877.058
13,5 Dec 2013 06:27:39.100,5 Dec 2013 06:45:59.560,1100.460
14,5 Dec 2013 08:18:52.528,5 Dec 2013 08:29:24.912,632.384
15,5 Dec 2013 14:11:12.075,5 Dec 2013 14:18:00.201,408.126
16,5 Dec 2013 15:49:39.405,5 Dec 2013 16:06:39.890,1020.485
17,6 Dec 2013 04:25:00.516,6 Dec 2013 04:40:28.512,927.996
18,6 Dec 2013 06:05:01.601,6 Dec 2013 06:21:57.809,1016.208
19,6 Dec 2013 07:46:42.886,6 Dec 2013 08:00:56.460,853.574
20,6 Dec 2013 15:25:18.216,6 Dec 2013 15:38:57.780,819.565
21,6 Dec 2013 17:07:28.189,6 Dec 2013 17:22:15.102,886.914
22,7 Dec 2013 02:26:26.980,7 Dec 2013 02:35:39.458,552.478
23,7 Dec 2013 04:03:13.025,7 Dec 2013 04:19:38.149,985.123
24,7 Dec 2013 05:43:52.639,7 Dec 2013 06:00:00.200,967.561
25,7 Dec 2013 07:28:24.051,7 Dec 2013 07:36:03.813,459.762
26,7 Dec 2013 16:40:50.487,7 Dec 2013 16:57:25.585,995.099
27,7 Dec 2013 18:27:30.614,7 Dec 2013 18:36:22.787,532.173
28,8 Dec 2013 02:02:18.461,8 Dec 2013 02:16:46.411,867.950
29,8 Dec 2013 03:41:24.056,8 Dec 2013 03:58:23.535,1019.480
30,8 Dec 2013 05:23:11.484,8 Dec 2013 05:38:07.444,895.960
31,8 Dec 2013 17:57:11.103,8 Dec 2013 18:14:38.936,1047.833
32,9 Dec 2013 01:34:10.882,9 Dec 2013 01:48:12.095,841.212
33,9 Dec 2013 03:19:44.177,9 Dec 2013 03:36:45.293,1021.116
34,9 Dec 2013 05:02:41.299,9 Dec 2013 05:16:41.865,840.566
35,9 Dec 2013 17:35:28.789,9 Dec 2013 17:44:30.453,541.664
36,9 Dec 2013 19:14:08.636,9 Dec 2013 19:31:14.188,1025.552
37,10 Dec 2013 02:44:46.398,10 Dec 2013 03:02:41.525,1075.127
38,10 Dec 2013 04:34:51.693,10 Dec 2013 04:50:33.023,941.330

"Access","Start Time (UTCG)","Stop Time (UTCG)","Duration (sec)"
1,3 Dec 2013 01:42:21.875,3 Dec 2013 01:50:18.206,476.330
2,3 Dec 2013 05:23:08.293,3 Dec 2013 05:40:21.497,1033.204
3,3 Dec 2013 07:12:09.563,3 Dec 2013 07:27:54.921,945.358
4,3 Dec 2013 12:50:50.060,3 Dec 2013 13:06:43.883,953.824
5,3 Dec 2013 14:35:04.841,3 Dec 2013 14:51:42.947,998.105
6,3 Dec 2013 16:20:20.706,3 Dec 2013 16:35:12.542,891.836
7,3 Dec 2013 18:07:57.801,3 Dec 2013 18:17:43.720,585.918
8,4 Dec 2013 03:02:10.304,4 Dec 2013 03:09:57.295,466.991
9,4 Dec 2013 04:48:05.307,4 Dec 2013 05:03:07.754,902.448
10,4 Dec 2013 06:35:44.866,4 Dec 2013 06:53:53.136,1088.270
11,4 Dec 2013 14:07:12.391,4 Dec 2013 14:24:03.601,1011.211
12,4 Dec 2013 15:53:11.547,4 Dec 2013 16:03:49.965,638.418
13,5 Dec 2013 04:21:42.852,5 Dec 2013 04:34:57.416,794.565
14,5 Dec 2013 06:01:30.710,5 Dec 2013 06:18:37.117,1026.407
15,5 Dec 2013 07:49:57.059,5 Dec 2013 08:04:55.223,898.163
16,5 Dec 2013 15:23:43.423,5 Dec 2013 15:41:10.549,1047.127
17,6 Dec 2013 04:00:26.733,6 Dec 2013 04:14:32.632,845.899
18,6 Dec 2013 05:39:50.062,6 Dec 2013 05:56:51.337,1021.275
19,6 Dec 2013 07:21:09.431,6 Dec 2013 07:36:24.616,915.185
20,6 Dec 2013 09:07:10.625,6 Dec 2013 09:11:52.125,281.500
21,6 Dec 2013 15:03:13.150,6 Dec 2013 15:09:29.880,376.730
22,6 Dec 2013 16:40:47.283,6 Dec 2013 16:57:41.680,1014.397
23,7 Dec 2013 02:04:50.266,7 Dec 2013 02:07:13.189,142.924
24,7 Dec 2013 03:38:31.406,7 Dec 2013 03:54:05.244,933.838
25,7 Dec 2013 05:18:27.025,7 Dec 2013 05:35:11.183,1004.158
26,7 Dec 2013 07:01:33.005,7 Dec 2013 07:12:51.085,678.080
27,7 Dec 2013 16:16:31.740,7 Dec 2013 16:30:30.589,838.849
28,7 Dec 2013 17:58:56.740,7 Dec 2013 18:13:27.153,870.413
29,8 Dec 2013 01:37:56.159,8 Dec 2013 01:51:06.119,789.961
30,8 Dec 2013 03:16:23.838,8 Dec 2013 03:33:08.176,1004.338
31,8 Dec 2013 04:57:25.659,8 Dec 2013 05:13:26.530,960.872
32,8 Dec 2013 06:43:29.689,8 Dec 2013 06:49:20.665,350.976
33,8 Dec 2013 17:31:52.679,8 Dec 2013 17:48:35.529,1002.851
34,8 Dec 2013 19:19:05.497,8 Dec 2013 19:28:09.017,543.519
35,9 Dec 2013 01:10:21.548,9 Dec 2013 01:18:39.603,498.055
36,9 Dec 2013 02:52:30.117,9 Dec 2013 03:10:50.995,1100.877
37,9 Dec 2013 04:36:41.648,9 Dec 2013 04:51:52.871,911.223
38,9 Dec 2013 06:23:50.990,9 Dec 2013 06:28:37.503,286.513
39,9 Dec 2013 18:47:59.428,9 Dec 2013 19:05:32.397,1052.969
40,10 Dec 2013 02:18:31.428,10 Dec 2013 02:35:06.430,995.002
41,10 Dec 2013 04:06:36.298,10 Dec 2013 04:23:42.043,1025.745

"Access","Start Time (UTCG)","Stop Time (UTCG)","Duration (sec)"
1,3 Dec 2013 01:12:22.306,3 Dec 2013 01:24:49.955,747.649
2,3 Dec 2013 04:56:42.662,3 Dec 2013 05:12:08.361,925.699
3,3 Dec 2013 06:44:12.079,3 Dec 2013 07:01:43.198,1051.119
4,3 Dec 2013 12:25:42.731,3 Dec 2013 12:38:28.965,766.234
5,3 Dec 2013 14:08:47.220,3 Dec 2013 14:25:49.858,1022.637
6,3 Dec 2013 15:53:52.359,3 Dec 2013 16:09:22.165,929.806
7,3 Dec 2013 17:40:41.817,3 Dec 2013 17:52:18.681,696.865
8,4 Dec 2013 02:38:07.940,4 Dec 2013 02:42:04.043,236.103
9,4 Dec 2013 04:21:04.750,4 Dec 2013 04:34:19.270,794.520
10,4 Dec 2013 06:08:38.615,4 Dec 2013 06:26:56.379,1097.764
11,4 Dec 2013 08:00:24.867,4 Dec 2013 08:10:53.939,629.072
12,4 Dec 2013 13:42:09.300,4 Dec 2013 13:56:45.802,876.502
13,4 Dec 2013 15:25:32.190,4 Dec 2013 15:40:34.323,902.134
14,5 Dec 2013 03:57:12.951,5 Dec 2013 04:08:27.197,674.245
15,5 Dec 2013 05:36:24.732,5 Dec 2013 05:52:39.572,974.840
16,5 Dec 2013 07:22:06.679,5 Dec 2013 07:39:14.735,1028.057
17,5 Dec 2013 14:58:22.300,5 Dec 2013 15:14:53.215,990.915
18,5 Dec 2013 16:43:59.074,5 Dec 2013 16:54:28.673,629.600
19,6 Dec 2013 03:36:13.627,6 Dec 2013 03:48:13.698,720.071
20,6 Dec 2013 05:14:45.047,6 Dec 2013 05:31:35.192,1010.146
21,6 Dec 2013 06:55:41.520,6 Dec 2013 07:11:44.191,962.671
22,6 Dec 2013 08:38:10.291,6 Dec 2013 08:49:31.714,681.423
23,6 Dec 2013 16:14:52.470,6 Dec 2013 16:32:16.687,1044.217
24,7 Dec 2013 03:14:04.925,7 Dec 2013 03:28:18.937,854.012
25,7 Dec 2013 04:53:11.867,7 Dec 2013 05:10:10.751,1018.885
26,7 Dec 2013 06:35:21.208,7 Dec 2013 06:48:55.281,814.073
27,7 Dec 2013 15:54:12.952,7 Dec 2013 16:01:42.584,449.631
28,7 Dec 2013 17:32:04.572,7 Dec 2013 17:48:53.032,1008.460
29,8 Dec 2013 01:13:45.616,8 Dec 2013 01:25:16.992,691.376
30,8 Dec 2013 02:51:32.806,8 Dec 2013 03:07:46.860,974.054
31,8 Dec 2013 04:31:53.905,8 Dec 2013 04:48:33.979,1000.074
32,8 Dec 2013 06:15:49.226,8 Dec 2013 06:26:29.159,639.933
33,8 Dec 2013 17:07:30.241,8 Dec 2013 17:21:49.169,858.928
34,8 Dec 2013 18:50:19.027,8 Dec 2013 19:04:52.580,873.552
35,9 Dec 2013 02:25:45.597,9 Dec 2013 02:43:41.587,1075.990
36,9 Dec 2013 04:10:55.521,9 Dec 2013 04:26:55.607,960.087
37,9 Dec 2013 05:55:48.383,9 Dec 2013 06:05:30.873,582.490
38,9 Dec 2013 18:22:38.367,9 Dec 2013 18:39:22.205,1003.838
39,9 Dec 2013 20:09:42.328,9 Dec 2013 20:20:33.789,651.461
40,10 Dec 2013 01:52:58.800,10 Dec 2013 02:06:49.546,830.746
41,10 Dec 2013 03:38:50.017,10 Dec 2013 03:56:50.958,1080.941
42,10 Dec 2013 05:32:20.454,10 Dec 2013 05:44:51.323,750.869

"Access","Start Time (UTCG)","Stop Time (UTCG)","Duration (sec)"
1,3 Dec 2013 04:30:33.178,3 Dec 2013 04:43:07.501,754.322
2,3 Dec 2013 06:16:48.784,3 Dec 2013 06:35:03.845,1095.062
3,3 Dec 2013 08:12:17.972,3 Dec 2013 08:17:10.383,292.411
4,3 Dec 2013 12:02:11.028,3 Dec 2013 12:07:50.808,339.780
5,3 Dec 2013 13:42:27.225,3 Dec 2013 14:00:08.313,1061.088
6,3 Dec 2013 15:27:30.805,3 Dec 2013 15:43:29.849,959.044
7,3 Dec 2013 17:13:43.184,3 Dec 2013 17:26:42.674,779.490
8,4 Dec 2013 03:53:40.307,4 Dec 2013 04:05:26.182,705.875
9,4 Dec 2013 05:41:44.312,4 Dec 2013 05:59:30.055,1065.743
10,4 Dec 2013 07:31:12.876,4 Dec 2013 07:46:08.530,895.655
11,4 Dec 2013 13:18:16.738,4 Dec 2013 13:27:47.818,571.080
12,4 Dec 2013 14:58:54.299,4 Dec 2013 15:15:55.588,1021.288
13,5 Dec 2013 03:33:15.059,5 Dec 2013 03:41:17.364,482.305
14,5 Dec 2013 05:11:23.347,5 Dec 2013 05:26:58.178,934.831
15,5 Dec 2013 06:54:45.460,5 Dec 2013 07:12:53.292,1087.832
16,5 Dec 2013 14:33:47.916,5 Dec 2013 14:47:34.730,826.814
17,5 Dec 2013 16:16:14.452,5 Dec 2013 16:31:16.767,902.315
18,6 Dec 2013 03:12:40.187,6 Dec 2013 03:21:12.995,512.808
19,6 Dec 2013 04:49:47.831,6 Dec 2013 05:06:08.221,980.391
20,6 Dec 2013 06:30:18.889,6 Dec 2013 06:46:55.298,996.409
21,6 Dec 2013 08:12:22.650,6 Dec 2013 08:25:19.223,776.574
22,6 Dec 2013 15:49:38.457,6 Dec 2013 16:06:06.272,987.815
23,6 Dec 2013 17:35:34.087,6 Dec 2013 17:45:16.305,582.218
24,7 Dec 2013 02:49:59.023,7 Dec 2013 03:02:14.509,735.485
25,7 Dec 2013 04:28:06.996,7 Dec 2013 04:44:59.719,1012.722
26,7 Dec 2013 06:09:29.818,7 Dec 2013 06:24:36.017,906.200
27,7 Dec 2013 17:06:05.035,7 Dec 2013 17:23:29.797,1044.762
28,8 Dec 2013 00:49:50.528,8 Dec 2013 00:59:14.978,564.451
29,8 Dec 2013 02:26:50.924,8 Dec 2013 02:42:19.706,928.782
30,8 Dec 2013 04:06:33.825,8 Dec 2013 04:23:32.449,1018.624
31,8 Dec 2013 05:49:15.916,8 Dec 2013 06:02:31.857,795.941
32,8 Dec 2013 16:44:52.559,8 Dec 2013 16:53:33.529,520.970
33,8 Dec 2013 18:23:17.013,8 Dec 2013 18:40:07.231,1010.217
34,9 Dec 2013 01:59:35.182,9 Dec 2013 02:16:14.472,999.290
35,9 Dec 2013 03:45:19.719,9 Dec 2013 04:01:52.581,992.862
36,9 Dec 2013 05:28:59.786,9 Dec 2013 05:41:18.018,738.232
37,9 Dec 2013 17:58:13.706,9 Dec 2013 18:12:35.267,861.561
38,9 Dec 2013 19:41:12.308,9 Dec 2013 19:56:23.584,911.276
39,10 Dec 2013 01:28:57.102,10 Dec 2013 01:36:52.807,475.706
40,10 Dec 2013 03:11:33.396,10 Dec 2013 03:29:53.113,1099.716
41,10 Dec 2013 05:03:31.213,10 Dec 2013 05:17:32.188,840.975

"Access","Start Time (UTCG)","Stop Time (UTCG)","Duration (sec)"
1,3 Dec 2013 03:28:47.825,3 Dec 2013 03:44:45.465,957.641
2,3 Dec 2013 05:14:00.335,3 Dec 2013 05:26:28.352,748.017
3,3 Dec 2013 11:03:57.475,3 Dec 2013 11:11:55.540,478.065
4,3 Dec 2013 12:46:13.490,3 Dec 2013 13:04:33.946,1100.456
5,3 Dec 2013 14:36:04.525,3 Dec 2013 14:49:59.263,834.738
6,4 Dec 2013 04:44:21.321,4 Dec 2013 05:01:42.260,1040.939
7,4 Dec 2013 06:34:01.554,4 Dec 2013 06:42:04.279,482.724
8,4 Dec 2013 12:11:58.280,4 Dec 2013 12:28:47.429,1009.149
9,4 Dec 2013 14:00:26.760,4 Dec 2013 14:17:07.948,1001.188
10,4 Dec 2013 15:56:34.656,4 Dec 2013 16:04:48.422,493.766
11,4 Dec 2013 17:46:08.380,4 Dec 2013 17:51:54.541,346.161
12,4 Dec 2013 23:04:19.548,4 Dec 2013 23:12:28.579,489.031
13,5 Dec 2013 00:47:17.508,5 Dec 2013 01:01:34.559,857.051
14,5 Dec 2013 02:31:20.743,5 Dec 2013 02:48:14.423,1013.680
15,5 Dec 2013 04:15:52.239,5 Dec 2013 04:33:31.452,1059.213
16,5 Dec 2013 06:00:17.767,5 Dec 2013 06:17:55.719,1057.951
17,5 Dec 2013 07:53:04.266,5 Dec 2013 07:59:02.785,358.518
18,5 Dec 2013 11:38:31.721,5 Dec 2013 11:50:43.993,732.272
19,5 Dec 2013 13:24:08.455,5 Dec 2013 13:42:19.540,1091.086
20,5 Dec 2013 15:19:28.770,5 Dec 2013 15:26:09.611,400.841
21,5 Dec 2013 19:01:33.588,5 Dec 2013 19:16:53.082,919.493
22,5 Dec 2013 20:45:37.380,5 Dec 2013 21:02:31.351,1013.971
23,5 Dec 2013 22:30:19.506,5 Dec 2013 22:47:54.856,1055.350
24,6 Dec 2013 00:15:33.414,6 Dec 2013 00:33:16.231,1062.817
25,6 Dec 2013 02:01:40.389,6 Dec 2013 02:18:08.670,988.281
26,6 Dec 2013 03:48:55.682,6 Dec 2013 04:02:36.091,820.409
27,6 Dec 2013 05:36:36.931,6 Dec 2013 05:47:14.190,637.259
28,6 Dec 2013 07:22:37.536,6 Dec 2013 07:32:51.868,614.332
29,6 Dec 2013 09:08:52.718,6 Dec 2013 09:18:14.270,561.552
30,6 Dec 2013 11:03:26.451,6 Dec 2013 11:11:16.758,470.307
31,6 Dec 2013 12:49:01.165,6 Dec 2013 13:06:53.909,1072.744
32,6 Dec 2013 14:39:09.304,6 Dec 2013 14:53:10.417,841.113
33,6 Dec 2013 20:17:59.135,6 Dec 2013 20:34:00.997,961.862
34,6 Dec 2013 22:02:47.127,6 Dec 2013 22:17:26.602,879.475
35,6 Dec 2013 23:49:14.683,6 Dec 2013 23:59:38.828,624.145
36,7 Dec 2013 10:30:52.343,7 Dec 2013 10:38:58.147,485.805
37,7 Dec 2013 12:14:00.358,7 Dec 2013 12:30:10.192,969.834
38,7 Dec 2013 14:02:03.754,7 Dec 2013 14:19:48.102,1064.348
39,7 Dec 2013 21:34:21.825,7 Dec 2013 21:51:23.305,1021.480
40,7 Dec 2013 23:20:58.993,7 Dec 2013 23:30:04.028,545.036
41,8 Dec 2013 11:49:15.675,8 Dec 2013 12:04:04.930,889.255
42,8 Dec 2013 13:29:19.623,8 Dec 2013 13:46:22.545,1022.922
43,8 Dec 2013 15:16:39.292,8 Dec 2013 15:30:11.901,812.608
44,8 Dec 2013 22:50:57.824,8 Dec 2013 23:08:24.938,1047.114
45,9 Dec 2013 09:53:38.621,9 Dec 2013 09:55:46.880,128.259
46,9 Dec 2013 11:27:40.923,9 Dec 2013 11:43:25.947,945.024
47,9 Dec 2013 13:07:48.642,9 Dec 2013 13:24:35.353,1006.710
48,9 Dec 2013 14:49:59.528,9 Dec 2013 15:02:54.104,774.576
49,9 Dec 2013 22:29:17.808,9 Dec 2013 22:38:14.088,536.280
50,10 Dec 2013 00:08:13.324,10 Dec 2013 00:24:47.247,993.923

"Access","Start Time (UTCG)","Stop Time (UTCG)","Duration (sec)"
1,3 Dec 2013 03:04:56.907,3 Dec 2013 03:17:34.668,757.761
2,3 Dec 2013 04:46:10.896,3 Dec 2013 05:02:07.153,956.257
3,3 Dec 2013 12:19:27.973,3 Dec 2013 12:37:23.222,1075.249
4,3 Dec 2013 14:09:19.137,3 Dec 2013 14:25:00.327,941.190
5,3 Dec 2013 15:56:08.330,3 Dec 2013 16:03:34.912,446.582
6,4 Dec 2013 04:19:22.810,4 Dec 2013 04:35:13.440,950.630
7,4 Dec 2013 06:04:26.055,4 Dec 2013 06:18:21.817,835.762
8,4 Dec 2013 11:46:12.895,4 Dec 2013 12:00:32.651,859.757
9,4 Dec 2013 13:32:33.852,4 Dec 2013 13:50:24.553,1070.700
10,4 Dec 2013 15:27:19.788,4 Dec 2013 15:37:18.952,599.165
11,4 Dec 2013 17:18:55.301,4 Dec 2013 17:26:50.223,474.923
12,4 Dec 2013 22:39:03.316,4 Dec 2013 22:44:27.828,324.513
13,5 Dec 2013 00:21:24.584,5 Dec 2013 00:34:35.480,790.897
14,5 Dec 2013 02:05:16.130,5 Dec 2013 02:21:43.953,987.823
15,5 Dec 2013 03:49:43.452,5 Dec 2013 04:07:17.954,1054.502
16,5 Dec 2013 05:34:13.994,5 Dec 2013 05:51:52.667,1058.673
17,5 Dec 2013 07:22:28.148,5 Dec 2013 07:35:00.848,752.700
18,5 Dec 2013 11:14:22.714,5 Dec 2013 11:19:33.687,310.973
19,5 Dec 2013 12:57:05.585,5 Dec 2013 13:15:18.082,1092.498
20,5 Dec 2013 14:48:49.923,5 Dec 2013 15:01:12.755,742.831
21,5 Dec 2013 18:36:02.772,5 Dec 2013 18:48:11.055,728.283
22,5 Dec 2013 20:19:30.943,5 Dec 2013 20:36:15.434,1004.491
23,5 Dec 2013 22:04:06.531,5 Dec 2013 22:21:32.508,1045.977
24,5 Dec 2013 23:49:10.947,6 Dec 2013 00:06:58.083,1067.136
25,6 Dec 2013 01:35:02.377,6 Dec 2013 01:51:58.565,1016.188
26,6 Dec 2013 03:22:01.098,6 Dec 2013 03:36:30.245,869.147
27,6 Dec 2013 05:09:45.551,6 Dec 2013 05:21:00.378,674.827
28,6 Dec 2013 06:56:22.284,6 Dec 2013 07:06:22.427,600.143
29,6 Dec 2013 08:40:33.467,6 Dec 2013 08:52:11.990,698.523
30,6 Dec 2013 10:37:47.557,6 Dec 2013 10:40:03.386,135.829
31,6 Dec 2013 12:22:22.548,6 Dec 2013 12:39:03.356,1000.808
32,6 Dec 2013 14:10:45.535,6 Dec 2013 14:27:23.683,998.148
33,6 Dec 2013 19:52:58.385,6 Dec 2013 20:05:55.095,776.710
34,6 Dec 2013 21:35:52.242,6 Dec 2013 21:52:27.896,995.654
35,6 Dec 2013 23:22:23.368,6 Dec 2013 23:34:14.784,711.417
36,7 Dec 2013 10:07:20.608,7 Dec 2013 10:10:46.366,205.757
37,7 Dec 2013 11:46:58.107,7 Dec 2013 12:01:39.793,881.686
38,7 Dec 2013 13:34:48.916,7 Dec 2013 13:53:07.651,1098.735
39,7 Dec 2013 15:28:53.187,7 Dec 2013 15:34:24.736,331.549
40,7 Dec 2013 21:09:17.723,7 Dec 2013 21:24:18.903,901.180
41,7 Dec 2013 22:52:54.624,7 Dec 2013 23:07:18.470,863.846
42,8 Dec 2013 11:24:35.238,8 Dec 2013 11:37:58.355,803.117
43,8 Dec 2013 13:04:10.883,8 Dec 2013 13:21:01.804,1010.922
44,8 Dec 2013 14:48:32.528,8 Dec 2013 15:04:57.070,984.543
45,8 Dec 2013 22:25:31.239,8 Dec 2013 22:42:19.853,1008.614
46,9 Dec 2013 00:12:07.003,9 Dec 2013 00:20:40.591,513.588
47,9 Dec 2013 11:03:06.379,9 Dec 2013 11:17:36.239,869.860
48,9 Dec 2013 12:42:34.256,9 Dec 2013 12:59:34.204,1019.948
49,9 Dec 2013 14:24:14.451,9 Dec 2013 14:38:37.010,862.559
50,9 Dec 2013 16:09:31.744,9 Dec 2013 16:13:07.393,215.649
51,9 Dec 2013 23:42:08.475,9 Dec 2013 23:59:32.983,1044.508

"Access","Start Time (UTCG)","Stop Time (UTCG)","Duration (sec)"
1,3 Dec 2013 02:44:33.775,3 Dec 2013 02:47:16.568,162.793
2,3 Dec 2013 04:19:33.145,3 Dec 2013 04:36:53.607,1040.462
3,3 Dec 2013 11:53:15.852,3 Dec 2013 12:09:52.109,996.257
4,3 Dec 2013 13:41:11.688,3 Dec 2013 13:58:31.451,1039.763
5,3 Dec 2013 15:28:54.337,3 Dec 2013 15:39:27.095,632.759
6,4 Dec 2013 03:55:32.388,4 Dec 2013 04:07:59.266,746.878
7,4 Dec 2013 05:36:47.051,4 Dec 2013 05:53:19.239,992.187
8,4 Dec 2013 11:21:37.431,4 Dec 2013 11:30:53.542,556.110
9,4 Dec 2013 13:05:12.513,4 Dec 2013 13:23:31.075,1098.562
10,4 Dec 2013 14:57:55.129,4 Dec 2013 15:10:26.287,751.158
11,4 Dec 2013 16:52:03.660,4 Dec 2013 17:01:36.080,572.420
12,4 Dec 2013 23:55:36.108,5 Dec 2013 00:07:26.295,710.188
13,5 Dec 2013 01:39:13.775,5 Dec 2013 01:55:07.731,953.956
14,5 Dec 2013 03:23:34.901,5 Dec 2013 03:41:00.880,1045.979
15,5 Dec 2013 05:08:08.114,5 Dec 2013 05:25:48.691,1060.577
16,5 Dec 2013 06:54:00.908,5 Dec 2013 07:09:41.990,941.082
17,5 Dec 2013 12:30:27.112,5 Dec 2013 12:47:49.816,1042.704
18,5 Dec 2013 14:19:48.500,5 Dec 2013 14:35:18.584,930.084
19,5 Dec 2013 18:11:30.958,5 Dec 2013 18:17:35.054,364.097
20,5 Dec 2013 19:53:26.424,5 Dec 2013 20:10:02.859,996.435
21,5 Dec 2013 21:37:55.237,5 Dec 2013 21:55:10.630,1035.392
22,5 Dec 2013 23:22:51.394,5 Dec 2013 23:40:38.203,1066.809
23,6 Dec 2013 01:08:28.747,6 Dec 2013 01:25:46.521,1037.774
24,6 Dec 2013 02:55:09.946,6 Dec 2013 03:10:24.104,914.158
25,6 Dec 2013 04:42:49.880,6 Dec 2013 04:54:50.153,720.274
26,6 Dec 2013 06:29:56.913,6 Dec 2013 06:39:55.424,598.511
27,6 Dec 2013 08:14:41.762,6 Dec 2013 08:25:49.421,667.659
28,6 Dec 2013 11:55:54.704,6 Dec 2013 12:10:34.790,880.086
29,6 Dec 2013 13:43:05.795,6 Dec 2013 14:01:02.111,1076.316
30,6 Dec 2013 19:29:41.779,6 Dec 2013 19:35:21.179,339.400
31,6 Dec 2013 21:09:31.316,6 Dec 2013 21:27:07.544,1056.228
32,6 Dec 2013 22:55:46.134,6 Dec 2013 23:08:42.742,776.608
33,7 Dec 2013 00:44:23.895,7 Dec 2013 00:49:20.257,296.362
34,7 Dec 2013 11:20:15.612,7 Dec 2013 11:32:59.583,763.971
35,7 Dec 2013 13:07:48.288,7 Dec 2013 13:25:57.240,1088.951
36,7 Dec 2013 14:58:10.366,7 Dec 2013 15:11:13.695,783.329
37,7 Dec 2013 20:45:19.144,7 Dec 2013 20:55:43.653,624.509
38,7 Dec 2013 22:26:08.753,7 Dec 2013 22:42:53.583,1004.830
39,8 Dec 2013 11:00:13.085,8 Dec 2013 11:11:27.737,674.651
40,8 Dec 2013 12:39:06.314,8 Dec 2013 12:55:33.314,986.999
41,8 Dec 2013 14:21:03.575,8 Dec 2013 14:38:52.752,1069.176
42,8 Dec 2013 22:00:49.143,8 Dec 2013 22:15:18.849,869.706
43,8 Dec 2013 23:43:47.732,8 Dec 2013 23:58:04.875,857.142
44,9 Dec 2013 10:38:51.397,9 Dec 2013 10:51:25.865,754.467
45,9 Dec 2013 12:17:27.349,9 Dec 2013 12:34:22.837,1015.487
46,9 Dec 2013 13:58:38.439,9 Dec 2013 14:14:07.270,928.831
47,9 Dec 2013 15:42:14.696,9 Dec 2013 15:50:32.600,497.904
48,9 Dec 2013 23:16:45.518,9 Dec 2013 23:33:34.363,1008.845
49,10 Dec 2013 01:04:04.659,10 Dec 2013 01:11:22.165,437.507

"Access","Start Time (UTCG)","Stop Time (UTCG)","Duration (sec)"
1,3 Dec 2013 03:53:45.801,3 Dec 2013 04:11:06.265,1040.464
2,3 Dec 2013 11:27:48.724,3 Dec 2013 11:41:42.378,833.654
3,3 Dec 2013 13:13:28.688,3 Dec 2013 13:31:34.212,1085.524
4,3 Dec 2013 15:02:18.667,3 Dec 2013 15:14:50.055,751.388
5,4 Dec 2013 03:34:10.994,4 Dec 2013 03:37:40.247,209.253
6,4 Dec 2013 05:10:09.749,4 Dec 2013 05:27:43.257,1053.508
7,4 Dec 2013 12:38:20.506,4 Dec 2013 12:56:21.598,1081.091
8,4 Dec 2013 14:28:53.933,4 Dec 2013 14:43:46.417,892.484
9,4 Dec 2013 16:24:50.934,4 Dec 2013 16:33:22.572,511.638
10,4 Dec 2013 18:14:17.498,4 Dec 2013 18:16:15.755,118.258
11,4 Dec 2013 23:29:53.451,4 Dec 2013 23:40:05.090,611.639
12,5 Dec 2013 01:13:14.084,5 Dec 2013 01:28:24.929,910.845
13,5 Dec 2013 02:57:27.158,5 Dec 2013 03:14:39.867,1032.709
14,5 Dec 2013 04:42:00.664,5 Dec 2013 04:59:41.638,1060.974
15,5 Dec 2013 06:26:39.925,5 Dec 2013 06:43:57.536,1037.612
16,5 Dec 2013 12:04:13.007,5 Dec 2013 12:19:45.012,932.006
17,5 Dec 2013 13:51:39.945,5 Dec 2013 14:08:59.257,1039.313
18,5 Dec 2013 19:27:24.471,5 Dec 2013 19:43:54.087,989.617
19,5 Dec 2013 21:11:45.516,5 Dec 2013 21:28:49.988,1024.472
20,5 Dec 2013 22:56:34.361,5 Dec 2013 23:14:16.960,1062.599
21,6 Dec 2013 00:41:59.214,6 Dec 2013 00:59:32.411,1053.197
22,6 Dec 2013 02:28:22.926,6 Dec 2013 02:44:17.068,954.142
23,6 Dec 2013 04:15:52.513,6 Dec 2013 04:28:42.420,769.907
24,6 Dec 2013 06:03:21.426,6 Dec 2013 06:13:32.455,611.028
25,6 Dec 2013 07:48:43.583,6 Dec 2013 07:59:21.594,638.011
26,6 Dec 2013 09:39:28.781,6 Dec 2013 09:44:05.484,276.703
27,6 Dec 2013 11:29:35.817,6 Dec 2013 11:41:21.304,705.488
28,6 Dec 2013 13:15:53.859,6 Dec 2013 13:34:12.278,1098.420
29,6 Dec 2013 15:09:02.632,6 Dec 2013 15:17:48.543,525.911
30,6 Dec 2013 20:43:33.767,6 Dec 2013 21:00:59.452,1045.685
31,6 Dec 2013 22:29:19.503,6 Dec 2013 22:43:06.012,826.509
32,7 Dec 2013 00:16:27.192,7 Dec 2013 00:24:48.119,500.927
33,7 Dec 2013 10:55:24.859,7 Dec 2013 11:05:57.835,632.976
34,7 Dec 2013 12:40:54.386,7 Dec 2013 12:58:17.691,1043.305
35,7 Dec 2013 14:29:43.666,7 Dec 2013 14:45:54.782,971.116
36,7 Dec 2013 22:00:00.487,7 Dec 2013 22:17:32.519,1052.032
37,8 Dec 2013 10:36:29.592,8 Dec 2013 10:44:12.036,462.444
38,8 Dec 2013 12:14:07.223,8 Dec 2013 12:29:55.217,947.994
39,8 Dec 2013 13:54:31.649,8 Dec 2013 14:12:13.079,1061.431
40,8 Dec 2013 15:46:32.966,8 Dec 2013 15:53:33.648,420.682
41,8 Dec 2013 21:37:39.969,8 Dec 2013 21:46:31.639,531.670
42,8 Dec 2013 23:17:00.678,8 Dec 2013 23:33:42.854,1002.175
43,9 Dec 2013 10:15:10.676,9 Dec 2013 10:24:40.674,569.997
44,9 Dec 2013 11:52:28.968,9 Dec 2013 12:09:00.566,991.598
45,9 Dec 2013 13:33:10.029,9 Dec 2013 13:49:26.464,976.435
46,9 Dec 2013 15:15:56.885,9 Dec 2013 15:26:55.318,658.433
47,9 Dec 2013 22:52:12.407,9 Dec 2013 23:06:44.064,871.657
48,10 Dec 2013 00:35:10.295,10 Dec 2013 00:49:05.970,835.675

"Access","Start Time (UTCG)","Stop Time (UTCG)","Duration (sec)"
1,3 Dec 2013 08:22:32.859,3 Dec 2013 08:38:34.937,962.078
2,3 Dec 2013 10:07:26.672,3 Dec 2013 10:18:52.197,685.525
3,3 Dec 2013 19:24:36.936,3 Dec 2013 19:31:42.724,425.788
4,3 Dec 2013 21:00:34.713,3 Dec 2013 21:16:45.026,970.313
5,3 Dec 2013 22:40:59.418,3 Dec 2013 22:57:24.097,984.679
6,4 Dec 2013 00:24:25.003,4 Dec 2013 00:34:25.972,600.970
7,4 Dec 2013 09:38:50.995,4 Dec 2013 09:56:11.684,1040.689
8,4 Dec 2013 19:00:13.544,4 Dec 2013 19:13:33.303,799.759
9,4 Dec 2013 20:38:44.044,4 Dec 2013 20:55:37.518,1013.474
10,4 Dec 2013 22:20:11.416,4 Dec 2013 22:35:27.989,916.573
11,5 Dec 2013 09:19:07.093,5 Dec 2013 09:24:57.795,350.702
12,5 Dec 2013 10:55:53.002,5 Dec 2013 11:12:57.134,1024.132
13,5 Dec 2013 18:33:58.026,5 Dec 2013 18:49:45.782,947.756
14,5 Dec 2013 20:17:05.464,5 Dec 2013 20:34:05.147,1019.683
15,5 Dec 2013 21:59:40.548,5 Dec 2013 22:13:53.166,852.619
16,6 Dec 2013 10:31:33.314,6 Dec 2013 10:45:08.735,815.421
17,6 Dec 2013 12:13:41.444,6 Dec 2013 12:29:15.169,933.724
18,6 Dec 2013 19:45:27.014,6 Dec 2013 20:03:40.230,1093.216
19,6 Dec 2013 21:36:18.532,6 Dec 2013 21:51:35.916,917.384
20,6 Dec 2013 23:26:13.079,6 Dec 2013 23:31:13.948,300.869
21,7 Dec 2013 10:05:24.623,7 Dec 2013 10:14:59.681,575.059
22,7 Dec 2013 11:46:10.757,7 Dec 2013 12:02:23.957,973.200
23,7 Dec 2013 13:31:55.715,7 Dec 2013 13:45:33.805,818.091
24,7 Dec 2013 19:11:30.005,7 Dec 2013 19:27:25.888,955.882
25,7 Dec 2013 20:59:08.086,7 Dec 2013 21:16:19.780,1031.694
26,7 Dec 2013 22:56:10.871,7 Dec 2013 23:02:05.808,354.936
27,8 Dec 2013 00:46:04.913,8 Dec 2013 00:56:56.961,652.048
28,8 Dec 2013 02:32:31.018,8 Dec 2013 02:40:37.645,486.626
29,8 Dec 2013 04:18:11.456,8 Dec 2013 04:27:14.255,542.799
30,8 Dec 2013 06:02:28.502,8 Dec 2013 06:15:34.119,785.617
31,8 Dec 2013 07:46:44.638,8 Dec 2013 08:03:01.466,976.828
32,8 Dec 2013 09:31:29.908,8 Dec 2013 09:49:09.153,1059.245
33,8 Dec 2013 11:16:40.893,8 Dec 2013 11:34:20.216,1059.323
34,8 Dec 2013 13:01:47.352,8 Dec 2013 13:18:55.039,1027.687
35,8 Dec 2013 14:49:41.010,8 Dec 2013 15:02:21.159,760.149
36,8 Dec 2013 18:38:00.668,8 Dec 2013 18:48:40.935,640.267
37,8 Dec 2013 20:23:11.333,8 Dec 2013 20:41:28.907,1097.575
38,8 Dec 2013 22:17:00.644,8 Dec 2013 22:25:43.861,523.216
39,9 Dec 2013 02:03:26.062,9 Dec 2013 02:15:21.472,715.409
40,9 Dec 2013 03:46:28.880,9 Dec 2013 04:04:02.400,1053.520
41,9 Dec 2013 05:31:01.101,9 Dec 2013 05:48:44.241,1063.140
42,9 Dec 2013 07:16:23.880,9 Dec 2013 07:33:27.103,1023.223
43,9 Dec 2013 09:03:04.444,9 Dec 2013 09:17:40.870,876.426
44,9 Dec 2013 10:51:46.554,9 Dec 2013 11:01:07.469,560.915
45,9 Dec 2013 16:10:35.032,9 Dec 2013 16:19:18.576,523.544
46,9 Dec 2013 18:01:31.517,9 Dec 2013 18:10:04.672,513.156
47,9 Dec 2013 19:48:13.470,9 Dec 2013 20:05:44.382,1050.912
48,9 Dec 2013 21:37:30.055,9 Dec 2013 21:52:50.586,920.530
49,10 Dec 2013 03:20:11.742,10 Dec 2013 03:33:25.500,793.758
50,10 Dec 2013 05:03:00.809,10 Dec 2013 05:19:17.704,976.895

"Access","Start Time (UTCG)","Stop Time (UTCG)","Duration (sec)"
1,3 Dec 2013 07:58:26.670,3 Dec 2013 08:11:05.131,758.462
2,3 Dec 2013 09:39:52.332,3 Dec 2013 09:55:21.026,928.695
3,3 Dec 2013 20:35:56.870,3 Dec 2013 20:51:05.773,908.903
4,3 Dec 2013 22:15:38.663,3 Dec 2013 22:32:30.841,1012.179
5,3 Dec 2013 23:58:07.213,4 Dec 2013 00:10:42.330,755.117
6,4 Dec 2013 09:13:47.350,4 Dec 2013 09:29:56.436,969.086
7,4 Dec 2013 10:59:11.499,4 Dec 2013 11:09:56.280,644.781
8,4 Dec 2013 18:36:10.331,4 Dec 2013 18:47:36.808,686.477
9,4 Dec 2013 20:13:49.523,4 Dec 2013 20:30:18.437,988.915
10,4 Dec 2013 21:54:31.245,4 Dec 2013 22:10:46.036,974.791
11,4 Dec 2013 23:39:41.686,4 Dec 2013 23:47:07.549,445.863
12,5 Dec 2013 10:29:58.892,5 Dec 2013 10:47:22.982,1044.090
13,5 Dec 2013 18:09:03.939,5 Dec 2013 18:21:22.792,738.853
14,5 Dec 2013 19:51:49.750,5 Dec 2013 20:08:54.655,1024.905
15,5 Dec 2013 21:33:43.356,5 Dec 2013 21:49:07.946,924.590
16,5 Dec 2013 23:21:04.902,5 Dec 2013 23:25:09.274,244.373
17,6 Dec 2013 10:09:32.581,6 Dec 2013 10:16:24.467,411.886
18,6 Dec 2013 11:46:50.688,6 Dec 2013 12:04:04.356,1033.667
19,6 Dec 2013 19:18:56.825,6 Dec 2013 19:36:19.366,1042.541
20,6 Dec 2013 21:07:56.261,6 Dec 2013 21:24:35.115,998.855
21,6 Dec 2013 22:58:27.617,6 Dec 2013 23:07:22.326,534.709
22,7 Dec 2013 09:40:25.350,7 Dec 2013 09:47:43.492,438.141
23,7 Dec 2013 11:21:41.033,7 Dec 2013 11:35:19.382,818.349
24,7 Dec 2013 13:04:05.378,7 Dec 2013 13:20:27.920,982.541
25,7 Dec 2013 18:46:01.557,7 Dec 2013 18:58:41.009,759.452
26,7 Dec 2013 20:31:28.958,7 Dec 2013 20:49:35.825,1086.867
27,7 Dec 2013 22:25:55.990,7 Dec 2013 22:35:41.281,585.291
28,8 Dec 2013 00:19:51.915,8 Dec 2013 00:29:06.110,554.196
29,8 Dec 2013 02:05:51.484,8 Dec 2013 02:14:30.087,518.602
30,8 Dec 2013 03:51:57.675,8 Dec 2013 04:00:17.244,499.570
31,8 Dec 2013 05:36:26.600,8 Dec 2013 05:48:30.525,723.925
32,8 Dec 2013 07:20:38.354,8 Dec 2013 07:36:17.540,939.187
33,8 Dec 2013 09:05:15.569,8 Dec 2013 09:22:43.628,1048.059
34,8 Dec 2013 10:50:21.990,8 Dec 2013 11:08:06.354,1064.364
35,8 Dec 2013 12:35:33.503,8 Dec 2013 12:52:49.353,1035.850
36,8 Dec 2013 14:21:10.712,8 Dec 2013 14:36:50.538,939.826
37,8 Dec 2013 19:56:17.978,8 Dec 2013 20:14:17.005,1079.027
38,8 Dec 2013 21:46:59.208,8 Dec 2013 22:00:37.007,817.799
39,9 Dec 2013 01:39:44.460,9 Dec 2013 01:44:10.591,266.131
40,9 Dec 2013 03:20:27.406,9 Dec 2013 03:37:56.554,1049.149
41,9 Dec 2013 05:04:48.854,9 Dec 2013 05:22:32.204,1063.350
42,9 Dec 2013 06:49:57.335,9 Dec 2013 07:07:18.216,1040.882
43,9 Dec 2013 08:36:14.763,9 Dec 2013 08:51:41.208,926.445
44,9 Dec 2013 10:24:22.007,9 Dec 2013 10:35:21.492,659.485
45,9 Dec 2013 12:15:53.704,9 Dec 2013 12:17:00.531,66.827
46,9 Dec 2013 15:45:11.975,9 Dec 2013 15:52:22.436,430.461
47,9 Dec 2013 17:33:53.020,9 Dec 2013 17:40:50.168,417.148
48,9 Dec 2013 19:21:34.100,9 Dec 2013 19:37:39.758,965.659
49,9 Dec 2013 21:09:30.541,9 Dec 2013 21:26:50.466,1039.925
50,10 Dec 2013 02:56:59.215,10 Dec 2013 03:03:07.211,367.995
51,10 Dec 2013 04:36:37.748,10 Dec 2013 04:54:07.638,1049.890

"Access","Start Time (UTCG)","Stop Time (UTCG)","Duration (sec)"
1,3 Dec 2013 01:39:17.807,3 Dec 2013 01:47:57.476,519.669
2,3 Dec 2013 09:13:24.589,3 Dec 2013 09:30:34.183,1029.594
3,3 Dec 2013 20:11:36.049,3 Dec 2013 20:25:10.360,814.311
4,3 Dec 2013 21:50:27.257,3 Dec 2013 22:07:26.549,1019.292
5,3 Dec 2013 23:32:11.430,3 Dec 2013 23:46:32.685,861.255
6,4 Dec 2013 08:49:45.537,4 Dec 2013 09:02:42.260,776.723
7,4 Dec 2013 10:31:15.733,4 Dec 2013 10:46:29.683,913.950
8,4 Dec 2013 18:12:31.236,4 Dec 2013 18:21:20.042,528.806
9,4 Dec 2013 19:49:05.592,4 Dec 2013 20:04:51.863,946.271
10,4 Dec 2013 21:29:04.341,4 Dec 2013 21:45:52.281,1007.940
11,4 Dec 2013 23:12:30.272,4 Dec 2013 23:23:55.724,685.452
12,5 Dec 2013 10:04:52.175,5 Dec 2013 10:21:11.697,979.521
13,5 Dec 2013 11:50:51.571,5 Dec 2013 12:01:27.591,636.020
14,5 Dec 2013 17:48:02.106,5 Dec 2013 17:49:13.181,71.075
15,5 Dec 2013 19:26:20.139,5 Dec 2013 19:43:40.983,1040.844
16,5 Dec 2013 21:08:00.408,5 Dec 2013 21:24:13.196,972.788
17,5 Dec 2013 22:52:47.022,5 Dec 2013 23:02:27.568,580.547
18,6 Dec 2013 11:20:52.315,6 Dec 2013 11:38:20.430,1048.115
19,6 Dec 2013 18:53:03.392,6 Dec 2013 19:08:28.967,925.575
20,6 Dec 2013 20:39:58.099,6 Dec 2013 20:57:40.532,1062.433
21,6 Dec 2013 22:31:36.326,6 Dec 2013 22:42:47.214,670.889
22,7 Dec 2013 09:16:29.343,7 Dec 2013 09:19:16.966,167.623
23,7 Dec 2013 10:56:09.078,7 Dec 2013 11:08:26.688,737.610
24,7 Dec 2013 12:37:18.159,7 Dec 2013 12:54:50.338,1052.178
25,7 Dec 2013 18:22:33.844,7 Dec 2013 18:27:31.040,297.195
26,7 Dec 2013 20:04:20.460,7 Dec 2013 20:22:37.086,1096.626
27,7 Dec 2013 21:56:17.425,7 Dec 2013 22:09:19.244,781.819
28,7 Dec 2013 23:53:31.174,7 Dec 2013 23:58:53.238,322.064
29,8 Dec 2013 01:39:12.065,8 Dec 2013 01:48:32.255,560.190
30,8 Dec 2013 03:25:36.406,8 Dec 2013 03:33:30.717,474.311
31,8 Dec 2013 05:10:24.050,8 Dec 2013 05:21:24.356,660.306
32,8 Dec 2013 06:54:33.808,8 Dec 2013 07:09:28.249,894.442
33,8 Dec 2013 08:39:03.194,8 Dec 2013 08:56:14.133,1030.939
34,8 Dec 2013 10:24:03.508,8 Dec 2013 10:41:50.116,1066.607
35,8 Dec 2013 12:09:17.353,8 Dec 2013 12:26:41.624,1044.271
36,8 Dec 2013 13:54:05.851,8 Dec 2013 14:10:59.692,1013.841
37,8 Dec 2013 19:29:46.209,8 Dec 2013 19:46:34.309,1008.100
38,8 Dec 2013 21:18:20.984,8 Dec 2013 21:34:39.819,978.835
39,9 Dec 2013 02:54:26.864,9 Dec 2013 03:11:34.019,1027.154
40,9 Dec 2013 04:38:39.454,9 Dec 2013 04:56:20.801,1061.348
41,9 Dec 2013 06:23:34.998,9 Dec 2013 06:41:07.794,1052.797
42,9 Dec 2013 08:09:31.927,9 Dec 2013 08:25:38.880,966.954
43,9 Dec 2013 09:57:07.329,9 Dec 2013 10:09:31.326,743.997
44,9 Dec 2013 11:47:12.886,9 Dec 2013 11:52:17.556,304.670
45,9 Dec 2013 15:19:54.028,9 Dec 2013 15:25:08.912,314.884
46,9 Dec 2013 17:04:55.998,9 Dec 2013 17:12:54.324,478.326
47,9 Dec 2013 18:54:59.339,9 Dec 2013 19:08:58.885,839.547
48,9 Dec 2013 20:42:05.421,9 Dec 2013 21:00:17.661,1092.240
49,10 Dec 2013 04:10:40.561,10 Dec 2013 04:28:08.954,1048.393

"Access","Start Time (UTCG)","Stop Time (UTCG)","Duration (sec)"
1,3 Dec 2013 01:10:02.871,3 Dec 2013 01:24:11.108,848.236
2,3 Dec 2013 08:47:38.500,3 Dec 2013 09:04:58.226,1039.725
3,3 Dec 2013 19:47:40.720,3 Dec 2013 19:58:51.084,670.364
4,3 Dec 2013 21:25:25.561,3 Dec 2013 21:42:11.446,1005.885
5,3 Dec 2013 23:06:29.883,3 Dec 2013 23:22:05.357,935.474
6,4 Dec 2013 00:51:33.884,4 Dec 2013 00:57:13.975,340.091
7,4 Dec 2013 08:29:00.347,4 Dec 2013 08:32:16.202,195.856
8,4 Dec 2013 10:04:39.447,4 Dec 2013 10:21:44.013,1024.566
9,4 Dec 2013 17:49:49.276,4 Dec 2013 17:54:09.933,260.657
10,4 Dec 2013 19:24:33.051,4 Dec 2013 19:39:17.281,884.230
11,4 Dec 2013 21:03:48.903,4 Dec 2013 21:20:49.013,1020.109
12,4 Dec 2013 22:46:08.449,4 Dec 2013 22:59:54.051,825.602
13,5 Dec 2013 09:40:46.578,5 Dec 2013 09:54:10.692,804.114
14,5 Dec 2013 11:22:39.141,5 Dec 2013 11:37:49.653,910.512
15,5 Dec 2013 18:59:50.040,5 Dec 2013 19:17:21.812,1051.773
16,5 Dec 2013 20:42:28.489,5 Dec 2013 20:59:11.700,1003.211
17,5 Dec 2013 22:25:57.608,5 Dec 2013 22:38:23.703,746.095
18,6 Dec 2013 10:55:42.448,6 Dec 2013 11:12:05.778,983.331
19,6 Dec 2013 12:41:51.184,6 Dec 2013 12:53:30.122,698.937
20,6 Dec 2013 18:28:08.663,6 Dec 2013 18:39:39.277,690.613
21,6 Dec 2013 20:12:27.981,6 Dec 2013 20:30:44.544,1096.563
22,6 Dec 2013 22:04:54.287,6 Dec 2013 22:17:55.948,781.661
23,7 Dec 2013 10:30:42.255,7 Dec 2013 10:41:50.928,668.672
24,7 Dec 2013 12:11:20.136,7 Dec 2013 12:28:49.654,1049.518
25,7 Dec 2013 14:01:47.051,7 Dec 2013 14:09:19.372,452.321
26,7 Dec 2013 19:37:40.251,7 Dec 2013 19:55:17.291,1057.041
27,7 Dec 2013 21:27:22.455,7 Dec 2013 21:42:53.167,930.711
28,7 Dec 2013 23:26:08.496,7 Dec 2013 23:29:12.739,184.243
29,8 Dec 2013 01:12:35.837,8 Dec 2013 01:22:41.825,605.988
30,8 Dec 2013 02:59:07.047,8 Dec 2013 03:06:57.343,470.296
31,8 Dec 2013 04:44:19.572,8 Dec 2013 04:54:17.898,598.325
32,8 Dec 2013 06:28:30.681,8 Dec 2013 06:42:33.650,842.968
33,8 Dec 2013 08:12:52.886,8 Dec 2013 08:29:40.215,1007.329
34,8 Dec 2013 09:57:45.995,8 Dec 2013 10:15:31.176,1065.181
35,8 Dec 2013 11:42:59.582,8 Dec 2013 12:00:31.922,1052.340
36,8 Dec 2013 13:27:58.296,8 Dec 2013 13:44:58.527,1020.232
37,8 Dec 2013 15:19:57.992,8 Dec 2013 15:26:58.283,420.292
38,8 Dec 2013 19:03:36.786,8 Dec 2013 19:18:09.854,873.068
39,8 Dec 2013 20:50:29.814,8 Dec 2013 21:08:15.866,1066.052
40,9 Dec 2013 02:28:43.234,9 Dec 2013 02:44:02.384,919.150
41,9 Dec 2013 04:12:32.798,9 Dec 2013 04:30:10.670,1057.871
42,9 Dec 2013 05:57:16.380,9 Dec 2013 06:14:56.299,1059.919
43,9 Dec 2013 07:42:55.198,9 Dec 2013 07:59:34.097,998.899
44,9 Dec 2013 09:30:01.719,9 Dec 2013 09:43:37.653,815.934
45,9 Dec 2013 11:19:22.237,9 Dec 2013 11:26:47.681,445.444
46,9 Dec 2013 14:54:57.228,9 Dec 2013 14:57:22.025,144.797
47,9 Dec 2013 16:35:59.918,9 Dec 2013 16:46:00.389,600.471
48,9 Dec 2013 18:28:22.860,9 Dec 2013 18:39:42.492,679.632
49,9 Dec 2013 20:15:02.171,9 Dec 2013 20:33:15.972,1093.801
50,9 Dec 2013 22:06:32.481,9 Dec 2013 22:17:59.602,687.121
51,10 Dec 2013 03:45:08.218,10 Dec 2013 04:01:20.317,972.100
52,10 Dec 2013 05:30:02.897,10 Dec 2013 05:43:25.955,803.059

