Raw and processed data/Altitude Variations/us_greatcircle_12sat_800km/Aircraft-B747LAX_Narita-Transmitter-adsb_out6211-To-Satellite-800km_p1_1-Receiver-adsb_satrcvr2 Access.csv

"Access","Start Time (UTCG)","Stop Time (UTCG)","Duration (sec)"
1,3 Dec 2013 06:08:32.583,3 Dec 2013 06:22:25.989,833.406
2,3 Dec 2013 07:52:00.979,3 Dec 2013 08:09:48.902,1067.923
3,3 Dec 2013 09:44:11.664,3 Dec 2013 09:57:39.942,808.279
4,3 Dec 2013 11:30:13.581,3 Dec 2013 11:45:17.703,904.122
5,3 Dec 2013 13:10:55.436,3 Dec 2013 13:27:44.131,1008.695
6,3 Dec 2013 14:52:02.014,3 Dec 2013 15:09:14.212,1032.198
7,3 Dec 2013 16:33:39.526,3 Dec 2013 16:50:59.460,1039.935
8,3 Dec 2013 18:16:09.511,3 Dec 2013 18:33:38.098,1048.586
9,3 Dec 2013 19:59:44.883,3 Dec 2013 20:17:17.331,1052.448
10,4 Dec 2013 03:58:08.943,4 Dec 2013 04:12:24.417,855.473
11,4 Dec 2013 05:41:09.540,4 Dec 2013 05:57:53.527,1003.987
12,4 Dec 2013 07:26:31.091,4 Dec 2013 07:42:17.051,945.960
13,4 Dec 2013 09:09:21.281,4 Dec 2013 09:25:33.061,971.781
14,4 Dec 2013 10:51:26.402,4 Dec 2013 11:07:41.943,975.541
15,4 Dec 2013 12:33:31.946,4 Dec 2013 12:49:16.536,944.590
16,4 Dec 2013 14:16:40.995,4 Dec 2013 14:30:45.587,844.591
17,4 Dec 2013 16:02:11.654,4 Dec 2013 16:16:07.430,835.776
18,4 Dec 2013 17:47:56.775,4 Dec 2013 18:05:50.341,1073.566
19,5 Dec 2013 01:49:00.580,5 Dec 2013 01:57:38.703,518.123
20,5 Dec 2013 03:30:36.951,5 Dec 2013 03:43:11.022,754.071
21,5 Dec 2013 05:12:27.576,5 Dec 2013 05:26:25.613,838.037
22,5 Dec 2013 06:53:29.535,5 Dec 2013 07:08:26.038,896.504
23,5 Dec 2013 08:33:41.468,5 Dec 2013 08:49:49.218,967.750
24,5 Dec 2013 10:13:49.423,5 Dec 2013 10:30:52.304,1022.881
25,5 Dec 2013 11:59:22.424,5 Dec 2013 12:16:38.128,1035.705
26,5 Dec 2013 13:50:30.795,5 Dec 2013 14:07:27.396,1016.601
27,5 Dec 2013 15:38:29.045,5 Dec 2013 15:56:26.404,1077.359
28,6 Dec 2013 08:04:55.493,6 Dec 2013 08:20:27.568,932.075
29,6 Dec 2013 09:51:02.467,6 Dec 2013 10:09:15.694,1093.227
30,6 Dec 2013 11:41:43.023,6 Dec 2013 11:59:09.369,1046.347
31,6 Dec 2013 13:30:37.914,6 Dec 2013 13:48:54.546,1096.632
32,6 Dec 2013 15:22:48.224,6 Dec 2013 15:29:33.281,405.057
33,7 Dec 2013 05:58:10.322,7 Dec 2013 06:12:44.695,874.373
34,7 Dec 2013 07:42:40.154,7 Dec 2013 08:00:39.601,1079.447
35,7 Dec 2013 09:34:00.797,7 Dec 2013 09:49:44.327,943.529
36,7 Dec 2013 11:23:33.770,7 Dec 2013 11:40:56.772,1043.003
37,7 Dec 2013 13:04:56.692,7 Dec 2013 13:21:53.431,1016.739
38,7 Dec 2013 14:46:03.916,7 Dec 2013 15:02:02.294,958.377
39,7 Dec 2013 16:27:33.762,7 Dec 2013 16:42:32.241,898.479
40,7 Dec 2013 18:09:49.988,7 Dec 2013 18:23:57.142,847.154
41,7 Dec 2013 19:53:30.469,7 Dec 2013 20:06:03.398,752.929
42,8 Dec 2013 03:48:44.193,8 Dec 2013 04:03:40.383,896.190
43,8 Dec 2013 05:32:46.631,8 Dec 2013 05:49:45.945,1019.315
44,8 Dec 2013 07:23:29.027,8 Dec 2013 07:35:15.687,706.660
45,8 Dec 2013 09:05:08.060,8 Dec 2013 09:19:53.892,885.833
46,8 Dec 2013 10:46:39.677,8 Dec 2013 11:02:36.464,956.787
47,8 Dec 2013 12:28:22.519,8 Dec 2013 12:44:36.029,973.510
48,8 Dec 2013 14:10:50.532,8 Dec 2013 14:26:49.107,958.575
49,8 Dec 2013 15:54:33.433,8 Dec 2013 16:09:57.407,923.974
50,8 Dec 2013 17:39:09.711,8 Dec 2013 17:56:53.580,1063.868
51,9 Dec 2013 01:37:24.047,9 Dec 2013 01:52:13.172,889.125

"Access","Start Time (UTCG)","Stop Time (UTCG)","Duration (sec)"
1,3 Dec 2013 05:45:27.320,3 Dec 2013 05:54:02.456,515.136
2,3 Dec 2013 07:25:07.502,3 Dec 2013 07:43:12.995,1085.493
3,3 Dec 2013 09:15:46.046,3 Dec 2013 09:30:13.385,867.340
4,3 Dec 2013 11:05:10.386,3 Dec 2013 11:19:19.478,849.092
5,3 Dec 2013 12:45:42.169,3 Dec 2013 13:02:16.418,994.249
6,3 Dec 2013 14:26:43.178,3 Dec 2013 14:43:52.474,1029.296
7,3 Dec 2013 16:08:11.080,3 Dec 2013 16:25:29.088,1038.008
8,3 Dec 2013 17:50:26.088,3 Dec 2013 18:07:52.528,1046.439
9,3 Dec 2013 19:33:44.837,3 Dec 2013 19:51:17.567,1052.730
10,3 Dec 2013 21:19:55.359,3 Dec 2013 21:31:08.077,672.717
11,4 Dec 2013 03:35:08.757,4 Dec 2013 03:44:29.720,560.963
12,4 Dec 2013 05:14:14.727,4 Dec 2013 05:31:55.516,1060.790
13,4 Dec 2013 07:00:37.234,4 Dec 2013 07:16:15.865,938.631
14,4 Dec 2013 08:43:44.448,4 Dec 2013 08:59:51.313,966.864
15,4 Dec 2013 10:25:57.118,4 Dec 2013 10:42:14.351,977.234
16,4 Dec 2013 12:07:57.394,4 Dec 2013 12:23:54.252,956.858
17,4 Dec 2013 13:50:43.629,4 Dec 2013 14:05:22.945,879.316
18,4 Dec 2013 15:35:32.718,4 Dec 2013 15:47:14.044,701.326
19,4 Dec 2013 17:21:28.648,4 Dec 2013 17:39:22.661,1074.013
20,4 Dec 2013 19:09:12.991,4 Dec 2013 19:20:20.441,667.450
21,5 Dec 2013 01:24:27.583,5 Dec 2013 01:30:28.076,360.493
22,5 Dec 2013 03:05:06.905,5 Dec 2013 03:17:05.004,718.099
23,5 Dec 2013 04:47:03.303,5 Dec 2013 05:00:45.626,822.323
24,5 Dec 2013 06:28:19.568,5 Dec 2013 06:43:00.635,881.067
25,5 Dec 2013 08:08:41.333,5 Dec 2013 08:24:30.523,949.191
26,5 Dec 2013 09:48:44.014,5 Dec 2013 10:05:38.517,1014.502
27,5 Dec 2013 11:31:32.786,5 Dec 2013 11:49:25.831,1073.045
28,5 Dec 2013 13:23:03.129,5 Dec 2013 13:39:31.936,988.807
29,5 Dec 2013 15:11:35.412,5 Dec 2013 15:29:51.263,1095.851
30,5 Dec 2013 17:00:59.303,5 Dec 2013 17:11:38.692,639.389
31,6 Dec 2013 07:40:14.429,6 Dec 2013 07:52:19.749,725.321
32,6 Dec 2013 09:23:47.238,6 Dec 2013 09:42:10.281,1103.042
33,6 Dec 2013 11:14:05.262,6 Dec 2013 11:31:25.362,1040.100
34,6 Dec 2013 13:03:32.257,6 Dec 2013 13:21:55.278,1103.021
35,6 Dec 2013 14:53:10.347,6 Dec 2013 15:06:25.448,795.101
36,7 Dec 2013 05:34:25.397,7 Dec 2013 05:44:33.514,608.117
37,7 Dec 2013 07:15:37.933,7 Dec 2013 07:33:50.891,1092.959
38,7 Dec 2013 09:06:02.057,7 Dec 2013 09:22:01.472,959.415
39,7 Dec 2013 10:56:28.191,7 Dec 2013 11:13:52.242,1044.052
40,7 Dec 2013 12:39:43.033,7 Dec 2013 12:56:46.929,1023.896
41,7 Dec 2013 14:20:45.401,7 Dec 2013 14:37:00.363,974.962
42,7 Dec 2013 16:02:08.232,7 Dec 2013 16:17:20.138,911.907
43,7 Dec 2013 17:44:09.651,7 Dec 2013 17:58:30.690,861.039
44,7 Dec 2013 19:27:24.926,7 Dec 2013 19:40:30.551,785.625
45,7 Dec 2013 21:12:49.202,7 Dec 2013 21:21:11.922,502.720
46,8 Dec 2013 03:25:07.999,8 Dec 2013 03:35:59.833,651.834
47,8 Dec 2013 05:05:41.733,8 Dec 2013 05:23:30.405,1068.671
48,8 Dec 2013 06:58:02.863,8 Dec 2013 07:08:38.592,635.729
49,8 Dec 2013 08:39:44.308,8 Dec 2013 08:53:58.279,853.970
50,8 Dec 2013 10:21:16.770,8 Dec 2013 10:37:02.457,945.686
51,8 Dec 2013 12:02:54.054,8 Dec 2013 12:19:06.770,972.717
52,8 Dec 2013 13:45:07.281,8 Dec 2013 14:01:12.123,964.841
53,8 Dec 2013 15:28:30.217,8 Dec 2013 15:44:03.161,932.944
54,8 Dec 2013 17:12:53.612,8 Dec 2013 17:30:38.647,1065.035
55,8 Dec 2013 19:00:24.380,8 Dec 2013 19:10:16.277,591.897
56,9 Dec 2013 01:14:09.796,9 Dec 2013 01:24:39.147,629.351

"Access","Start Time (UTCG)","Stop Time (UTCG)","Duration (sec)"
1,3 Dec 2013 06:58:50.562,3 Dec 2013 07:16:33.098,1062.536
2,3 Dec 2013 08:47:26.320,3 Dec 2013 09:03:12.085,945.765
3,3 Dec 2013 10:40:07.188,3 Dec 2013 10:53:06.886,779.698
4,3 Dec 2013 12:20:30.445,3 Dec 2013 12:36:43.933,973.488
5,3 Dec 2013 14:01:25.919,3 Dec 2013 14:18:30.926,1025.007
6,3 Dec 2013 15:42:45.600,3 Dec 2013 16:00:01.797,1036.197
7,3 Dec 2013 17:24:46.740,3 Dec 2013 17:42:10.954,1044.213
8,3 Dec 2013 19:07:48.889,3 Dec 2013 19:25:20.855,1051.966
9,3 Dec 2013 20:52:29.718,3 Dec 2013 21:07:38.225,908.507
10,4 Dec 2013 04:48:04.768,4 Dec 2013 05:05:44.723,1059.956
11,4 Dec 2013 06:34:37.891,4 Dec 2013 06:50:10.266,932.375
12,4 Dec 2013 08:18:04.169,4 Dec 2013 08:34:04.843,960.674
13,4 Dec 2013 10:00:26.978,4 Dec 2013 10:16:44.058,977.079
14,4 Dec 2013 11:42:25.631,4 Dec 2013 11:58:31.363,965.732
15,4 Dec 2013 13:24:53.859,4 Dec 2013 13:40:00.641,906.782
16,4 Dec 2013 15:09:04.029,4 Dec 2013 15:21:31.811,747.782
17,4 Dec 2013 16:55:04.848,4 Dec 2013 17:12:16.112,1031.264
18,4 Dec 2013 18:41:31.964,4 Dec 2013 18:56:35.376,903.412
19,5 Dec 2013 02:39:38.758,5 Dec 2013 02:50:49.546,670.788
20,5 Dec 2013 04:21:36.261,5 Dec 2013 04:35:00.370,804.109
21,5 Dec 2013 06:03:05.931,5 Dec 2013 06:17:32.491,866.560
22,5 Dec 2013 07:43:39.832,5 Dec 2013 07:59:10.597,930.765
23,5 Dec 2013 09:23:41.685,5 Dec 2013 09:40:23.276,1001.591
24,5 Dec 2013 11:04:14.657,5 Dec 2013 11:22:19.583,1084.926
25,5 Dec 2013 12:55:18.272,5 Dec 2013 13:11:40.699,982.428
26,5 Dec 2013 14:44:41.841,5 Dec 2013 15:02:45.912,1084.070
27,5 Dec 2013 16:32:50.473,5 Dec 2013 16:47:39.504,889.030
28,6 Dec 2013 07:19:12.305,6 Dec 2013 07:20:51.385,99.080
29,6 Dec 2013 08:56:56.694,6 Dec 2013 09:15:05.845,1089.151
30,6 Dec 2013 10:46:20.242,6 Dec 2013 11:03:50.484,1050.241
31,6 Dec 2013 12:36:24.506,6 Dec 2013 12:54:33.290,1088.783
32,6 Dec 2013 14:25:12.921,6 Dec 2013 14:41:21.111,968.190
33,7 Dec 2013 06:49:07.826,7 Dec 2013 07:07:01.238,1073.413
34,7 Dec 2013 08:38:00.755,7 Dec 2013 08:54:38.923,998.168
35,7 Dec 2013 10:29:14.330,7 Dec 2013 10:45:51.186,996.856
36,7 Dec 2013 12:14:31.121,7 Dec 2013 12:31:36.256,1025.135
37,7 Dec 2013 13:55:28.025,7 Dec 2013 14:11:58.969,990.944
38,7 Dec 2013 15:36:45.031,7 Dec 2013 15:52:11.449,926.418
39,7 Dec 2013 17:18:33.903,7 Dec 2013 17:33:07.543,873.640
40,7 Dec 2013 19:01:26.924,7 Dec 2013 19:14:57.843,810.919
41,7 Dec 2013 20:46:09.948,7 Dec 2013 20:57:02.766,652.818
42,8 Dec 2013 04:39:17.856,8 Dec 2013 04:57:08.243,1070.387
43,8 Dec 2013 06:29:08.996,8 Dec 2013 06:42:08.985,779.989
44,8 Dec 2013 08:14:19.893,8 Dec 2013 08:27:54.223,814.330
45,8 Dec 2013 09:55:54.070,8 Dec 2013 10:11:24.784,930.714
46,8 Dec 2013 11:37:27.809,8 Dec 2013 11:53:37.664,969.855
47,8 Dec 2013 13:19:28.539,8 Dec 2013 13:35:38.031,969.492
48,8 Dec 2013 15:02:31.885,8 Dec 2013 15:18:14.060,942.174
49,8 Dec 2013 16:46:47.523,8 Dec 2013 17:03:40.486,1012.964
50,8 Dec 2013 18:32:34.371,8 Dec 2013 18:47:03.011,868.641

"Access","Start Time (UTCG)","Stop Time (UTCG)","Duration (sec)"
1,3 Dec 2013 06:33:14.854,3 Dec 2013 06:49:41.908,987.054
2,3 Dec 2013 08:19:28.476,3 Dec 2013 08:36:26.548,1018.072
3,3 Dec 2013 10:12:22.935,3 Dec 2013 10:25:38.197,795.261
4,3 Dec 2013 11:55:20.669,3 Dec 2013 12:11:05.022,944.353
5,3 Dec 2013 13:36:10.030,3 Dec 2013 13:53:08.535,1018.505
6,3 Dec 2013 15:17:22.707,3 Dec 2013 15:34:37.054,1034.347
7,3 Dec 2013 16:59:11.303,3 Dec 2013 17:16:33.317,1042.014
8,3 Dec 2013 18:41:57.106,3 Dec 2013 18:59:27.596,1050.490
9,3 Dec 2013 20:25:51.238,3 Dec 2013 20:42:53.905,1022.667
10,4 Dec 2013 04:22:39.770,4 Dec 2013 04:39:17.750,997.981
11,4 Dec 2013 06:08:32.691,4 Dec 2013 06:24:00.882,928.191
12,4 Dec 2013 07:52:19.900,4 Dec 2013 08:08:13.441,953.541
13,4 Dec 2013 09:34:55.249,4 Dec 2013 09:51:10.484,975.236
14,4 Dec 2013 11:16:55.612,4 Dec 2013 11:33:07.432,971.820
15,4 Dec 2013 12:59:10.371,4 Dec 2013 13:14:38.571,928.199
16,4 Dec 2013 14:42:47.310,4 Dec 2013 14:56:08.585,801.275
17,4 Dec 2013 16:28:40.934,4 Dec 2013 16:44:30.655,949.721
18,4 Dec 2013 18:14:34.716,4 Dec 2013 18:31:37.126,1022.410
19,5 Dec 2013 02:14:15.122,5 Dec 2013 02:24:22.256,607.133
20,5 Dec 2013 03:56:07.157,5 Dec 2013 04:09:09.123,781.966
21,5 Dec 2013 05:37:48.560,5 Dec 2013 05:52:01.019,852.459
22,5 Dec 2013 07:18:36.128,5 Dec 2013 07:33:49.216,913.088
23,5 Dec 2013 08:58:41.225,5 Dec 2013 09:15:06.805,985.580
24,5 Dec 2013 10:38:59.188,5 Dec 2013 10:56:04.268,1025.080
25,5 Dec 2013 12:27:21.300,5 Dec 2013 12:44:02.052,1000.752
26,5 Dec 2013 14:17:42.199,5 Dec 2013 14:35:15.520,1053.321
27,5 Dec 2013 16:05:30.139,5 Dec 2013 16:22:25.855,1015.716
28,6 Dec 2013 08:30:36.578,6 Dec 2013 08:47:55.213,1038.635
29,6 Dec 2013 10:18:36.167,6 Dec 2013 10:36:27.722,1071.555
30,6 Dec 2013 12:09:09.301,6 Dec 2013 12:26:55.140,1065.839
31,6 Dec 2013 13:57:48.253,6 Dec 2013 14:15:25.573,1057.320
32,7 Dec 2013 06:23:15.095,7 Dec 2013 06:40:03.229,1008.135
33,7 Dec 2013 08:10:09.977,7 Dec 2013 08:27:33.562,1043.586
34,7 Dec 2013 10:01:46.155,7 Dec 2013 10:17:44.291,958.136
35,7 Dec 2013 11:49:21.452,7 Dec 2013 12:06:20.048,1018.596
36,7 Dec 2013 13:30:11.764,7 Dec 2013 13:46:57.038,1005.274
37,7 Dec 2013 15:11:23.706,7 Dec 2013 15:27:05.718,942.011
38,7 Dec 2013 16:53:02.136,7 Dec 2013 17:07:48.021,885.885
39,7 Dec 2013 18:35:35.522,7 Dec 2013 18:49:26.415,830.892
40,7 Dec 2013 20:19:44.827,7 Dec 2013 20:31:34.862,710.035
41,8 Dec 2013 04:13:36.143,8 Dec 2013 04:30:34.674,1018.531
42,8 Dec 2013 06:00:34.663,8 Dec 2013 06:15:57.945,923.282
43,8 Dec 2013 07:48:54.774,8 Dec 2013 08:01:40.459,765.686
44,8 Dec 2013 09:30:31.254,8 Dec 2013 09:45:42.321,911.067
45,8 Dec 2013 11:12:03.197,8 Dec 2013 11:28:07.868,964.671
46,8 Dec 2013 12:53:53.808,8 Dec 2013 13:10:06.217,972.409
47,8 Dec 2013 14:36:38.660,8 Dec 2013 14:52:29.562,950.902
48,8 Dec 2013 16:20:41.069,8 Dec 2013 16:35:57.293,916.224
49,8 Dec 2013 18:05:39.969,8 Dec 2013 18:22:24.601,1004.631
50,9 Dec 2013 02:01:59.292,9 Dec 2013 02:17:41.024,941.732

"Access","Start Time (UTCG)","Stop Time (UTCG)","Duration (sec)"
1,3 Dec 2013 01:24:23.812,3 Dec 2013 01:40:11.593,947.782
2,3 Dec 2013 03:09:56.943,3 Dec 2013 03:26:39.445,1002.502
3,3 Dec 2013 11:07:06.372,3 Dec 2013 11:21:43.175,876.803
4,3 Dec 2013 12:50:04.455,3 Dec 2013 13:05:51.590,947.135
5,3 Dec 2013 14:32:24.545,3 Dec 2013 14:48:35.887,971.343
6,3 Dec 2013 16:13:47.352,3 Dec 2013 16:30:20.859,993.508
7,3 Dec 2013 17:54:30.715,3 Dec 2013 18:11:32.654,1021.939
8,3 Dec 2013 19:35:30.268,3 Dec 2013 19:52:23.015,1012.747
9,3 Dec 2013 21:23:01.389,3 Dec 2013 21:39:01.021,959.633
10,3 Dec 2013 23:13:01.529,3 Dec 2013 23:30:34.221,1052.692
11,4 Dec 2013 01:00:36.066,4 Dec 2013 01:17:06.492,990.426
12,4 Dec 2013 17:25:08.204,4 Dec 2013 17:42:53.881,1065.677
13,4 Dec 2013 19:13:50.697,4 Dec 2013 19:31:33.265,1062.568
14,4 Dec 2013 21:04:13.711,4 Dec 2013 21:22:09.094,1075.382
15,4 Dec 2013 22:52:47.497,4 Dec 2013 23:09:54.125,1026.627
16,5 Dec 2013 15:17:58.982,5 Dec 2013 15:35:09.253,1030.271
17,5 Dec 2013 17:05:29.581,5 Dec 2013 17:22:54.804,1045.222
18,5 Dec 2013 18:56:43.442,5 Dec 2013 19:13:25.024,1001.582
19,5 Dec 2013 20:45:28.915,5 Dec 2013 21:02:43.688,1034.773
20,5 Dec 2013 22:26:45.338,5 Dec 2013 22:42:31.775,946.438
21,6 Dec 2013 00:08:13.236,6 Dec 2013 00:21:49.973,816.736
22,6 Dec 2013 01:50:08.203,6 Dec 2013 02:01:40.800,692.597
23,6 Dec 2013 03:33:09.453,6 Dec 2013 03:42:17.857,548.404
24,6 Dec 2013 13:08:41.455,6 Dec 2013 13:25:57.365,1035.909
25,6 Dec 2013 14:56:16.919,6 Dec 2013 15:11:43.669,926.750
26,6 Dec 2013 16:46:21.342,6 Dec 2013 16:58:27.303,725.961
27,6 Dec 2013 18:27:22.161,6 Dec 2013 18:42:39.416,917.254
28,6 Dec 2013 20:08:38.364,6 Dec 2013 20:25:01.887,983.523
29,6 Dec 2013 21:50:16.682,6 Dec 2013 22:06:59.141,1002.459
30,6 Dec 2013 23:32:43.832,6 Dec 2013 23:49:26.990,1003.158
31,7 Dec 2013 01:16:18.615,7 Dec 2013 01:33:00.129,1001.514
32,7 Dec 2013 03:01:11.607,7 Dec 2013 03:17:31.246,979.639
33,7 Dec 2013 10:57:19.451,7 Dec 2013 11:14:33.513,1034.062
34,7 Dec 2013 12:41:17.221,7 Dec 2013 12:58:47.804,1050.583
35,7 Dec 2013 14:24:38.297,7 Dec 2013 14:41:58.002,1039.706
36,7 Dec 2013 16:06:57.131,7 Dec 2013 16:24:06.185,1029.055
37,7 Dec 2013 17:48:42.449,7 Dec 2013 18:05:31.070,1008.621
38,7 Dec 2013 19:30:51.455,7 Dec 2013 19:46:32.222,940.767
39,7 Dec 2013 21:15:03.661,7 Dec 2013 21:28:30.008,806.347
40,7 Dec 2013 23:04:03.443,7 Dec 2013 23:21:14.673,1031.230
41,8 Dec 2013 00:50:55.267,8 Dec 2013 01:07:01.507,966.240
42,8 Dec 2013 13:55:38.346,8 Dec 2013 14:04:24.828,526.481
43,8 Dec 2013 15:33:14.594,8 Dec 2013 15:46:50.089,815.495
44,8 Dec 2013 17:14:17.293,8 Dec 2013 17:32:35.147,1097.854
45,8 Dec 2013 19:04:17.339,8 Dec 2013 19:21:30.090,1032.751
46,8 Dec 2013 20:54:21.188,8 Dec 2013 21:12:21.276,1080.088
47,8 Dec 2013 22:42:38.627,8 Dec 2013 22:58:51.679,973.053

"Access","Start Time (UTCG)","Stop Time (UTCG)","Duration (sec)"
1,3 Dec 2013 01:00:00.000,3 Dec 2013 01:11:47.325,707.325
2,3 Dec 2013 02:43:19.916,3 Dec 2013 03:01:05.439,1065.523
3,3 Dec 2013 10:41:21.521,3 Dec 2013 10:55:24.330,842.809
4,3 Dec 2013 12:24:21.999,3 Dec 2013 12:39:58.334,936.335
5,3 Dec 2013 14:06:54.727,3 Dec 2013 14:23:01.413,966.686
6,3 Dec 2013 15:48:31.731,3 Dec 2013 16:04:58.660,986.929
7,3 Dec 2013 17:29:21.096,3 Dec 2013 17:46:16.743,1015.647
8,3 Dec 2013 19:10:09.649,3 Dec 2013 19:27:12.851,1023.203
9,3 Dec 2013 20:54:55.772,3 Dec 2013 21:11:30.396,994.624
10,3 Dec 2013 22:45:57.894,3 Dec 2013 23:02:46.990,1009.097
11,4 Dec 2013 00:33:34.994,4 Dec 2013 00:51:20.715,1065.721
12,4 Dec 2013 16:59:07.089,4 Dec 2013 17:15:32.533,985.444
13,4 Dec 2013 18:46:10.981,4 Dec 2013 19:04:16.631,1085.651
14,4 Dec 2013 20:36:52.696,4 Dec 2013 20:54:25.988,1053.292
15,4 Dec 2013 22:25:34.755,4 Dec 2013 22:43:38.984,1084.229
16,5 Dec 2013 14:52:36.716,5 Dec 2013 15:07:54.068,917.352
17,5 Dec 2013 16:37:55.278,5 Dec 2013 16:55:54.103,1078.825
18,5 Dec 2013 18:29:06.816,5 Dec 2013 18:45:26.281,979.465
19,5 Dec 2013 20:18:21.868,5 Dec 2013 20:36:42.047,1100.180
20,5 Dec 2013 22:01:26.560,5 Dec 2013 22:17:40.417,973.857
21,5 Dec 2013 23:42:49.379,5 Dec 2013 23:56:59.333,849.954
22,6 Dec 2013 01:24:35.512,6 Dec 2013 01:36:38.022,722.509
23,6 Dec 2013 03:07:13.946,6 Dec 2013 03:17:06.663,592.716
24,6 Dec 2013 04:52:20.798,6 Dec 2013 04:57:15.747,294.949
25,6 Dec 2013 12:43:33.901,6 Dec 2013 12:59:05.264,931.364
26,6 Dec 2013 14:28:23.750,6 Dec 2013 14:45:20.812,1017.062
27,6 Dec 2013 16:21:13.106,6 Dec 2013 16:31:51.714,638.609
28,6 Dec 2013 18:02:04.946,6 Dec 2013 18:16:50.833,885.887
29,6 Dec 2013 19:43:18.036,6 Dec 2013 19:59:31.361,973.325
30,6 Dec 2013 21:24:48.669,6 Dec 2013 21:41:28.733,1000.064
31,6 Dec 2013 23:07:01.011,6 Dec 2013 23:23:44.950,1003.938
32,7 Dec 2013 00:50:18.661,7 Dec 2013 01:06:59.547,1000.886
33,7 Dec 2013 02:34:40.465,7 Dec 2013 02:52:14.405,1053.939
34,7 Dec 2013 10:32:25.811,7 Dec 2013 10:48:00.566,934.754
35,7 Dec 2013 12:15:16.477,7 Dec 2013 12:32:50.278,1053.802
36,7 Dec 2013 13:58:54.392,7 Dec 2013 14:16:16.605,1042.213
37,7 Dec 2013 15:41:27.148,7 Dec 2013 15:58:39.159,1032.012
38,7 Dec 2013 17:23:16.654,7 Dec 2013 17:40:12.591,1015.937
39,7 Dec 2013 19:05:12.663,7 Dec 2013 19:21:18.835,966.171
40,7 Dec 2013 20:48:38.689,7 Dec 2013 21:01:59.074,800.385
41,7 Dec 2013 22:37:18.610,7 Dec 2013 22:53:22.555,963.944
42,8 Dec 2013 00:24:00.325,8 Dec 2013 00:41:33.675,1053.350
43,8 Dec 2013 13:31:20.815,8 Dec 2013 13:38:36.232,435.418
44,8 Dec 2013 15:08:46.467,8 Dec 2013 15:21:19.020,752.553
45,8 Dec 2013 16:47:42.586,8 Dec 2013 17:05:21.209,1058.623
46,8 Dec 2013 18:36:26.969,8 Dec 2013 18:54:04.793,1057.823
47,8 Dec 2013 20:27:09.530,8 Dec 2013 20:44:42.566,1053.037
48,8 Dec 2013 22:15:24.850,8 Dec 2013 22:33:03.369,1058.519

"Access","Start Time (UTCG)","Stop Time (UTCG)","Duration (sec)"
1,3 Dec 2013 02:16:55.331,3 Dec 2013 02:34:48.640,1073.308
2,3 Dec 2013 04:04:53.840,3 Dec 2013 04:14:36.818,582.978
3,3 Dec 2013 10:18:21.433,3 Dec 2013 10:28:10.676,589.243
4,3 Dec 2013 11:58:37.632,3 Dec 2013 12:13:59.489,921.857
5,3 Dec 2013 13:41:21.254,3 Dec 2013 13:57:22.784,961.530
6,3 Dec 2013 15:23:12.935,3 Dec 2013 15:39:34.062,981.127
7,3 Dec 2013 17:04:11.285,3 Dec 2013 17:20:59.598,1008.314
8,3 Dec 2013 18:44:53.759,3 Dec 2013 19:02:00.849,1027.090
9,3 Dec 2013 20:26:54.244,3 Dec 2013 20:44:14.557,1040.313
10,3 Dec 2013 22:18:38.102,3 Dec 2013 22:34:47.473,969.371
11,4 Dec 2013 00:06:43.884,4 Dec 2013 00:24:56.422,1092.538
12,4 Dec 2013 01:56:31.517,4 Dec 2013 02:05:23.214,531.698
13,4 Dec 2013 16:33:53.801,4 Dec 2013 16:47:42.450,828.649
14,4 Dec 2013 18:18:46.305,4 Dec 2013 18:37:08.178,1101.873
15,4 Dec 2013 20:09:19.594,4 Dec 2013 20:26:40.528,1040.935
16,4 Dec 2013 21:58:29.620,4 Dec 2013 22:16:52.485,1102.866
17,4 Dec 2013 23:48:38.839,4 Dec 2013 23:59:56.375,677.536
18,5 Dec 2013 14:28:20.911,5 Dec 2013 14:39:58.546,697.635
19,5 Dec 2013 16:10:45.220,5 Dec 2013 16:29:00.477,1095.257
20,5 Dec 2013 18:01:16.568,5 Dec 2013 18:17:38.670,982.102
21,5 Dec 2013 19:51:16.175,5 Dec 2013 20:09:12.460,1076.285
22,5 Dec 2013 21:36:09.348,5 Dec 2013 21:52:46.062,996.715
23,5 Dec 2013 23:17:26.812,5 Dec 2013 23:32:10.109,883.296
24,6 Dec 2013 00:59:05.869,6 Dec 2013 01:11:38.768,752.899
25,6 Dec 2013 02:41:26.276,6 Dec 2013 02:51:55.856,629.581
26,6 Dec 2013 04:25:35.467,6 Dec 2013 04:32:29.904,414.436
27,6 Dec 2013 12:19:32.431,6 Dec 2013 12:31:36.294,723.863
28,6 Dec 2013 14:01:10.092,6 Dec 2013 14:18:58.461,1068.370
29,6 Dec 2013 15:53:48.877,6 Dec 2013 16:04:56.232,667.355
30,6 Dec 2013 17:36:48.658,6 Dec 2013 17:50:53.997,845.339
31,6 Dec 2013 19:17:58.682,6 Dec 2013 19:33:58.267,959.585
32,6 Dec 2013 20:59:23.262,6 Dec 2013 21:15:59.618,996.356
33,6 Dec 2013 22:41:22.425,6 Dec 2013 22:58:06.641,1004.216
34,7 Dec 2013 00:24:22.714,7 Dec 2013 00:41:03.965,1001.251
35,7 Dec 2013 02:08:26.437,7 Dec 2013 02:26:11.889,1065.452
36,7 Dec 2013 03:56:29.849,7 Dec 2013 04:04:23.151,473.302
37,7 Dec 2013 10:08:39.916,7 Dec 2013 10:20:46.679,726.763
38,7 Dec 2013 11:49:11.945,7 Dec 2013 12:06:49.109,1057.164
39,7 Dec 2013 13:33:06.277,7 Dec 2013 13:50:31.098,1044.822
40,7 Dec 2013 15:15:54.332,7 Dec 2013 15:33:09.016,1034.684
41,7 Dec 2013 16:57:51.114,7 Dec 2013 17:14:52.506,1021.392
42,7 Dec 2013 18:39:39.197,7 Dec 2013 18:56:04.117,984.921
43,7 Dec 2013 20:22:32.160,7 Dec 2013 20:36:53.259,861.099
44,7 Dec 2013 22:10:19.382,7 Dec 2013 22:25:07.215,887.833
45,7 Dec 2013 23:57:18.343,8 Dec 2013 00:15:23.331,1084.988
46,8 Dec 2013 01:47:11.785,8 Dec 2013 01:54:03.627,411.842
47,8 Dec 2013 13:07:09.157,8 Dec 2013 13:12:37.198,328.041
48,8 Dec 2013 14:44:21.388,8 Dec 2013 14:55:44.850,683.463
49,8 Dec 2013 16:22:23.060,8 Dec 2013 16:37:50.503,927.444
50,8 Dec 2013 18:08:44.962,8 Dec 2013 18:26:50.411,1085.450
51,8 Dec 2013 19:59:44.825,8 Dec 2013 20:16:54.709,1029.883
52,8 Dec 2013 21:48:22.880,8 Dec 2013 22:06:37.751,1094.871
53,8 Dec 2013 23:39:28.357,8 Dec 2013 23:46:55.091,446.734

"Access","Start Time (UTCG)","Stop Time (UTCG)","Duration (sec)"
1,3 Dec 2013 01:50:37.785,3 Dec 2013 02:07:51.161,1033.376
2,3 Dec 2013 03:36:57.284,3 Dec 2013 03:51:21.159,863.875
3,3 Dec 2013 11:32:52.115,3 Dec 2013 11:47:54.627,902.512
4,3 Dec 2013 13:15:44.375,3 Dec 2013 13:31:39.631,955.255
5,3 Dec 2013 14:57:50.598,3 Dec 2013 15:14:06.620,976.022
6,3 Dec 2013 16:39:00.314,3 Dec 2013 16:55:41.058,1000.744
7,3 Dec 2013 18:19:41.207,3 Dec 2013 18:36:47.382,1026.176
8,3 Dec 2013 20:00:57.177,3 Dec 2013 20:17:30.775,993.598
9,3 Dec 2013 21:50:58.557,3 Dec 2013 22:06:48.367,949.811
10,3 Dec 2013 23:39:54.827,3 Dec 2013 23:57:59.417,1084.590
11,4 Dec 2013 01:28:00.984,4 Dec 2013 01:42:01.266,840.282
12,4 Dec 2013 16:10:16.752,4 Dec 2013 16:18:32.846,496.094
13,4 Dec 2013 17:51:43.518,4 Dec 2013 18:10:02.765,1099.247
14,4 Dec 2013 19:41:36.663,4 Dec 2013 19:59:01.313,1044.650
15,4 Dec 2013 21:31:24.550,4 Dec 2013 21:49:40.520,1095.970
16,4 Dec 2013 23:20:19.719,4 Dec 2013 23:35:28.345,908.625
17,5 Dec 2013 15:44:04.737,5 Dec 2013 16:02:07.869,1083.133
18,5 Dec 2013 17:33:20.311,5 Dec 2013 17:50:08.245,1007.934
19,5 Dec 2013 19:24:05.312,5 Dec 2013 19:41:24.096,1038.784
20,5 Dec 2013 21:10:54.022,5 Dec 2013 21:27:47.540,1013.518
21,5 Dec 2013 22:52:05.461,5 Dec 2013 23:07:21.294,915.833
22,6 Dec 2013 00:33:38.618,6 Dec 2013 00:46:42.891,784.273
23,6 Dec 2013 02:15:44.787,6 Dec 2013 02:26:46.922,662.135
24,6 Dec 2013 03:59:15.206,6 Dec 2013 04:07:27.046,491.840
25,6 Dec 2013 11:58:56.691,6 Dec 2013 12:01:13.020,136.329
26,6 Dec 2013 13:34:35.570,6 Dec 2013 13:52:32.326,1076.756
27,6 Dec 2013 15:24:48.287,6 Dec 2013 15:38:12.379,804.092
28,6 Dec 2013 17:11:33.808,6 Dec 2013 17:24:46.955,793.147
29,6 Dec 2013 18:52:40.089,6 Dec 2013 19:08:21.401,941.312
30,6 Dec 2013 20:33:59.976,6 Dec 2013 20:50:30.971,990.995
31,6 Dec 2013 22:15:47.782,6 Dec 2013 22:32:31.562,1003.779
32,6 Dec 2013 23:58:31.059,7 Dec 2013 00:15:13.205,1002.146
33,7 Dec 2013 01:42:22.167,7 Dec 2013 01:59:25.178,1023.011
34,7 Dec 2013 03:28:12.168,7 Dec 2013 03:41:50.695,818.527
35,7 Dec 2013 09:48:29.939,7 Dec 2013 09:50:26.944,117.005
36,7 Dec 2013 11:23:02.139,7 Dec 2013 11:40:44.514,1062.375
37,7 Dec 2013 13:07:13.873,7 Dec 2013 13:24:41.468,1047.594
38,7 Dec 2013 14:50:18.178,7 Dec 2013 15:07:35.401,1037.223
39,7 Dec 2013 16:32:24.881,7 Dec 2013 16:49:30.497,1025.617
40,7 Dec 2013 18:14:09.566,7 Dec 2013 18:30:48.202,998.636
41,7 Dec 2013 19:56:37.278,7 Dec 2013 20:11:43.918,906.640
42,7 Dec 2013 21:42:56.701,7 Dec 2013 21:56:43.189,826.488
43,7 Dec 2013 23:30:41.349,7 Dec 2013 23:48:36.065,1074.716
44,8 Dec 2013 01:18:18.936,8 Dec 2013 01:31:32.001,793.065
45,8 Dec 2013 12:43:17.410,8 Dec 2013 12:46:12.648,175.239
46,8 Dec 2013 14:19:58.747,8 Dec 2013 14:30:07.095,608.348
47,8 Dec 2013 15:57:46.524,8 Dec 2013 16:12:18.299,871.775
48,8 Dec 2013 17:41:19.724,8 Dec 2013 17:59:42.489,1102.765
49,8 Dec 2013 19:32:06.111,8 Dec 2013 19:49:07.834,1021.723
50,8 Dec 2013 21:21:23.827,8 Dec 2013 21:39:41.892,1098.065
51,8 Dec 2013 23:10:20.762,8 Dec 2013 23:23:47.743,806.981

"Access","Start Time (UTCG)","Stop Time (UTCG)","Duration (sec)"
1,3 Dec 2013 01:03:09.150,3 Dec 2013 01:14:31.905,682.755
2,3 Dec 2013 02:46:34.605,3 Dec 2013 03:04:58.558,1103.954
3,3 Dec 2013 04:36:54.743,3 Dec 2013 04:54:12.101,1037.358
4,3 Dec 2013 06:26:25.283,3 Dec 2013 06:44:44.959,1099.677
5,3 Dec 2013 08:15:30.426,3 Dec 2013 08:29:28.826,838.399
6,3 Dec 2013 22:59:51.132,3 Dec 2013 23:05:45.894,354.762
7,4 Dec 2013 00:39:01.373,4 Dec 2013 00:57:12.491,1091.118
8,4 Dec 2013 02:28:37.325,4 Dec 2013 02:45:34.490,1017.164
9,4 Dec 2013 04:18:57.746,4 Dec 2013 04:36:46.292,1068.546
10,4 Dec 2013 06:07:27.394,4 Dec 2013 06:23:33.678,966.283
11,4 Dec 2013 07:49:09.363,4 Dec 2013 08:02:01.809,772.446
12,4 Dec 2013 09:31:36.380,4 Dec 2013 09:39:51.055,494.675
13,4 Dec 2013 20:51:44.447,4 Dec 2013 20:58:07.293,382.846
14,4 Dec 2013 22:29:52.196,4 Dec 2013 22:47:53.882,1081.687
15,5 Dec 2013 00:20:20.290,5 Dec 2013 00:34:14.470,834.180
16,5 Dec 2013 02:08:31.167,5 Dec 2013 02:21:57.920,806.753
17,5 Dec 2013 03:49:15.605,5 Dec 2013 04:05:20.979,965.374
18,5 Dec 2013 05:30:24.105,5 Dec 2013 05:47:18.009,1013.905
19,5 Dec 2013 07:12:00.569,5 Dec 2013 07:29:10.431,1029.862
20,5 Dec 2013 08:54:27.677,5 Dec 2013 09:11:47.132,1039.456
21,5 Dec 2013 10:37:58.944,5 Dec 2013 10:55:30.030,1051.087
22,5 Dec 2013 12:23:58.172,5 Dec 2013 12:36:33.440,755.268
23,5 Dec 2013 18:41:09.889,5 Dec 2013 18:48:09.393,419.503
24,5 Dec 2013 20:18:38.320,5 Dec 2013 20:36:20.312,1061.991
25,5 Dec 2013 22:03:39.876,5 Dec 2013 22:20:29.476,1009.600
26,5 Dec 2013 23:46:51.349,6 Dec 2013 00:03:41.095,1009.746
27,6 Dec 2013 01:29:05.500,6 Dec 2013 01:45:48.984,1003.484
28,6 Dec 2013 03:11:02.169,6 Dec 2013 03:27:16.780,974.611
29,6 Dec 2013 04:53:44.920,6 Dec 2013 05:08:26.779,881.859
30,6 Dec 2013 06:39:08.732,6 Dec 2013 06:51:56.266,767.534
31,6 Dec 2013 08:26:03.969,6 Dec 2013 08:43:58.410,1074.441
32,6 Dec 2013 10:13:42.301,6 Dec 2013 10:25:57.915,735.615
33,6 Dec 2013 18:15:06.192,6 Dec 2013 18:17:05.953,119.761
34,6 Dec 2013 19:54:09.175,6 Dec 2013 20:03:08.637,539.462
35,6 Dec 2013 21:34:22.448,6 Dec 2013 21:45:51.965,689.517
36,6 Dec 2013 23:13:48.799,6 Dec 2013 23:27:41.731,832.933
37,7 Dec 2013 00:52:59.152,7 Dec 2013 01:09:07.451,968.299
38,7 Dec 2013 02:36:21.849,7 Dec 2013 02:54:34.995,1093.145
39,7 Dec 2013 04:27:32.560,7 Dec 2013 04:44:18.934,1006.374
40,7 Dec 2013 06:16:28.809,7 Dec 2013 06:34:46.582,1097.773
41,7 Dec 2013 08:05:36.792,7 Dec 2013 08:17:46.093,729.301
42,7 Dec 2013 22:46:49.960,7 Dec 2013 22:56:45.532,595.572
43,8 Dec 2013 00:28:51.119,8 Dec 2013 00:47:11.455,1100.336
44,8 Dec 2013 02:18:51.189,8 Dec 2013 02:36:09.148,1037.959
45,8 Dec 2013 04:08:35.720,8 Dec 2013 04:26:53.892,1098.173
46,8 Dec 2013 05:57:51.536,8 Dec 2013 06:12:40.325,888.789
47,8 Dec 2013 20:40:38.209,8 Dec 2013 20:48:57.640,499.431
48,8 Dec 2013 22:20:29.690,8 Dec 2013 22:38:39.209,1089.519
49,9 Dec 2013 00:10:44.330,9 Dec 2013 00:26:19.359,935.029
50,9 Dec 2013 02:01:43.383,9 Dec 2013 02:17:41.024,957.641

"Access","Start Time (UTCG)","Stop Time (UTCG)","Duration (sec)"
1,3 Dec 2013 02:19:44.637,3 Dec 2013 02:37:50.906,1086.269
2,3 Dec 2013 04:09:07.914,3 Dec 2013 04:26:38.721,1050.807
3,3 Dec 2013 05:59:18.582,3 Dec 2013 06:17:20.864,1082.282
4,3 Dec 2013 07:47:48.666,3 Dec 2013 08:04:18.373,989.707
5,4 Dec 2013 00:12:42.957,4 Dec 2013 00:30:13.012,1050.055
6,4 Dec 2013 02:00:47.307,4 Dec 2013 02:18:13.862,1046.555
7,4 Dec 2013 03:51:40.790,4 Dec 2013 04:08:56.123,1035.333
8,4 Dec 2013 05:40:23.835,4 Dec 2013 05:58:24.978,1081.143
9,4 Dec 2013 07:23:40.123,4 Dec 2013 07:37:30.480,830.357
10,4 Dec 2013 09:05:53.926,4 Dec 2013 09:15:25.086,571.160
11,4 Dec 2013 10:49:47.861,4 Dec 2013 10:52:37.307,169.446
12,4 Dec 2013 22:03:46.367,4 Dec 2013 22:21:16.744,1050.378
13,4 Dec 2013 23:51:54.101,5 Dec 2013 00:07:28.676,934.575
14,5 Dec 2013 01:43:28.768,5 Dec 2013 01:55:38.328,729.560
15,5 Dec 2013 03:24:01.528,5 Dec 2013 03:39:42.415,940.886
16,5 Dec 2013 05:05:05.051,5 Dec 2013 05:21:51.734,1006.682
17,5 Dec 2013 06:46:32.638,5 Dec 2013 07:03:39.600,1026.962
18,5 Dec 2013 08:28:45.031,5 Dec 2013 08:46:02.161,1037.130
19,5 Dec 2013 10:12:00.260,5 Dec 2013 10:29:27.931,1047.671
20,5 Dec 2013 11:56:47.894,5 Dec 2013 12:12:36.173,948.279
21,5 Dec 2013 19:52:41.554,5 Dec 2013 20:10:10.658,1049.104
22,5 Dec 2013 21:37:40.335,5 Dec 2013 21:54:31.063,1010.728
23,5 Dec 2013 23:21:09.967,5 Dec 2013 23:37:59.683,1009.716
24,6 Dec 2013 01:03:35.519,6 Dec 2013 01:20:21.900,1006.381
25,6 Dec 2013 02:45:31.621,6 Dec 2013 03:01:57.082,985.461
26,6 Dec 2013 04:27:55.357,6 Dec 2013 04:43:10.528,915.171
27,6 Dec 2013 06:12:14.745,6 Dec 2013 06:24:05.031,710.286
28,6 Dec 2013 07:59:33.309,6 Dec 2013 08:16:43.894,1030.585
29,6 Dec 2013 09:46:11.538,6 Dec 2013 10:01:48.597,937.059
30,6 Dec 2013 19:29:03.224,6 Dec 2013 19:37:10.551,487.326
31,6 Dec 2013 21:09:23.144,6 Dec 2013 21:20:18.331,655.187
32,6 Dec 2013 22:49:00.962,6 Dec 2013 23:02:16.985,796.023
33,7 Dec 2013 00:28:09.520,7 Dec 2013 00:43:48.084,938.564
34,7 Dec 2013 02:09:04.669,7 Dec 2013 02:27:28.523,1103.854
35,7 Dec 2013 03:59:44.761,7 Dec 2013 04:16:34.780,1010.019
36,7 Dec 2013 05:49:30.705,7 Dec 2013 06:07:33.358,1082.653
37,7 Dec 2013 07:37:43.216,7 Dec 2013 07:53:16.382,933.167
38,8 Dec 2013 00:02:13.149,8 Dec 2013 00:20:07.696,1074.547
39,8 Dec 2013 01:51:04.851,8 Dec 2013 02:08:39.117,1054.266
40,8 Dec 2013 03:41:24.910,8 Dec 2013 03:59:22.293,1077.383
41,8 Dec 2013 05:30:09.456,8 Dec 2013 05:47:06.855,1017.399
42,8 Dec 2013 21:54:10.340,8 Dec 2013 22:11:52.333,1061.992
43,8 Dec 2013 23:42:38.126,8 Dec 2013 23:59:06.583,988.457
44,9 Dec 2013 01:34:25.349,9 Dec 2013 01:50:05.445,940.096

"Access","Start Time (UTCG)","Stop Time (UTCG)","Duration (sec)"
1,3 Dec 2013 01:53:25.026,3 Dec 2013 02:10:34.613,1029.587
2,3 Dec 2013 03:41:22.982,3 Dec 2013 03:59:17.163,1074.181
3,3 Dec 2013 05:32:02.794,3 Dec 2013 05:49:41.287,1058.493
4,3 Dec 2013 07:20:32.888,3 Dec 2013 07:38:19.908,1067.020
5,3 Dec 2013 23:47:04.076,4 Dec 2013 00:03:00.438,956.362
6,4 Dec 2013 01:33:09.254,4 Dec 2013 01:51:06.703,1077.449
7,4 Dec 2013 03:24:11.306,4 Dec 2013 03:41:00.815,1009.509
8,4 Dec 2013 05:13:12.948,4 Dec 2013 05:31:36.336,1103.388
9,4 Dec 2013 06:58:13.352,4 Dec 2013 07:12:55.962,882.610
10,4 Dec 2013 08:40:15.854,4 Dec 2013 08:50:58.410,642.557
11,4 Dec 2013 10:23:24.094,4 Dec 2013 10:28:35.479,311.385
12,4 Dec 2013 21:38:24.324,4 Dec 2013 21:54:25.560,961.235
13,4 Dec 2013 23:23:57.753,4 Dec 2013 23:40:54.469,1016.716
14,5 Dec 2013 01:17:34.880,5 Dec 2013 01:28:59.015,684.135
15,5 Dec 2013 02:58:48.980,5 Dec 2013 03:13:57.094,908.114
16,5 Dec 2013 04:39:47.387,5 Dec 2013 04:56:24.267,996.881
17,5 Dec 2013 06:21:07.525,5 Dec 2013 06:38:11.076,1023.551
18,5 Dec 2013 08:03:06.441,5 Dec 2013 08:20:21.266,1034.825
19,5 Dec 2013 09:46:05.368,5 Dec 2013 10:03:29.992,1044.624
20,5 Dec 2013 11:30:14.172,5 Dec 2013 11:47:34.761,1040.589
21,5 Dec 2013 19:27:31.512,5 Dec 2013 19:43:41.707,970.195
22,5 Dec 2013 21:11:35.889,5 Dec 2013 21:28:28.969,1013.079
23,5 Dec 2013 22:55:24.482,5 Dec 2013 23:12:13.949,1009.467
24,6 Dec 2013 00:38:03.589,6 Dec 2013 00:54:51.853,1008.264
25,6 Dec 2013 02:20:02.668,6 Dec 2013 02:36:36.137,993.469
26,6 Dec 2013 04:02:12.714,6 Dec 2013 04:17:53.397,940.683
27,6 Dec 2013 05:45:52.204,6 Dec 2013 05:58:54.970,782.766
28,6 Dec 2013 07:32:58.957,6 Dec 2013 07:48:54.323,955.366
29,6 Dec 2013 09:19:15.954,6 Dec 2013 09:36:35.093,1039.138
30,6 Dec 2013 19:04:01.145,6 Dec 2013 19:11:00.288,419.143
31,6 Dec 2013 20:44:20.663,6 Dec 2013 20:54:40.719,620.057
32,6 Dec 2013 22:24:11.056,6 Dec 2013 22:36:50.697,759.641
33,7 Dec 2013 00:03:22.004,7 Dec 2013 00:18:27.269,905.265
34,7 Dec 2013 01:42:49.340,7 Dec 2013 02:00:18.683,1049.343
35,7 Dec 2013 03:31:50.258,7 Dec 2013 03:49:03.359,1033.101
36,7 Dec 2013 05:22:24.935,7 Dec 2013 05:39:58.463,1053.528
37,7 Dec 2013 07:10:26.521,7 Dec 2013 07:27:44.960,1038.439
38,7 Dec 2013 23:36:08.897,7 Dec 2013 23:52:54.792,1005.895
39,8 Dec 2013 01:23:23.537,8 Dec 2013 01:41:21.691,1078.154
40,8 Dec 2013 03:14:04.979,8 Dec 2013 03:31:38.174,1053.195
41,8 Dec 2013 05:02:50.809,8 Dec 2013 05:20:51.870,1081.061
42,8 Dec 2013 21:28:31.076,8 Dec 2013 21:44:54.573,983.497
43,8 Dec 2013 23:14:48.095,8 Dec 2013 23:32:10.100,1042.006
44,9 Dec 2013 01:06:48.942,9 Dec 2013 01:21:52.468,903.525

"Access","Start Time (UTCG)","Stop Time (UTCG)","Duration (sec)"
1,3 Dec 2013 01:27:44.974,3 Dec 2013 01:42:57.540,912.566
2,3 Dec 2013 03:13:49.319,3 Dec 2013 03:32:05.307,1095.988
3,3 Dec 2013 05:04:34.738,3 Dec 2013 05:21:55.219,1040.481
4,3 Dec 2013 06:53:27.948,3 Dec 2013 07:11:46.536,1098.588
5,3 Dec 2013 08:44:23.509,3 Dec 2013 08:53:07.361,523.852
6,3 Dec 2013 23:22:21.690,3 Dec 2013 23:35:16.499,774.809
7,4 Dec 2013 01:05:51.887,4 Dec 2013 01:24:08.168,1096.281
8,4 Dec 2013 02:56:28.538,4 Dec 2013 03:13:10.967,1002.429
9,4 Dec 2013 04:46:06.515,4 Dec 2013 05:04:21.898,1095.384
10,4 Dec 2013 06:32:49.065,4 Dec 2013 06:48:17.326,928.261
11,4 Dec 2013 08:14:41.176,4 Dec 2013 08:26:30.849,709.672
12,4 Dec 2013 09:57:25.068,4 Dec 2013 10:04:15.543,410.475
13,4 Dec 2013 21:14:01.282,4 Dec 2013 21:27:04.338,783.056
14,4 Dec 2013 22:56:36.578,4 Dec 2013 23:14:24.656,1068.078
15,5 Dec 2013 00:49:02.185,5 Dec 2013 01:01:22.748,740.563
16,5 Dec 2013 02:33:38.517,5 Dec 2013 02:48:03.069,864.552
17,5 Dec 2013 04:14:30.920,5 Dec 2013 04:30:54.445,983.525
18,5 Dec 2013 05:55:44.810,5 Dec 2013 06:12:44.150,1019.340
19,5 Dec 2013 07:37:31.719,5 Dec 2013 07:54:44.154,1032.435
20,5 Dec 2013 09:20:14.465,5 Dec 2013 09:37:36.382,1041.917
21,5 Dec 2013 11:04:01.156,5 Dec 2013 11:21:45.528,1064.372
22,5 Dec 2013 12:53:14.915,5 Dec 2013 12:57:53.909,278.994
23,5 Dec 2013 19:03:21.091,5 Dec 2013 19:16:40.377,799.286
24,5 Dec 2013 20:45:20.472,5 Dec 2013 21:02:23.632,1023.160
25,5 Dec 2013 22:29:34.540,5 Dec 2013 22:46:23.852,1009.312
26,6 Dec 2013 00:12:29.056,6 Dec 2013 00:29:18.378,1009.322
27,6 Dec 2013 01:54:34.273,6 Dec 2013 02:11:13.579,999.306
28,6 Dec 2013 03:36:35.444,6 Dec 2013 03:52:35.495,960.051
29,6 Dec 2013 05:19:43.167,6 Dec 2013 05:33:41.811,838.644
30,6 Dec 2013 07:06:14.110,6 Dec 2013 07:20:34.322,860.212
31,6 Dec 2013 08:52:36.292,6 Dec 2013 09:10:36.225,1079.933
32,6 Dec 2013 10:43:40.789,6 Dec 2013 10:47:08.655,207.866
33,6 Dec 2013 18:39:10.388,6 Dec 2013 18:44:30.467,320.079
34,6 Dec 2013 20:19:15.629,6 Dec 2013 20:28:57.987,582.358
35,6 Dec 2013 21:59:18.369,6 Dec 2013 22:11:22.526,724.157
36,6 Dec 2013 23:38:35.471,6 Dec 2013 23:53:05.136,869.665
37,7 Dec 2013 01:17:52.047,7 Dec 2013 01:34:25.151,993.104
38,7 Dec 2013 03:03:59.386,7 Dec 2013 03:21:44.725,1065.339
39,7 Dec 2013 04:55:06.500,7 Dec 2013 05:12:10.156,1023.656
40,7 Dec 2013 06:43:25.106,7 Dec 2013 07:01:32.244,1087.138
41,7 Dec 2013 08:36:20.503,7 Dec 2013 08:39:00.561,160.058
42,7 Dec 2013 23:10:49.788,7 Dec 2013 23:25:19.289,869.501
43,8 Dec 2013 00:55:56.509,8 Dec 2013 01:14:14.090,1097.581
44,8 Dec 2013 02:46:33.285,8 Dec 2013 03:03:50.770,1037.485
45,8 Dec 2013 04:35:42.280,8 Dec 2013 04:54:05.617,1103.337
46,8 Dec 2013 06:26:30.086,8 Dec 2013 06:37:02.435,632.350
47,8 Dec 2013 21:03:44.900,8 Dec 2013 21:17:31.659,826.759
48,8 Dec 2013 22:47:23.539,8 Dec 2013 23:05:23.063,1079.524
49,9 Dec 2013 00:38:52.728,9 Dec 2013 00:53:54.387,901.659

