Raw and processed data/Inclination variations/us_greatcircle_12sat_60deg/Aircraft-B747LAX_Sydney-Transmitter-adsb_out6212-To-Satellite-700km_p1_1-Receiver-adsb_satrcvr2 Access.csv

"Access","Start Time (UTCG)","Stop Time (UTCG)","Duration (sec)"
1,3 Dec 2013 04:02:52.854,3 Dec 2013 04:06:10.653,197.799
2,3 Dec 2013 05:43:54.782,3 Dec 2013 06:00:31.589,996.807
3,3 Dec 2013 07:32:04.153,3 Dec 2013 07:44:08.790,724.637
4,3 Dec 2013 13:01:21.687,3 Dec 2013 13:16:37.201,915.514
5,3 Dec 2013 14:43:35.204,3 Dec 2013 14:58:47.521,912.317
6,3 Dec 2013 16:26:45.939,3 Dec 2013 16:39:57.635,791.696
7,3 Dec 2013 18:12:38.438,3 Dec 2013 18:19:44.441,426.002
8,4 Dec 2013 02:56:12.536,4 Dec 2013 02:59:44.340,211.804
9,4 Dec 2013 04:38:04.926,4 Dec 2013 04:50:45.490,760.564
10,4 Dec 2013 06:23:02.083,4 Dec 2013 06:39:59.125,1017.043
11,4 Dec 2013 08:15:50.111,4 Dec 2013 08:18:07.891,137.780
12,4 Dec 2013 13:46:11.938,4 Dec 2013 13:59:49.589,817.651
13,4 Dec 2013 15:27:36.830,4 Dec 2013 15:41:01.236,804.406
14,5 Dec 2013 03:44:26.322,5 Dec 2013 03:52:13.192,466.870
15,5 Dec 2013 05:20:42.646,5 Dec 2013 05:35:17.301,874.655
16,5 Dec 2013 07:02:32.516,5 Dec 2013 07:19:06.407,993.891
17,5 Dec 2013 14:31:43.933,5 Dec 2013 14:43:36.853,712.920
18,5 Dec 2013 16:11:33.268,5 Dec 2013 16:25:40.065,846.796
19,6 Dec 2013 04:29:58.962,6 Dec 2013 04:44:25.316,866.354
20,6 Dec 2013 06:08:00.735,6 Dec 2013 06:23:39.707,938.972
21,6 Dec 2013 07:47:44.755,6 Dec 2013 08:00:24.235,759.480
22,6 Dec 2013 15:17:24.989,6 Dec 2013 15:27:54.149,629.159
23,6 Dec 2013 16:56:01.143,6 Dec 2013 17:10:31.407,870.265
24,7 Dec 2013 03:39:14.424,7 Dec 2013 03:53:38.878,864.454
25,7 Dec 2013 05:17:08.571,7 Dec 2013 05:32:36.443,927.872
26,7 Dec 2013 06:58:21.119,7 Dec 2013 07:08:01.225,580.106
27,7 Dec 2013 16:02:54.414,7 Dec 2013 16:12:25.794,571.380
28,7 Dec 2013 17:40:40.309,7 Dec 2013 17:55:31.323,891.014
29,8 Dec 2013 01:12:21.073,8 Dec 2013 01:22:30.458,609.385
30,8 Dec 2013 02:48:01.334,8 Dec 2013 03:03:00.123,898.789
31,8 Dec 2013 04:26:16.078,8 Dec 2013 04:41:43.357,927.279
32,8 Dec 2013 06:08:04.499,8 Dec 2013 06:17:34.019,569.520
33,8 Dec 2013 16:48:11.373,8 Dec 2013 16:56:43.996,512.623
34,8 Dec 2013 18:25:12.829,8 Dec 2013 18:40:31.803,918.975
35,9 Dec 2013 01:51:37.935,9 Dec 2013 02:06:24.768,886.833
36,9 Dec 2013 03:35:21.352,9 Dec 2013 03:50:43.599,922.246
37,9 Dec 2013 05:16:43.738,9 Dec 2013 05:28:07.753,684.015
38,9 Dec 2013 17:33:32.062,9 Dec 2013 17:40:09.620,397.558
39,9 Dec 2013 19:09:23.922,9 Dec 2013 19:25:17.559,953.637
40,10 Dec 2013 02:30:07.189,10 Dec 2013 02:46:11.999,964.809
41,10 Dec 2013 04:16:53.034,10 Dec 2013 04:31:50.660,897.625

"Access","Start Time (UTCG)","Stop Time (UTCG)","Duration (sec)"
1,3 Dec 2013 01:42:44.743,3 Dec 2013 01:47:47.755,303.012
2,3 Dec 2013 05:17:55.197,3 Dec 2013 05:33:22.652,927.455
3,3 Dec 2013 07:04:04.000,3 Dec 2013 07:19:02.090,898.090
4,3 Dec 2013 12:36:38.489,3 Dec 2013 12:49:23.590,765.101
5,3 Dec 2013 14:18:00.829,3 Dec 2013 14:33:28.091,927.262
6,3 Dec 2013 16:00:48.457,3 Dec 2013 16:14:43.015,834.558
7,3 Dec 2013 17:45:41.742,3 Dec 2013 17:55:07.740,565.998
8,4 Dec 2013 04:11:41.388,4 Dec 2013 04:22:25.959,644.571
9,4 Dec 2013 05:56:38.849,4 Dec 2013 06:13:24.620,1005.770
10,4 Dec 2013 07:44:46.269,4 Dec 2013 07:56:19.779,693.510
11,4 Dec 2013 13:22:48.533,4 Dec 2013 13:31:36.789,528.256
12,4 Dec 2013 15:01:25.956,4 Dec 2013 15:17:02.005,936.049
13,5 Dec 2013 04:56:17.780,5 Dec 2013 05:10:00.464,822.684
14,5 Dec 2013 06:35:58.575,5 Dec 2013 06:52:58.067,1019.492
15,5 Dec 2013 08:26:13.978,5 Dec 2013 08:32:24.650,370.673
16,5 Dec 2013 14:11:53.164,5 Dec 2013 14:12:23.308,30.144
17,5 Dec 2013 15:45:36.016,5 Dec 2013 16:01:28.020,952.004
18,6 Dec 2013 04:05:54.123,6 Dec 2013 04:19:04.426,790.303
19,6 Dec 2013 05:43:19.201,6 Dec 2013 05:59:06.529,947.329
20,6 Dec 2013 07:22:39.777,6 Dec 2013 07:36:26.497,826.720
21,6 Dec 2013 16:30:10.955,6 Dec 2013 16:46:09.750,958.795
22,7 Dec 2013 03:15:18.200,7 Dec 2013 03:28:24.561,786.360
23,7 Dec 2013 04:52:23.764,7 Dec 2013 05:08:08.126,944.362
24,7 Dec 2013 06:32:34.563,7 Dec 2013 06:44:42.023,727.461
25,7 Dec 2013 17:14:54.099,7 Dec 2013 17:30:58.301,964.202
26,8 Dec 2013 00:49:01.212,8 Dec 2013 00:56:54.459,473.247
27,8 Dec 2013 02:23:50.765,8 Dec 2013 02:38:03.770,853.005
28,8 Dec 2013 04:01:27.810,8 Dec 2013 04:17:12.781,944.971
29,8 Dec 2013 05:42:02.087,8 Dec 2013 05:54:08.627,726.539
30,8 Dec 2013 17:59:31.536,8 Dec 2013 18:15:42.365,970.829
31,9 Dec 2013 01:27:06.738,9 Dec 2013 01:38:40.666,693.928
32,9 Dec 2013 03:09:34.346,9 Dec 2013 03:26:07.302,992.956
33,9 Dec 2013 04:51:01.125,9 Dec 2013 05:04:01.210,780.085
34,9 Dec 2013 18:43:51.511,9 Dec 2013 19:00:06.602,975.091
35,10 Dec 2013 02:04:45.612,10 Dec 2013 02:18:55.766,850.154
36,10 Dec 2013 03:49:27.430,10 Dec 2013 04:05:39.941,972.511
37,10 Dec 2013 05:41:14.157,10 Dec 2013 05:51:10.717,596.560

"Access","Start Time (UTCG)","Stop Time (UTCG)","Duration (sec)"
1,3 Dec 2013 01:12:51.235,3 Dec 2013 01:23:30.791,639.556
2,3 Dec 2013 04:52:13.042,3 Dec 2013 05:05:34.241,801.200
3,3 Dec 2013 06:36:52.779,3 Dec 2013 06:53:19.337,986.559
4,3 Dec 2013 12:13:01.697,3 Dec 2013 12:20:23.841,442.144
5,3 Dec 2013 13:52:04.750,3 Dec 2013 14:08:18.880,974.130
6,3 Dec 2013 15:34:58.147,3 Dec 2013 15:49:25.789,867.642
7,3 Dec 2013 17:19:09.359,3 Dec 2013 17:30:12.840,663.482
8,4 Dec 2013 03:44:49.373,4 Dec 2013 03:54:12.091,562.718
9,4 Dec 2013 05:30:25.461,4 Dec 2013 05:46:20.765,955.304
10,4 Dec 2013 07:16:49.010,4 Dec 2013 07:31:36.177,887.167
11,4 Dec 2013 14:35:50.961,4 Dec 2013 14:52:08.136,977.175
12,5 Dec 2013 04:32:01.709,5 Dec 2013 04:44:29.744,748.035
13,5 Dec 2013 06:09:48.758,5 Dec 2013 06:26:20.670,991.912
14,5 Dec 2013 07:56:56.279,5 Dec 2013 08:09:28.150,751.871
15,5 Dec 2013 15:20:17.241,5 Dec 2013 15:36:25.141,967.900
16,6 Dec 2013 03:42:08.968,6 Dec 2013 03:53:21.578,672.610
17,6 Dec 2013 05:18:44.162,6 Dec 2013 05:34:23.885,939.723
18,6 Dec 2013 06:57:41.090,6 Dec 2013 07:12:19.596,878.506
19,6 Dec 2013 08:38:20.412,6 Dec 2013 08:47:46.480,566.067
20,6 Dec 2013 16:05:03.364,6 Dec 2013 16:21:00.859,957.495
21,7 Dec 2013 02:51:42.786,7 Dec 2013 03:02:51.685,668.899
22,7 Dec 2013 04:27:49.316,7 Dec 2013 04:43:29.177,939.861
23,7 Dec 2013 06:07:11.613,7 Dec 2013 06:20:56.380,824.767
24,7 Dec 2013 16:49:53.825,7 Dec 2013 17:05:43.052,949.227
25,8 Dec 2013 01:59:49.673,8 Dec 2013 02:13:01.000,791.327
26,8 Dec 2013 03:36:49.699,8 Dec 2013 03:52:34.854,945.155
27,8 Dec 2013 05:16:29.613,8 Dec 2013 05:30:15.131,825.518
28,8 Dec 2013 17:34:37.730,8 Dec 2013 17:50:17.235,939.505
29,8 Dec 2013 19:20:57.488,8 Dec 2013 19:26:29.449,331.961
30,9 Dec 2013 01:05:54.034,9 Dec 2013 01:07:41.065,107.031
31,9 Dec 2013 02:43:03.666,9 Dec 2013 03:00:01.032,1017.366
32,9 Dec 2013 04:25:36.200,9 Dec 2013 04:39:42.445,846.245
33,9 Dec 2013 06:10:17.291,9 Dec 2013 06:14:31.998,254.707
34,9 Dec 2013 18:19:06.878,9 Dec 2013 18:34:26.454,919.576
35,9 Dec 2013 20:03:38.378,9 Dec 2013 20:13:35.899,597.521
36,10 Dec 2013 01:40:21.985,10 Dec 2013 01:50:38.302,616.317
37,10 Dec 2013 03:22:31.285,10 Dec 2013 03:39:24.089,1012.805
38,10 Dec 2013 05:13:00.291,10 Dec 2013 05:24:24.424,684.133

"Access","Start Time (UTCG)","Stop Time (UTCG)","Duration (sec)"
1,3 Dec 2013 04:26:54.180,3 Dec 2013 04:36:51.162,596.982
2,3 Dec 2013 06:10:12.555,3 Dec 2013 06:27:09.125,1016.570
3,3 Dec 2013 08:01:58.095,3 Dec 2013 08:07:45.973,347.878
4,3 Dec 2013 13:26:32.639,3 Dec 2013 13:42:51.726,979.088
5,3 Dec 2013 15:09:13.976,3 Dec 2013 15:24:07.001,893.025
6,3 Dec 2013 16:52:52.127,3 Dec 2013 17:05:08.262,736.136
7,3 Dec 2013 18:40:45.155,3 Dec 2013 18:43:18.068,152.913
8,4 Dec 2013 03:19:42.533,4 Dec 2013 03:26:55.091,432.558
9,4 Dec 2013 05:04:16.304,4 Dec 2013 05:18:47.035,870.731
10,4 Dec 2013 06:49:41.914,4 Dec 2013 07:06:04.206,982.293
11,4 Dec 2013 14:10:44.454,4 Dec 2013 14:26:26.653,942.199
12,4 Dec 2013 15:55:02.973,4 Dec 2013 16:03:24.783,501.810
13,5 Dec 2013 04:07:59.863,5 Dec 2013 04:18:38.959,639.096
14,5 Dec 2013 05:45:13.515,5 Dec 2013 06:00:23.744,910.229
15,5 Dec 2013 07:29:25.550,5 Dec 2013 07:44:40.887,915.337
16,5 Dec 2013 14:55:34.488,5 Dec 2013 15:10:33.927,899.440
17,5 Dec 2013 16:38:36.643,5 Dec 2013 16:48:32.095,595.452
18,6 Dec 2013 03:19:01.514,6 Dec 2013 03:26:59.012,477.498
19,6 Dec 2013 04:54:16.771,6 Dec 2013 05:09:30.743,913.973
20,6 Dec 2013 06:32:48.118,6 Dec 2013 06:48:03.981,915.863
21,6 Dec 2013 08:12:57.346,6 Dec 2013 08:24:11.731,674.385
22,6 Dec 2013 15:40:39.239,6 Dec 2013 15:55:04.402,865.163
23,6 Dec 2013 17:22:56.772,6 Dec 2013 17:33:41.800,645.027
24,7 Dec 2013 02:28:43.159,7 Dec 2013 02:36:45.983,482.824
25,7 Dec 2013 04:03:25.729,7 Dec 2013 04:18:39.699,913.970
26,7 Dec 2013 05:42:04.059,7 Dec 2013 05:56:53.198,889.139
27,7 Dec 2013 07:25:03.279,7 Dec 2013 07:30:21.302,318.023
28,7 Dec 2013 16:25:42.686,7 Dec 2013 16:39:43.015,840.329
29,7 Dec 2013 18:07:31.173,7 Dec 2013 18:19:03.103,691.931
30,8 Dec 2013 01:35:59.051,8 Dec 2013 01:47:50.699,711.648
31,8 Dec 2013 03:12:20.983,8 Dec 2013 03:27:50.492,929.509
32,8 Dec 2013 04:51:15.855,8 Dec 2013 05:06:05.037,889.182
33,8 Dec 2013 06:35:27.118,8 Dec 2013 06:39:40.694,253.576
34,8 Dec 2013 17:10:37.289,8 Dec 2013 17:24:10.881,813.593
35,8 Dec 2013 18:51:54.259,8 Dec 2013 19:04:33.886,759.626
36,9 Dec 2013 02:17:02.861,9 Dec 2013 02:33:23.876,981.015
37,9 Dec 2013 04:00:23.945,9 Dec 2013 04:15:15.786,891.841
38,9 Dec 2013 05:42:54.756,9 Dec 2013 05:51:52.094,537.339
39,9 Dec 2013 17:55:20.376,9 Dec 2013 18:08:06.772,766.396
40,9 Dec 2013 19:35:49.319,9 Dec 2013 19:49:56.084,846.765
41,10 Dec 2013 02:56:04.262,10 Dec 2013 03:12:57.263,1013.001
42,10 Dec 2013 04:44:46.609,10 Dec 2013 04:58:02.501,795.892

"Access","Start Time (UTCG)","Stop Time (UTCG)","Duration (sec)"
1,3 Dec 2013 03:26:18.529,3 Dec 2013 03:40:37.198,858.669
2,3 Dec 2013 05:08:41.836,3 Dec 2013 05:20:33.903,712.067
3,3 Dec 2013 12:31:03.701,3 Dec 2013 12:47:53.856,1010.155
4,3 Dec 2013 14:19:07.353,3 Dec 2013 14:32:20.052,792.700
5,3 Dec 2013 16:04:48.376,3 Dec 2013 16:07:07.233,138.857
6,4 Dec 2013 04:10:48.995,4 Dec 2013 04:24:18.221,809.226
7,4 Dec 2013 05:52:09.941,4 Dec 2013 06:06:03.293,833.352
8,4 Dec 2013 11:28:34.245,4 Dec 2013 11:37:41.190,546.945
9,4 Dec 2013 13:10:20.499,4 Dec 2013 13:27:15.295,1014.796
10,4 Dec 2013 15:01:07.770,4 Dec 2013 15:11:23.691,615.921
11,4 Dec 2013 16:52:41.712,4 Dec 2013 17:00:04.748,443.036
12,4 Dec 2013 23:46:55.692,4 Dec 2013 23:56:31.905,576.213
13,5 Dec 2013 01:28:01.076,5 Dec 2013 01:42:16.572,855.496
14,5 Dec 2013 03:10:01.342,5 Dec 2013 03:26:03.655,962.313
15,5 Dec 2013 04:52:20.019,5 Dec 2013 05:08:43.663,983.645
16,5 Dec 2013 06:35:03.603,5 Dec 2013 06:50:36.579,932.976
17,5 Dec 2013 12:05:05.175,5 Dec 2013 12:19:14.329,849.154
18,5 Dec 2013 13:50:06.596,5 Dec 2013 14:06:03.433,956.837
19,5 Dec 2013 19:18:46.962,5 Dec 2013 19:33:53.975,907.012
20,5 Dec 2013 21:00:45.904,5 Dec 2013 21:16:28.775,942.871
21,5 Dec 2013 22:43:14.900,5 Dec 2013 22:59:36.722,981.822
22,6 Dec 2013 00:26:17.650,6 Dec 2013 00:42:36.530,978.880
23,6 Dec 2013 02:10:16.749,6 Dec 2013 02:25:05.032,888.283
24,6 Dec 2013 03:55:26.846,6 Dec 2013 04:07:05.833,698.986
25,6 Dec 2013 05:41:02.740,6 Dec 2013 05:49:14.007,491.266
26,6 Dec 2013 07:24:40.561,6 Dec 2013 07:32:37.601,477.040
27,6 Dec 2013 09:08:38.434,6 Dec 2013 09:15:33.274,414.840
28,6 Dec 2013 11:01:13.357,6 Dec 2013 11:05:13.206,239.849
29,6 Dec 2013 12:43:16.246,6 Dec 2013 12:59:36.466,980.220
30,6 Dec 2013 14:30:35.596,6 Dec 2013 14:43:52.287,796.691
31,6 Dec 2013 20:03:21.782,6 Dec 2013 20:16:24.279,782.497
32,6 Dec 2013 21:44:42.306,6 Dec 2013 21:59:14.563,872.257
33,6 Dec 2013 23:29:19.663,6 Dec 2013 23:38:40.032,560.370
34,7 Dec 2013 11:37:01.915,7 Dec 2013 11:49:36.368,754.453
35,7 Dec 2013 13:22:19.170,7 Dec 2013 13:39:17.302,1018.132
36,7 Dec 2013 15:12:04.170,7 Dec 2013 15:20:09.049,484.880
37,7 Dec 2013 20:49:17.175,7 Dec 2013 20:59:11.876,594.700
38,7 Dec 2013 22:28:16.007,7 Dec 2013 22:43:29.845,913.837
39,8 Dec 2013 10:47:28.228,8 Dec 2013 10:55:30.021,481.792
40,8 Dec 2013 12:23:28.421,8 Dec 2013 12:38:21.425,893.004
41,8 Dec 2013 14:01:53.226,8 Dec 2013 14:18:40.311,1007.085
42,8 Dec 2013 21:36:07.233,8 Dec 2013 21:42:17.508,370.275
43,8 Dec 2013 23:12:31.023,8 Dec 2013 23:28:04.099,933.076
44,9 Dec 2013 09:59:35.052,9 Dec 2013 10:03:08.896,213.844
45,9 Dec 2013 11:32:41.172,9 Dec 2013 11:47:29.648,888.476
46,9 Dec 2013 13:10:54.817,9 Dec 2013 13:26:18.850,924.032
47,9 Dec 2013 14:51:18.630,9 Dec 2013 15:02:12.345,653.715
48,9 Dec 2013 22:24:00.165,9 Dec 2013 22:24:49.323,49.158
49,9 Dec 2013 23:57:07.577,10 Dec 2013 00:12:51.262,943.685

"Access","Start Time (UTCG)","Stop Time (UTCG)","Duration (sec)"
1,3 Dec 2013 03:03:16.937,3 Dec 2013 03:13:43.289,626.352
2,3 Dec 2013 04:41:38.870,3 Dec 2013 04:56:37.311,898.441
3,3 Dec 2013 12:05:12.549,3 Dec 2013 12:21:08.378,955.829
4,3 Dec 2013 13:51:33.177,3 Dec 2013 14:07:03.134,929.957
5,3 Dec 2013 15:36:53.528,3 Dec 2013 15:44:42.858,469.329
6,4 Dec 2013 03:48:18.596,4 Dec 2013 03:56:56.539,517.943
7,4 Dec 2013 05:25:32.046,4 Dec 2013 05:41:20.468,948.422
8,4 Dec 2013 12:43:58.462,4 Dec 2013 13:00:45.904,1007.441
9,4 Dec 2013 14:32:33.435,4 Dec 2013 14:45:29.418,775.983
10,4 Dec 2013 16:26:30.743,4 Dec 2013 16:31:59.749,329.006
11,4 Dec 2013 23:21:58.047,4 Dec 2013 23:29:33.565,455.518
12,5 Dec 2013 01:02:37.744,5 Dec 2013 01:16:04.443,806.699
13,5 Dec 2013 02:44:28.234,5 Dec 2013 03:00:14.478,946.244
14,5 Dec 2013 04:26:45.547,5 Dec 2013 04:43:08.504,982.956
15,5 Dec 2013 06:08:54.660,5 Dec 2013 06:25:15.629,980.970
16,5 Dec 2013 11:40:05.194,5 Dec 2013 11:50:47.482,642.288
17,5 Dec 2013 13:23:11.077,5 Dec 2013 13:40:00.523,1009.446
18,5 Dec 2013 15:16:45.716,5 Dec 2013 15:20:32.194,226.478
19,5 Dec 2013 18:53:41.112,5 Dec 2013 19:06:37.911,776.799
20,5 Dec 2013 20:35:12.547,5 Dec 2013 20:50:45.389,932.842
21,5 Dec 2013 22:17:35.156,5 Dec 2013 22:33:49.007,973.851
22,6 Dec 2013 00:00:27.658,6 Dec 2013 00:16:54.087,986.428
23,6 Dec 2013 01:44:10.417,6 Dec 2013 01:59:31.075,920.658
24,6 Dec 2013 03:29:03.363,6 Dec 2013 03:41:37.047,753.684
25,6 Dec 2013 05:14:43.338,6 Dec 2013 05:23:37.409,534.072
26,6 Dec 2013 06:59:03.160,6 Dec 2013 07:06:39.249,456.089
27,6 Dec 2013 08:40:43.205,6 Dec 2013 08:50:27.705,584.500
28,6 Dec 2013 12:17:17.792,6 Dec 2013 12:32:15.326,897.533
29,6 Dec 2013 14:02:57.991,6 Dec 2013 14:18:35.188,937.197
30,6 Dec 2013 19:39:50.135,6 Dec 2013 19:47:38.090,467.955
31,6 Dec 2013 21:18:42.858,6 Dec 2013 21:34:47.237,964.379
32,6 Dec 2013 23:03:06.411,6 Dec 2013 23:13:49.886,643.476
33,7 Dec 2013 11:11:47.932,7 Dec 2013 11:21:54.830,606.898
34,7 Dec 2013 12:55:59.012,7 Dec 2013 13:12:31.283,992.271
35,7 Dec 2013 14:43:11.693,7 Dec 2013 14:56:24.830,793.136
36,7 Dec 2013 22:02:35.718,7 Dec 2013 22:18:48.779,973.060
37,8 Dec 2013 11:59:05.598,8 Dec 2013 12:13:08.711,843.113
38,8 Dec 2013 13:37:11.433,8 Dec 2013 13:53:02.264,950.832
39,8 Dec 2013 15:23:31.162,8 Dec 2013 15:33:55.148,623.986
40,8 Dec 2013 22:47:04.026,8 Dec 2013 23:03:14.440,970.414
41,9 Dec 2013 11:08:33.750,9 Dec 2013 11:22:16.537,822.787
42,9 Dec 2013 12:46:09.157,9 Dec 2013 13:01:52.406,943.249
43,9 Dec 2013 14:25:57.766,9 Dec 2013 14:38:33.900,756.134
44,9 Dec 2013 23:31:48.914,9 Dec 2013 23:47:54.859,965.946

"Access","Start Time (UTCG)","Stop Time (UTCG)","Duration (sec)"
1,3 Dec 2013 04:15:42.673,3 Dec 2013 04:31:51.465,968.793
2,3 Dec 2013 11:40:00.181,3 Dec 2013 11:53:52.835,832.654
3,3 Dec 2013 13:24:16.364,3 Dec 2013 13:40:43.808,987.444
4,3 Dec 2013 15:10:32.446,3 Dec 2013 15:20:53.659,621.213
5,4 Dec 2013 04:59:48.173,4 Dec 2013 05:16:08.053,979.880
6,4 Dec 2013 12:18:05.763,4 Dec 2013 12:33:53.565,947.802
7,4 Dec 2013 14:04:35.116,4 Dec 2013 14:19:32.675,897.559
8,4 Dec 2013 15:59:04.066,4 Dec 2013 16:03:55.762,291.696
9,4 Dec 2013 17:46:59.969,4 Dec 2013 17:47:51.733,51.764
10,4 Dec 2013 22:57:23.247,4 Dec 2013 23:02:06.282,283.035
11,5 Dec 2013 00:37:18.294,5 Dec 2013 00:49:44.102,745.808
12,5 Dec 2013 02:18:56.830,5 Dec 2013 02:34:20.710,923.880
13,5 Dec 2013 04:01:10.556,5 Dec 2013 04:17:30.285,979.729
14,5 Dec 2013 05:43:25.101,5 Dec 2013 05:59:45.267,980.166
15,5 Dec 2013 07:30:38.423,5 Dec 2013 07:39:56.796,558.374
16,5 Dec 2013 11:17:54.591,5 Dec 2013 11:18:57.727,63.136
17,5 Dec 2013 12:56:44.150,5 Dec 2013 13:13:35.288,1011.138
18,5 Dec 2013 14:46:07.109,5 Dec 2013 14:56:55.417,648.308
19,5 Dec 2013 18:29:10.596,5 Dec 2013 18:37:54.360,523.764
20,5 Dec 2013 20:09:40.841,5 Dec 2013 20:25:04.798,923.957
21,5 Dec 2013 21:51:57.175,5 Dec 2013 22:08:01.306,964.131
22,5 Dec 2013 23:34:40.799,5 Dec 2013 23:51:09.745,988.946
23,6 Dec 2013 01:18:08.651,6 Dec 2013 01:33:55.062,946.410
24,6 Dec 2013 03:02:43.424,6 Dec 2013 03:16:07.666,804.242
25,6 Dec 2013 04:48:18.974,6 Dec 2013 04:58:04.853,585.879
26,6 Dec 2013 06:33:14.505,6 Dec 2013 06:40:44.763,450.258
27,6 Dec 2013 08:15:28.710,6 Dec 2013 08:24:34.641,545.931
28,6 Dec 2013 11:51:32.240,6 Dec 2013 12:04:14.547,762.308
29,6 Dec 2013 13:36:00.636,6 Dec 2013 13:52:44.063,1003.427
30,6 Dec 2013 20:53:10.440,6 Dec 2013 21:09:30.600,980.160
31,6 Dec 2013 22:37:06.665,6 Dec 2013 22:48:51.867,705.202
32,7 Dec 2013 00:23:15.777,7 Dec 2013 00:27:08.650,232.873
33,7 Dec 2013 10:47:42.692,7 Dec 2013 10:55:40.844,478.152
34,7 Dec 2013 12:29:44.030,7 Dec 2013 12:45:16.945,932.915
35,7 Dec 2013 14:15:43.192,7 Dec 2013 14:31:19.905,936.713
36,7 Dec 2013 21:37:26.210,7 Dec 2013 21:53:19.791,953.581
37,7 Dec 2013 23:22:51.250,7 Dec 2013 23:28:42.678,351.428
38,8 Dec 2013 11:34:52.591,8 Dec 2013 11:47:41.609,769.018
39,8 Dec 2013 13:12:32.788,8 Dec 2013 13:28:16.270,943.481
40,8 Dec 2013 14:55:32.354,8 Dec 2013 15:09:45.511,853.157
41,8 Dec 2013 22:22:13.980,8 Dec 2013 22:37:37.779,923.799
42,9 Dec 2013 00:06:24.041,9 Dec 2013 00:14:10.511,466.471
43,9 Dec 2013 10:44:44.118,9 Dec 2013 10:56:44.505,720.387
44,9 Dec 2013 12:21:31.013,9 Dec 2013 12:37:15.822,944.809
45,9 Dec 2013 14:00:48.365,9 Dec 2013 14:14:40.563,832.198
46,9 Dec 2013 15:43:19.398,9 Dec 2013 15:47:59.958,280.560
47,9 Dec 2013 23:07:13.058,9 Dec 2013 23:22:13.741,900.682
48,10 Dec 2013 00:50:45.225,10 Dec 2013 00:59:34.733,529.508

"Access","Start Time (UTCG)","Stop Time (UTCG)","Duration (sec)"
1,3 Dec 2013 03:50:35.409,3 Dec 2013 04:06:32.053,956.644
2,3 Dec 2013 05:39:37.813,3 Dec 2013 05:40:59.439,81.625
3,3 Dec 2013 11:15:55.280,3 Dec 2013 11:25:32.063,576.784
4,3 Dec 2013 12:57:25.868,3 Dec 2013 13:14:22.939,1017.070
5,3 Dec 2013 14:44:40.987,3 Dec 2013 14:56:42.504,721.517
6,4 Dec 2013 04:34:51.537,4 Dec 2013 04:50:29.843,938.306
7,4 Dec 2013 06:20:13.989,4 Dec 2013 06:29:50.191,576.202
8,4 Dec 2013 11:52:48.379,4 Dec 2013 12:06:24.373,815.994
9,4 Dec 2013 13:37:11.873,4 Dec 2013 13:53:29.255,977.382
10,4 Dec 2013 15:30:10.078,4 Dec 2013 15:37:23.513,433.434
11,4 Dec 2013 17:19:11.085,4 Dec 2013 17:24:31.150,320.065
12,5 Dec 2013 00:12:03.696,5 Dec 2013 00:23:14.013,670.317
13,5 Dec 2013 01:53:27.617,5 Dec 2013 02:08:21.670,894.052
14,5 Dec 2013 03:35:35.625,5 Dec 2013 03:51:48.778,973.153
15,5 Dec 2013 05:17:53.386,5 Dec 2013 05:34:15.903,982.518
16,5 Dec 2013 07:02:10.629,5 Dec 2013 07:15:36.663,806.034
17,5 Dec 2013 12:30:41.914,5 Dec 2013 12:46:43.123,961.208
18,5 Dec 2013 14:17:39.315,5 Dec 2013 14:31:44.343,845.028
19,5 Dec 2013 19:44:11.004,5 Dec 2013 19:59:27.531,916.527
20,5 Dec 2013 21:26:20.790,5 Dec 2013 21:42:14.317,953.527
21,5 Dec 2013 23:08:56.675,5 Dec 2013 23:25:23.817,987.142
22,6 Dec 2013 00:52:11.178,6 Dec 2013 01:08:16.884,965.706
23,6 Dec 2013 02:36:27.773,6 Dec 2013 02:50:37.132,849.359
24,6 Dec 2013 04:21:52.656,6 Dec 2013 04:32:34.761,642.105
25,6 Dec 2013 06:07:13.992,6 Dec 2013 06:14:56.173,462.181
26,6 Dec 2013 07:50:08.410,6 Dec 2013 07:58:36.976,508.566
27,6 Dec 2013 11:26:02.112,6 Dec 2013 11:35:23.932,561.820
28,6 Dec 2013 13:09:29.177,6 Dec 2013 13:26:24.704,1015.527
29,6 Dec 2013 14:59:33.342,6 Dec 2013 15:08:05.587,512.244
30,6 Dec 2013 20:28:01.254,6 Dec 2013 20:43:26.560,925.307
31,6 Dec 2013 22:11:16.981,6 Dec 2013 22:23:49.350,752.369
32,6 Dec 2013 23:55:53.761,7 Dec 2013 00:03:15.180,441.419
33,7 Dec 2013 10:24:21.851,7 Dec 2013 10:28:32.963,251.111
34,7 Dec 2013 12:03:27.775,7 Dec 2013 12:17:36.274,848.499
35,7 Dec 2013 13:48:50.988,7 Dec 2013 14:05:34.323,1003.335
36,7 Dec 2013 21:12:50.832,7 Dec 2013 21:26:57.953,847.121
37,7 Dec 2013 22:54:38.375,7 Dec 2013 23:07:11.395,753.019
38,8 Dec 2013 11:10:55.178,8 Dec 2013 11:21:53.856,658.677
39,8 Dec 2013 12:47:58.076,8 Dec 2013 13:03:23.202,925.127
40,8 Dec 2013 14:28:27.656,8 Dec 2013 14:44:32.338,964.682
41,8 Dec 2013 21:58:11.549,8 Dec 2013 22:11:02.886,771.338
42,8 Dec 2013 23:38:41.881,8 Dec 2013 23:51:59.260,797.378
43,9 Dec 2013 10:21:24.540,9 Dec 2013 10:30:41.776,557.236
44,9 Dec 2013 11:57:01.169,9 Dec 2013 12:12:28.633,927.464
45,9 Dec 2013 13:35:47.767,9 Dec 2013 13:50:35.096,887.330
46,9 Dec 2013 15:16:57.472,9 Dec 2013 15:25:29.371,511.899
47,9 Dec 2013 22:43:36.439,9 Dec 2013 22:55:32.034,715.595
48,10 Dec 2013 00:23:13.337,10 Dec 2013 00:36:57.966,824.629

"Access","Start Time (UTCG)","Stop Time (UTCG)","Duration (sec)"
1,3 Dec 2013 08:14:08.148,3 Dec 2013 08:27:49.485,821.337
2,3 Dec 2013 09:55:25.754,3 Dec 2013 10:07:35.973,730.219
3,3 Dec 2013 20:36:39.569,3 Dec 2013 20:50:30.655,831.086
4,3 Dec 2013 22:14:14.170,3 Dec 2013 22:29:52.856,938.686
5,3 Dec 2013 23:54:39.162,4 Dec 2013 00:06:00.050,680.888
6,4 Dec 2013 08:59:19.804,4 Dec 2013 09:12:26.276,786.472
7,4 Dec 2013 10:40:01.172,4 Dec 2013 10:52:45.662,764.490
8,4 Dec 2013 18:11:29.089,4 Dec 2013 18:18:04.371,395.282
9,4 Dec 2013 19:45:33.988,4 Dec 2013 19:59:56.937,862.948
10,4 Dec 2013 21:23:20.771,4 Dec 2013 21:38:58.012,937.241
11,4 Dec 2013 23:04:31.006,4 Dec 2013 23:15:05.806,634.799
12,5 Dec 2013 09:44:22.383,5 Dec 2013 09:56:57.701,755.318
13,5 Dec 2013 11:24:33.248,5 Dec 2013 11:38:03.563,810.315
14,5 Dec 2013 18:51:40.807,5 Dec 2013 19:07:26.852,946.045
15,5 Dec 2013 20:32:24.277,5 Dec 2013 20:47:59.182,934.905
16,5 Dec 2013 22:13:29.255,5 Dec 2013 22:25:15.313,706.058
17,6 Dec 2013 10:29:14.823,6 Dec 2013 10:41:00.710,705.887
18,6 Dec 2013 12:08:43.500,6 Dec 2013 12:23:16.734,873.234
19,6 Dec 2013 19:30:33.506,6 Dec 2013 19:47:05.752,992.246
20,6 Dec 2013 21:18:02.346,6 Dec 2013 21:32:36.941,874.595
21,6 Dec 2013 23:06:30.626,6 Dec 2013 23:11:49.805,319.179
22,7 Dec 2013 09:34:23.345,7 Dec 2013 09:38:33.755,250.410
23,7 Dec 2013 11:12:42.239,7 Dec 2013 11:24:17.418,695.179
24,7 Dec 2013 12:52:21.391,7 Dec 2013 13:08:00.534,939.143
25,7 Dec 2013 18:29:03.996,7 Dec 2013 18:35:14.721,370.725
26,7 Dec 2013 20:09:35.464,7 Dec 2013 20:26:32.606,1017.142
27,7 Dec 2013 21:59:50.026,7 Dec 2013 22:10:22.062,632.036
28,8 Dec 2013 01:37:32.186,8 Dec 2013 01:45:02.415,450.229
29,8 Dec 2013 03:21:43.405,8 Dec 2013 03:27:32.068,348.663
30,8 Dec 2013 05:03:56.874,8 Dec 2013 05:13:14.736,557.862
31,8 Dec 2013 06:45:41.007,8 Dec 2013 06:59:05.448,804.441
32,8 Dec 2013 08:27:50.239,8 Dec 2013 08:43:38.362,948.123
33,8 Dec 2013 10:10:33.025,8 Dec 2013 10:27:01.513,988.488
34,8 Dec 2013 11:53:33.736,8 Dec 2013 12:09:40.339,966.603
35,8 Dec 2013 13:36:15.640,8 Dec 2013 13:51:48.877,933.237
36,8 Dec 2013 19:04:35.412,8 Dec 2013 19:17:55.980,800.569
37,8 Dec 2013 20:49:08.199,8 Dec 2013 21:05:28.298,980.099
38,9 Dec 2013 02:20:26.157,9 Dec 2013 02:33:26.045,779.887
39,9 Dec 2013 04:01:41.358,9 Dec 2013 04:18:01.573,980.214
40,9 Dec 2013 05:44:05.437,9 Dec 2013 06:00:26.949,981.512
41,9 Dec 2013 07:27:23.085,9 Dec 2013 07:42:45.958,922.873
42,9 Dec 2013 09:12:07.482,9 Dec 2013 09:24:28.019,740.537
43,9 Dec 2013 10:59:35.127,9 Dec 2013 11:04:42.345,307.218
44,9 Dec 2013 16:10:47.104,9 Dec 2013 16:16:44.670,357.567
45,9 Dec 2013 17:59:00.572,9 Dec 2013 18:04:51.052,350.480
46,9 Dec 2013 19:42:37.625,9 Dec 2013 19:58:37.343,959.718
47,9 Dec 2013 21:29:16.137,9 Dec 2013 21:43:35.443,859.306
48,10 Dec 2013 03:06:31.487,10 Dec 2013 03:15:00.581,509.094
49,10 Dec 2013 04:45:24.107,10 Dec 2013 05:01:15.653,951.546

"Access","Start Time (UTCG)","Stop Time (UTCG)","Duration (sec)"
1,3 Dec 2013 07:51:23.690,3 Dec 2013 08:00:00.922,517.231
2,3 Dec 2013 09:28:55.367,3 Dec 2013 09:44:01.028,905.660
3,3 Dec 2013 20:12:51.583,3 Dec 2013 20:25:04.899,733.316
4,3 Dec 2013 21:49:34.350,3 Dec 2013 22:05:19.399,945.049
5,3 Dec 2013 23:29:13.317,3 Dec 2013 23:42:22.058,788.741
6,4 Dec 2013 08:37:17.834,4 Dec 2013 08:44:19.415,421.580
7,4 Dec 2013 10:13:34.444,4 Dec 2013 10:28:55.116,920.672
8,4 Dec 2013 19:21:34.835,4 Dec 2013 19:34:51.474,796.639
9,4 Dec 2013 20:58:38.420,4 Dec 2013 21:14:24.603,946.183
10,4 Dec 2013 22:38:43.871,4 Dec 2013 22:51:32.097,768.226
11,5 Dec 2013 09:22:56.746,5 Dec 2013 09:28:32.091,335.346
12,5 Dec 2013 10:58:11.803,5 Dec 2013 11:13:50.933,939.129
13,5 Dec 2013 18:26:39.043,5 Dec 2013 18:40:14.291,815.248
14,5 Dec 2013 20:07:34.944,5 Dec 2013 20:23:22.962,948.018
15,5 Dec 2013 21:47:50.407,5 Dec 2013 22:01:12.212,801.805
16,6 Dec 2013 10:09:11.048,6 Dec 2013 10:11:24.327,133.280
17,6 Dec 2013 11:42:32.734,6 Dec 2013 11:58:35.219,962.485
18,6 Dec 2013 19:04:57.007,6 Dec 2013 19:20:06.896,909.890
19,6 Dec 2013 20:50:28.682,6 Dec 2013 21:06:20.555,951.873
20,6 Dec 2013 22:39:39.879,6 Dec 2013 22:48:15.936,516.057
21,7 Dec 2013 10:47:45.908,7 Dec 2013 10:58:21.923,636.015
22,7 Dec 2013 12:26:26.310,7 Dec 2013 12:42:48.197,981.887
23,7 Dec 2013 19:43:23.546,7 Dec 2013 19:59:55.315,991.769
24,7 Dec 2013 21:31:16.462,7 Dec 2013 21:44:43.645,807.183
25,8 Dec 2013 01:11:27.680,8 Dec 2013 01:19:48.969,501.289
26,8 Dec 2013 02:55:49.909,8 Dec 2013 03:01:34.125,344.216
27,8 Dec 2013 04:38:30.528,8 Dec 2013 04:46:41.032,490.503
28,8 Dec 2013 06:20:13.520,8 Dec 2013 06:32:44.218,750.698
29,8 Dec 2013 08:02:14.715,8 Dec 2013 08:17:37.628,922.913
30,8 Dec 2013 09:44:49.609,8 Dec 2013 10:01:15.811,986.202
31,8 Dec 2013 11:27:48.668,8 Dec 2013 11:44:03.677,975.009
32,8 Dec 2013 13:10:39.150,8 Dec 2013 13:26:19.626,940.476
33,8 Dec 2013 14:57:28.550,8 Dec 2013 15:06:54.966,566.416
34,8 Dec 2013 18:39:40.088,8 Dec 2013 18:49:05.480,565.393
35,8 Dec 2013 20:22:23.794,8 Dec 2013 20:39:19.364,1015.570
36,8 Dec 2013 22:14:24.995,8 Dec 2013 22:20:27.738,362.743
37,9 Dec 2013 01:56:13.167,9 Dec 2013 02:04:41.337,508.170
38,9 Dec 2013 03:36:12.143,9 Dec 2013 03:52:28.489,976.345
39,9 Dec 2013 05:18:25.148,9 Dec 2013 05:34:49.806,984.658
40,9 Dec 2013 07:01:27.265,9 Dec 2013 07:17:13.622,946.357
41,9 Dec 2013 08:45:45.448,9 Dec 2013 08:59:07.459,802.010
42,9 Dec 2013 10:32:16.881,9 Dec 2013 10:39:56.903,460.022
43,9 Dec 2013 15:46:32.425,9 Dec 2013 15:49:48.236,195.811
44,9 Dec 2013 17:32:28.009,9 Dec 2013 17:35:51.662,203.653
45,9 Dec 2013 19:16:37.547,9 Dec 2013 19:31:04.743,867.196
46,9 Dec 2013 21:01:58.091,9 Dec 2013 21:18:07.159,969.067
47,10 Dec 2013 04:19:50.086,10 Dec 2013 04:36:10.176,980.090

"Access","Start Time (UTCG)","Stop Time (UTCG)","Duration (sec)"
1,3 Dec 2013 01:39:25.441,3 Dec 2013 01:45:56.439,390.999
2,3 Dec 2013 09:03:18.039,3 Dec 2013 09:19:25.367,967.328
3,3 Dec 2013 19:49:31.479,3 Dec 2013 19:59:12.752,581.273
4,3 Dec 2013 21:25:04.349,3 Dec 2013 21:40:35.128,930.779
5,3 Dec 2013 23:04:02.644,3 Dec 2013 23:18:25.734,863.090
6,4 Dec 2013 00:47:34.854,4 Dec 2013 00:51:00.446,205.592
7,4 Dec 2013 09:48:02.515,4 Dec 2013 10:04:10.742,968.226
8,4 Dec 2013 18:57:49.622,4 Dec 2013 19:09:35.500,705.878
9,4 Dec 2013 20:34:06.516,4 Dec 2013 20:49:43.053,936.537
10,4 Dec 2013 22:13:20.908,4 Dec 2013 22:27:34.781,853.873
11,5 Dec 2013 10:32:44.517,5 Dec 2013 10:48:54.072,969.555
12,5 Dec 2013 18:02:54.262,5 Dec 2013 18:11:53.577,539.315
13,5 Dec 2013 19:42:52.379,5 Dec 2013 19:58:42.979,950.600
14,5 Dec 2013 21:22:29.586,5 Dec 2013 21:36:55.812,866.226
15,5 Dec 2013 23:06:55.851,5 Dec 2013 23:11:28.721,272.869
16,6 Dec 2013 11:17:12.759,6 Dec 2013 11:33:20.785,968.026
17,6 Dec 2013 18:40:06.263,6 Dec 2013 18:52:25.428,739.165
18,6 Dec 2013 20:23:21.659,6 Dec 2013 20:40:04.227,1002.568
19,6 Dec 2013 22:13:32.327,6 Dec 2013 22:24:07.942,635.614
20,7 Dec 2013 10:22:56.811,7 Dec 2013 10:32:13.431,556.620
21,7 Dec 2013 12:01:18.236,7 Dec 2013 12:17:12.242,954.006
22,7 Dec 2013 13:47:33.850,7 Dec 2013 13:56:31.414,537.564
23,7 Dec 2013 19:17:40.830,7 Dec 2013 19:32:49.565,908.735
24,7 Dec 2013 21:03:27.639,7 Dec 2013 21:18:53.008,925.370
25,8 Dec 2013 00:45:28.605,8 Dec 2013 00:54:40.139,551.534
26,8 Dec 2013 02:29:47.374,8 Dec 2013 02:35:51.795,364.422
27,8 Dec 2013 04:13:01.287,8 Dec 2013 04:20:09.785,428.498
28,8 Dec 2013 05:54:47.395,8 Dec 2013 06:06:18.075,690.680
29,8 Dec 2013 07:36:41.395,8 Dec 2013 07:51:32.088,890.693
30,8 Dec 2013 09:19:07.828,8 Dec 2013 09:35:27.014,979.186
31,8 Dec 2013 11:02:03.104,8 Dec 2013 11:18:25.129,982.025
32,8 Dec 2013 12:44:59.632,8 Dec 2013 13:00:48.355,948.723
33,8 Dec 2013 14:28:58.969,8 Dec 2013 14:42:20.243,801.275
34,8 Dec 2013 19:56:04.950,8 Dec 2013 20:12:45.382,1000.432
35,8 Dec 2013 21:44:33.600,8 Dec 2013 21:56:27.047,713.447
36,9 Dec 2013 03:10:43.183,9 Dec 2013 03:26:57.775,974.593
37,9 Dec 2013 04:52:47.808,9 Dec 2013 05:09:12.799,984.991
38,9 Dec 2013 06:35:36.078,9 Dec 2013 06:51:39.376,963.298
39,9 Dec 2013 08:19:31.364,9 Dec 2013 08:33:43.273,851.909
40,9 Dec 2013 10:05:20.824,9 Dec 2013 10:14:54.774,573.951
41,9 Dec 2013 17:03:51.737,9 Dec 2013 17:08:56.330,304.594
42,9 Dec 2013 18:50:44.270,9 Dec 2013 19:02:55.303,731.033
43,9 Dec 2013 20:35:12.492,9 Dec 2013 20:52:06.400,1013.908
44,10 Dec 2013 03:54:41.322,10 Dec 2013 04:10:17.323,936.001
45,10 Dec 2013 05:38:31.163,10 Dec 2013 05:48:23.852,592.688

"Access","Start Time (UTCG)","Stop Time (UTCG)","Duration (sec)"
1,3 Dec 2013 01:10:26.280,3 Dec 2013 01:23:03.342,757.063
2,3 Dec 2013 08:38:20.372,3 Dec 2013 08:54:03.380,943.008
3,3 Dec 2013 10:24:39.280,3 Dec 2013 10:28:17.906,218.626
4,3 Dec 2013 19:27:18.993,3 Dec 2013 19:32:15.247,296.254
5,3 Dec 2013 21:00:45.315,3 Dec 2013 21:15:39.451,894.136
6,3 Dec 2013 22:39:03.448,3 Dec 2013 22:54:15.303,911.855
7,4 Dec 2013 00:20:29.845,4 Dec 2013 00:29:09.511,519.666
8,4 Dec 2013 09:23:14.650,4 Dec 2013 09:38:43.854,929.204
9,4 Dec 2013 11:08:39.511,4 Dec 2013 11:14:24.825,345.314
10,4 Dec 2013 18:34:23.087,4 Dec 2013 18:44:04.399,581.312
11,4 Dec 2013 20:09:44.908,4 Dec 2013 20:24:53.866,908.958
12,4 Dec 2013 21:48:14.365,4 Dec 2013 22:03:22.118,907.752
13,4 Dec 2013 23:31:07.397,4 Dec 2013 23:37:50.256,402.859
14,5 Dec 2013 10:08:04.158,5 Dec 2013 10:23:19.941,915.783
15,5 Dec 2013 11:52:36.882,5 Dec 2013 12:00:45.315,488.433
16,5 Dec 2013 19:17:24.716,5 Dec 2013 19:33:59.923,995.207
17,5 Dec 2013 20:57:21.840,5 Dec 2013 21:12:30.645,908.805
18,5 Dec 2013 22:39:36.855,5 Dec 2013 22:48:54.855,558.001
19,6 Dec 2013 10:52:41.419,6 Dec 2013 11:07:34.418,892.999
20,6 Dec 2013 12:36:09.044,6 Dec 2013 12:47:04.559,655.516
21,6 Dec 2013 18:17:11.187,6 Dec 2013 18:22:43.594,332.407
22,6 Dec 2013 19:56:42.931,6 Dec 2013 20:13:41.577,1018.646
23,6 Dec 2013 21:45:56.862,6 Dec 2013 21:59:01.147,784.285
24,7 Dec 2013 09:58:21.611,7 Dec 2013 10:05:45.148,443.536
25,7 Dec 2013 11:37:01.245,7 Dec 2013 11:51:07.143,845.898
26,7 Dec 2013 13:19:11.973,7 Dec 2013 13:32:44.582,812.608
27,7 Dec 2013 18:52:36.539,7 Dec 2013 19:04:57.364,740.825
28,7 Dec 2013 20:36:15.825,7 Dec 2013 20:52:50.192,994.367
29,7 Dec 2013 22:29:21.624,7 Dec 2013 22:35:40.066,378.442
30,8 Dec 2013 00:20:17.610,8 Dec 2013 00:26:51.478,393.867
31,8 Dec 2013 02:03:39.930,8 Dec 2013 02:10:22.409,402.479
32,8 Dec 2013 03:47:26.578,8 Dec 2013 03:53:45.186,378.608
33,8 Dec 2013 05:29:22.100,8 Dec 2013 05:39:47.795,625.695
34,8 Dec 2013 07:11:10.215,8 Dec 2013 07:25:21.415,851.200
35,8 Dec 2013 08:53:27.977,8 Dec 2013 09:09:34.676,966.699
36,8 Dec 2013 10:36:17.693,8 Dec 2013 10:52:44.498,986.806
37,8 Dec 2013 12:19:17.617,8 Dec 2013 12:35:15.232,957.615
38,8 Dec 2013 14:01:48.691,8 Dec 2013 14:17:13.059,924.368
39,8 Dec 2013 19:30:08.333,8 Dec 2013 19:45:41.147,932.814
40,8 Dec 2013 21:16:26.032,8 Dec 2013 21:31:13.051,887.018
41,9 Dec 2013 02:45:23.978,9 Dec 2013 03:00:43.321,919.344
42,9 Dec 2013 04:27:13.244,9 Dec 2013 04:43:36.524,983.280
43,9 Dec 2013 06:09:48.960,9 Dec 2013 06:26:03.650,974.690
44,9 Dec 2013 07:53:24.200,9 Dec 2013 08:08:15.966,891.766
45,9 Dec 2013 09:38:38.697,9 Dec 2013 09:49:44.221,665.524
46,9 Dec 2013 16:35:23.842,9 Dec 2013 16:43:03.861,460.019
47,9 Dec 2013 18:24:54.311,9 Dec 2013 18:34:07.880,553.568
48,9 Dec 2013 20:08:47.844,9 Dec 2013 20:25:36.811,1008.967
49,9 Dec 2013 21:57:33.393,9 Dec 2013 22:08:13.361,639.968
50,10 Dec 2013 03:30:03.557,10 Dec 2013 03:43:27.855,804.298
51,10 Dec 2013 05:11:28.812,10 Dec 2013 05:25:29.526,840.713

