Raw and processed data/Inclination variations/us_greatcircle_12sat_60deg/Aircraft-B747LAX_Narita-Transmitter-adsb_out6211-To-Satellite-700km_p1_1-Receiver-adsb_satrcvr2 Access.csv

"Access","Start Time (UTCG)","Stop Time (UTCG)","Duration (sec)"
1,3 Dec 2013 06:03:06.288,3 Dec 2013 06:14:24.566,678.279
2,3 Dec 2013 07:43:17.784,3 Dec 2013 07:59:55.017,997.233
3,3 Dec 2013 09:32:39.668,3 Dec 2013 09:44:44.466,724.798
4,3 Dec 2013 11:17:44.235,3 Dec 2013 11:30:57.733,793.498
5,3 Dec 2013 12:56:10.157,3 Dec 2013 13:11:34.961,924.804
6,3 Dec 2013 14:35:05.646,3 Dec 2013 14:51:01.491,955.845
7,3 Dec 2013 16:14:28.511,3 Dec 2013 16:30:31.959,963.448
8,3 Dec 2013 17:54:37.047,3 Dec 2013 18:10:47.757,970.710
9,3 Dec 2013 19:35:45.848,3 Dec 2013 19:52:01.226,975.378
10,3 Dec 2013 21:19:55.194,3 Dec 2013 21:29:30.284,575.090
11,4 Dec 2013 03:29:55.574,4 Dec 2013 03:32:25.597,150.024
12,4 Dec 2013 05:03:39.902,4 Dec 2013 05:20:09.216,989.314
13,4 Dec 2013 06:48:01.927,4 Dec 2013 07:02:11.824,849.897
14,4 Dec 2013 08:29:04.949,4 Dec 2013 08:43:47.174,882.226
15,4 Dec 2013 10:09:12.809,4 Dec 2013 10:24:11.469,898.660
16,4 Dec 2013 11:49:03.139,4 Dec 2013 12:03:48.138,884.998
17,4 Dec 2013 13:29:27.451,4 Dec 2013 13:43:07.216,819.765
18,4 Dec 2013 15:11:37.050,4 Dec 2013 15:22:22.107,645.058
19,4 Dec 2013 16:55:07.257,4 Dec 2013 17:10:54.349,947.093
20,4 Dec 2013 18:39:12.716,4 Dec 2013 18:53:05.815,833.099
21,5 Dec 2013 02:27:38.272,5 Dec 2013 02:36:38.502,540.229
22,5 Dec 2013 04:07:15.977,5 Dec 2013 04:19:02.549,706.572
23,5 Dec 2013 05:46:42.311,5 Dec 2013 05:59:39.614,777.303
24,5 Dec 2013 07:25:17.877,5 Dec 2013 07:39:19.312,841.434
25,5 Dec 2013 09:03:16.287,5 Dec 2013 09:18:31.323,915.035
26,5 Dec 2013 10:41:31.791,5 Dec 2013 10:57:22.481,950.690
27,5 Dec 2013 12:27:47.564,5 Dec 2013 12:42:56.394,908.830
28,5 Dec 2013 14:15:36.410,5 Dec 2013 14:31:41.563,965.153
29,5 Dec 2013 16:00:57.639,5 Dec 2013 16:16:45.262,947.623
30,6 Dec 2013 08:05:25.396,6 Dec 2013 08:19:37.445,852.049
31,6 Dec 2013 09:49:11.220,6 Dec 2013 10:06:02.579,1011.359
32,6 Dec 2013 11:37:23.654,6 Dec 2013 11:53:21.322,957.668
33,6 Dec 2013 13:23:52.201,6 Dec 2013 13:40:51.661,1019.460
34,6 Dec 2013 15:12:57.828,6 Dec 2013 15:20:13.176,435.347
35,7 Dec 2013 05:33:12.786,7 Dec 2013 05:41:05.668,472.882
36,7 Dec 2013 07:11:38.059,7 Dec 2013 07:28:30.797,1012.738
37,7 Dec 2013 08:59:27.799,7 Dec 2013 09:14:03.252,875.453
38,7 Dec 2013 10:47:31.888,7 Dec 2013 11:03:16.705,944.816
39,7 Dec 2013 12:29:12.545,7 Dec 2013 12:45:03.328,950.783
40,7 Dec 2013 14:08:08.492,7 Dec 2013 14:23:11.436,902.944
41,7 Dec 2013 15:47:24.498,7 Dec 2013 16:01:16.966,832.468
42,7 Dec 2013 17:27:13.182,7 Dec 2013 17:40:06.703,773.522
43,7 Dec 2013 19:08:07.364,7 Dec 2013 19:19:44.143,696.779
44,7 Dec 2013 20:51:03.140,7 Dec 2013 20:59:16.692,493.551
45,8 Dec 2013 04:33:18.610,8 Dec 2013 04:49:45.641,987.031
46,8 Dec 2013 06:20:16.871,8 Dec 2013 06:32:21.602,724.731
47,8 Dec 2013 08:04:16.473,8 Dec 2013 08:15:57.245,700.772
48,8 Dec 2013 09:43:34.387,8 Dec 2013 09:57:35.272,840.885
49,8 Dec 2013 11:22:56.216,8 Dec 2013 11:37:46.550,890.334
50,8 Dec 2013 13:02:41.345,8 Dec 2013 13:17:36.785,895.440
51,8 Dec 2013 14:43:21.383,8 Dec 2013 14:57:53.401,872.018
52,8 Dec 2013 16:25:14.193,8 Dec 2013 16:39:25.305,851.112
53,8 Dec 2013 18:07:57.540,8 Dec 2013 18:23:08.603,911.063
54,9 Dec 2013 01:54:13.706,9 Dec 2013 02:09:26.200,912.494

"Access","Start Time (UTCG)","Stop Time (UTCG)","Duration (sec)"
1,3 Dec 2013 05:42:33.824,3 Dec 2013 05:44:40.852,127.028
2,3 Dec 2013 07:17:10.410,3 Dec 2013 07:33:54.276,1003.866
3,3 Dec 2013 09:04:49.211,3 Dec 2013 09:18:11.130,801.918
4,3 Dec 2013 10:53:18.141,3 Dec 2013 11:05:22.932,724.792
5,3 Dec 2013 12:31:29.935,3 Dec 2013 12:46:36.125,906.190
6,3 Dec 2013 14:10:19.680,3 Dec 2013 14:26:11.776,952.097
7,3 Dec 2013 15:49:34.334,3 Dec 2013 16:05:36.187,961.853
8,3 Dec 2013 17:29:29.592,3 Dec 2013 17:45:38.413,968.821
9,3 Dec 2013 19:10:22.755,3 Dec 2013 19:26:37.809,975.054
10,3 Dec 2013 20:52:54.308,3 Dec 2013 21:06:39.399,825.092
11,4 Dec 2013 04:38:20.609,4 Dec 2013 04:54:26.491,965.882
12,4 Dec 2013 06:22:33.790,4 Dec 2013 06:36:37.430,843.641
13,4 Dec 2013 08:03:55.681,4 Dec 2013 08:18:30.289,874.608
14,4 Dec 2013 09:44:14.117,4 Dec 2013 09:59:11.128,897.011
15,4 Dec 2013 11:24:04.705,4 Dec 2013 11:38:56.637,891.932
16,4 Dec 2013 13:04:14.656,4 Dec 2013 13:18:17.938,843.282
17,4 Dec 2013 14:45:49.944,4 Dec 2013 14:57:34.156,704.212
18,4 Dec 2013 16:29:22.213,4 Dec 2013 16:43:42.896,860.683
19,4 Dec 2013 18:12:49.648,4 Dec 2013 18:28:37.919,948.271
20,5 Dec 2013 02:02:56.842,5 Dec 2013 02:10:32.086,455.243
21,5 Dec 2013 03:42:19.583,5 Dec 2013 03:53:39.344,679.761
22,5 Dec 2013 05:21:54.942,5 Dec 2013 05:34:37.237,762.295
23,5 Dec 2013 07:00:43.822,5 Dec 2013 07:14:27.823,824.001
24,5 Dec 2013 08:38:47.701,5 Dec 2013 08:53:45.085,897.384
25,5 Dec 2013 10:16:52.410,5 Dec 2013 10:32:42.297,949.887
26,5 Dec 2013 12:00:25.242,5 Dec 2013 12:16:10.796,945.555
27,5 Dec 2013 13:49:02.865,5 Dec 2013 14:04:28.801,925.936
28,5 Dec 2013 15:34:33.015,5 Dec 2013 15:51:15.127,1002.112
29,6 Dec 2013 07:41:19.990,6 Dec 2013 07:52:01.364,641.374
30,6 Dec 2013 09:22:32.360,6 Dec 2013 09:39:34.307,1021.947
31,6 Dec 2013 11:10:22.720,6 Dec 2013 11:26:15.818,953.098
32,6 Dec 2013 12:57:23.397,6 Dec 2013 13:14:23.044,1019.647
33,6 Dec 2013 14:44:23.629,6 Dec 2013 14:57:06.396,762.767
34,7 Dec 2013 06:45:46.070,7 Dec 2013 07:02:15.869,989.799
35,7 Dec 2013 08:32:04.264,7 Dec 2013 08:47:23.291,919.027
36,7 Dec 2013 10:20:53.720,7 Dec 2013 10:35:49.862,896.142
37,7 Dec 2013 12:04:32.775,7 Dec 2013 12:20:22.745,949.970
38,7 Dec 2013 13:43:22.543,7 Dec 2013 13:58:42.191,919.648
39,7 Dec 2013 15:22:33.357,7 Dec 2013 15:36:42.630,849.273
40,7 Dec 2013 17:02:11.391,7 Dec 2013 17:15:19.112,787.720
41,7 Dec 2013 18:42:45.384,7 Dec 2013 18:54:46.945,721.562
42,7 Dec 2013 20:25:01.567,7 Dec 2013 20:34:30.854,569.286
43,8 Dec 2013 04:08:18.231,8 Dec 2013 04:23:42.516,924.285
44,8 Dec 2013 05:52:27.275,8 Dec 2013 06:06:51.169,863.894
45,8 Dec 2013 07:39:27.807,8 Dec 2013 07:50:09.415,641.608
46,8 Dec 2013 09:18:44.818,8 Dec 2013 09:32:21.898,817.080
47,8 Dec 2013 10:58:04.668,8 Dec 2013 11:12:47.936,883.269
48,8 Dec 2013 12:37:41.171,8 Dec 2013 12:52:38.329,897.157
49,8 Dec 2013 14:18:04.687,8 Dec 2013 14:32:44.706,880.020
50,8 Dec 2013 15:59:39.674,8 Dec 2013 16:13:45.025,845.351
51,8 Dec 2013 17:41:57.854,8 Dec 2013 17:58:18.383,980.528
52,9 Dec 2013 01:30:27.932,9 Dec 2013 01:43:07.354,759.423

"Access","Start Time (UTCG)","Stop Time (UTCG)","Duration (sec)"
1,3 Dec 2013 06:51:39.708,3 Dec 2013 07:07:46.420,966.713
2,3 Dec 2013 08:37:11.430,3 Dec 2013 08:51:57.464,886.033
3,3 Dec 2013 10:27:40.445,3 Dec 2013 10:39:23.292,702.846
4,3 Dec 2013 12:06:51.681,3 Dec 2013 12:21:31.598,879.918
5,3 Dec 2013 13:45:35.148,3 Dec 2013 14:01:21.519,946.371
6,3 Dec 2013 15:24:42.685,3 Dec 2013 15:40:42.928,960.243
7,3 Dec 2013 17:04:25.840,3 Dec 2013 17:20:32.772,966.933
8,3 Dec 2013 18:45:03.582,3 Dec 2013 19:01:17.585,974.003
9,3 Dec 2013 20:26:46.693,3 Dec 2013 20:42:29.667,942.973
10,4 Dec 2013 04:13:47.855,4 Dec 2013 04:28:23.589,875.735
11,4 Dec 2013 05:56:32.199,4 Dec 2013 06:10:59.923,867.724
12,4 Dec 2013 07:38:42.420,4 Dec 2013 07:53:08.671,866.251
13,4 Dec 2013 09:19:13.630,4 Dec 2013 09:34:07.271,893.641
14,4 Dec 2013 10:59:07.375,4 Dec 2013 11:14:03.686,896.310
15,4 Dec 2013 12:39:07.088,4 Dec 2013 12:53:28.474,861.385
16,4 Dec 2013 14:20:13.713,4 Dec 2013 14:32:45.436,751.723
17,4 Dec 2013 16:03:35.066,4 Dec 2013 16:15:53.264,738.198
18,4 Dec 2013 17:46:46.587,4 Dec 2013 18:03:22.599,996.012
19,5 Dec 2013 01:38:35.996,5 Dec 2013 01:43:58.425,322.429
20,5 Dec 2013 03:17:23.241,5 Dec 2013 03:28:08.726,645.486
21,5 Dec 2013 04:57:04.429,5 Dec 2013 05:09:30.715,746.286
22,5 Dec 2013 06:36:06.727,5 Dec 2013 06:49:34.354,807.626
23,5 Dec 2013 08:14:19.057,5 Dec 2013 08:28:57.727,878.670
24,5 Dec 2013 09:52:17.508,5 Dec 2013 10:08:00.136,942.627
25,5 Dec 2013 11:33:10.929,5 Dec 2013 11:49:36.428,985.498
26,5 Dec 2013 13:22:13.509,5 Dec 2013 13:37:10.083,896.574
27,5 Dec 2013 15:08:15.744,5 Dec 2013 15:25:10.963,1015.219
28,5 Dec 2013 16:55:09.465,5 Dec 2013 17:05:08.531,599.066
29,6 Dec 2013 08:56:17.415,6 Dec 2013 09:13:06.048,1008.633
30,6 Dec 2013 10:43:14.816,6 Dec 2013 10:59:20.187,965.371
31,6 Dec 2013 12:30:52.141,6 Dec 2013 12:47:33.670,1001.528
32,6 Dec 2013 14:17:10.026,6 Dec 2013 14:32:23.380,913.354
33,7 Dec 2013 06:20:31.301,7 Dec 2013 06:35:50.638,919.337
34,7 Dec 2013 08:04:52.355,7 Dec 2013 08:20:58.551,966.196
35,7 Dec 2013 09:54:00.614,7 Dec 2013 10:08:21.106,860.492
36,7 Dec 2013 11:39:55.626,7 Dec 2013 11:55:36.177,940.551
37,7 Dec 2013 13:18:37.780,7 Dec 2013 13:34:11.842,934.062
38,7 Dec 2013 14:57:43.795,7 Dec 2013 15:12:10.751,866.956
39,7 Dec 2013 16:37:13.045,7 Dec 2013 16:50:34.957,801.912
40,7 Dec 2013 18:17:29.527,7 Dec 2013 18:29:51.129,741.602
41,7 Dec 2013 19:59:13.825,7 Dec 2013 20:09:37.941,624.116
42,8 Dec 2013 03:44:10.031,8 Dec 2013 03:57:14.340,784.309
43,8 Dec 2013 05:25:23.338,8 Dec 2013 05:41:16.046,952.708
44,8 Dec 2013 07:14:40.588,8 Dec 2013 07:24:08.795,568.207
45,8 Dec 2013 08:53:55.268,8 Dec 2013 09:07:01.983,786.716
46,8 Dec 2013 10:33:14.077,8 Dec 2013 10:47:47.194,873.117
47,8 Dec 2013 12:12:43.954,8 Dec 2013 12:27:40.940,896.986
48,8 Dec 2013 13:52:52.655,8 Dec 2013 14:07:39.402,886.748
49,8 Dec 2013 15:34:09.064,8 Dec 2013 15:48:23.045,853.982
50,8 Dec 2013 17:16:14.603,8 Dec 2013 17:32:44.243,989.640
51,8 Dec 2013 19:02:12.595,8 Dec 2013 19:09:12.183,419.588
52,9 Dec 2013 01:08:31.631,9 Dec 2013 01:15:24.623,412.991

"Access","Start Time (UTCG)","Stop Time (UTCG)","Duration (sec)"
1,3 Dec 2013 06:26:52.154,3 Dec 2013 06:41:22.917,870.763
2,3 Dec 2013 08:09:59.009,3 Dec 2013 08:25:54.300,955.290
3,3 Dec 2013 10:00:22.781,3 Dec 2013 10:11:47.634,684.853
4,3 Dec 2013 11:42:16.073,3 Dec 2013 11:56:19.569,843.496
5,3 Dec 2013 13:20:51.957,3 Dec 2013 13:36:29.641,937.684
6,3 Dec 2013 14:59:53.228,3 Dec 2013 15:15:51.600,958.372
7,3 Dec 2013 16:39:25.571,3 Dec 2013 16:55:30.703,965.132
8,3 Dec 2013 18:19:48.352,3 Dec 2013 18:36:00.844,972.492
9,3 Dec 2013 20:01:12.809,3 Dec 2013 20:17:27.442,974.633
10,4 Dec 2013 03:50:18.577,4 Dec 2013 04:01:43.492,684.914
11,4 Dec 2013 05:29:42.394,4 Dec 2013 05:45:37.243,954.849
12,4 Dec 2013 07:13:24.662,4 Dec 2013 07:27:42.411,857.749
13,4 Dec 2013 08:54:10.759,4 Dec 2013 09:08:59.410,888.651
14,4 Dec 2013 10:34:10.334,4 Dec 2013 10:49:08.804,898.470
15,4 Dec 2013 12:14:03.608,4 Dec 2013 12:28:38.631,875.023
16,4 Dec 2013 13:54:46.692,4 Dec 2013 14:07:56.395,789.703
17,4 Dec 2013 15:37:37.066,4 Dec 2013 15:47:30.870,593.803
18,4 Dec 2013 17:20:54.143,4 Dec 2013 17:37:27.452,993.309
19,4 Dec 2013 19:06:21.355,4 Dec 2013 19:16:20.712,599.356
20,5 Dec 2013 02:52:28.615,5 Dec 2013 03:02:29.230,600.615
21,5 Dec 2013 04:32:11.222,5 Dec 2013 04:44:19.395,728.173
22,5 Dec 2013 06:11:26.260,5 Dec 2013 06:24:38.460,792.199
23,5 Dec 2013 07:49:49.388,5 Dec 2013 08:04:09.191,859.802
24,5 Dec 2013 09:27:45.856,5 Dec 2013 09:43:16.388,930.533
25,5 Dec 2013 11:06:16.971,5 Dec 2013 11:23:07.687,1010.716
26,5 Dec 2013 12:55:06.916,5 Dec 2013 13:09:56.674,889.758
27,5 Dec 2013 14:41:58.838,5 Dec 2013 14:58:38.058,999.220
28,5 Dec 2013 16:27:40.662,5 Dec 2013 16:41:31.936,831.274
29,6 Dec 2013 08:30:32.125,6 Dec 2013 08:46:30.743,958.618
30,6 Dec 2013 10:16:07.956,6 Dec 2013 10:32:36.434,988.478
31,6 Dec 2013 12:04:13.375,6 Dec 2013 12:20:30.249,976.874
32,6 Dec 2013 13:50:24.847,6 Dec 2013 14:06:53.984,989.137
33,7 Dec 2013 05:56:05.967,7 Dec 2013 06:09:01.511,775.544
34,7 Dec 2013 07:38:01.619,7 Dec 2013 07:54:43.021,1001.403
35,7 Dec 2013 09:26:50.362,7 Dec 2013 09:41:02.816,852.454
36,7 Dec 2013 11:14:00.895,7 Dec 2013 11:30:30.647,989.752
37,7 Dec 2013 12:53:54.350,7 Dec 2013 13:09:39.277,944.926
38,7 Dec 2013 14:32:55.554,7 Dec 2013 14:47:40.636,885.082
39,7 Dec 2013 16:12:17.584,7 Dec 2013 16:25:54.294,816.710
40,7 Dec 2013 17:52:19.019,7 Dec 2013 18:04:57.517,758.498
41,7 Dec 2013 19:33:36.415,7 Dec 2013 19:44:41.635,665.220
42,7 Dec 2013 21:18:16.148,7 Dec 2013 21:21:26.198,190.049
43,8 Dec 2013 03:21:33.258,8 Dec 2013 03:29:42.593,489.335
44,8 Dec 2013 04:59:01.039,8 Dec 2013 05:15:35.093,994.053
45,8 Dec 2013 06:48:57.273,8 Dec 2013 06:57:52.638,535.365
46,8 Dec 2013 08:29:05.767,8 Dec 2013 08:41:34.242,748.476
47,8 Dec 2013 10:08:24.076,8 Dec 2013 10:22:43.331,859.255
48,8 Dec 2013 11:47:49.144,8 Dec 2013 12:02:43.937,894.793
49,8 Dec 2013 13:27:45.009,8 Dec 2013 13:42:36.948,891.939
50,8 Dec 2013 15:08:42.872,8 Dec 2013 15:23:06.000,863.128
51,8 Dec 2013 16:50:43.224,8 Dec 2013 17:06:27.927,944.704
52,8 Dec 2013 18:34:26.009,8 Dec 2013 18:47:03.415,757.406

"Access","Start Time (UTCG)","Stop Time (UTCG)","Duration (sec)"
1,3 Dec 2013 01:24:26.981,3 Dec 2013 01:38:41.718,854.737
2,3 Dec 2013 03:07:33.947,3 Dec 2013 03:23:07.173,933.226
3,3 Dec 2013 10:54:47.146,3 Dec 2013 11:07:40.196,773.050
4,3 Dec 2013 12:35:31.700,3 Dec 2013 12:49:51.788,860.088
5,3 Dec 2013 14:15:48.349,3 Dec 2013 14:30:38.468,890.119
6,3 Dec 2013 15:55:12.342,3 Dec 2013 16:10:24.888,912.546
7,3 Dec 2013 17:33:53.334,3 Dec 2013 17:49:35.878,942.543
8,3 Dec 2013 19:12:37.276,3 Dec 2013 19:28:25.330,948.054
9,3 Dec 2013 20:55:19.099,3 Dec 2013 21:10:22.928,903.829
10,3 Dec 2013 22:43:51.191,3 Dec 2013 22:59:07.113,915.922
11,4 Dec 2013 00:29:01.412,4 Dec 2013 00:45:35.367,993.955
12,4 Dec 2013 16:34:27.805,4 Dec 2013 16:46:45.988,738.183
13,4 Dec 2013 18:16:53.103,4 Dec 2013 18:33:53.851,1020.748
14,4 Dec 2013 20:04:57.420,4 Dec 2013 20:20:50.327,952.906
15,4 Dec 2013 21:51:42.987,4 Dec 2013 22:08:44.785,1021.798
16,4 Dec 2013 23:39:05.246,4 Dec 2013 23:50:18.494,673.248
17,5 Dec 2013 15:40:05.596,5 Dec 2013 15:56:44.307,998.711
18,5 Dec 2013 17:26:42.970,5 Dec 2013 17:42:11.265,928.295
19,5 Dec 2013 19:15:06.023,5 Dec 2013 19:30:45.287,939.264
20,5 Dec 2013 21:00:17.621,5 Dec 2013 21:16:01.058,943.436
21,5 Dec 2013 22:39:23.292,5 Dec 2013 22:53:32.468,849.176
22,6 Dec 2013 00:18:53.555,6 Dec 2013 00:30:40.495,706.940
23,6 Dec 2013 01:58:54.435,6 Dec 2013 02:08:20.274,565.839
24,6 Dec 2013 03:40:15.100,6 Dec 2013 03:46:28.852,373.752
25,6 Dec 2013 13:02:46.615,6 Dec 2013 13:18:27.102,940.487
26,6 Dec 2013 14:47:26.363,6 Dec 2013 15:01:55.069,868.705
27,6 Dec 2013 16:36:22.481,6 Dec 2013 16:46:09.799,587.318
28,6 Dec 2013 18:14:58.521,6 Dec 2013 18:28:39.837,821.316
29,6 Dec 2013 19:54:02.058,6 Dec 2013 20:09:03.891,901.833
30,6 Dec 2013 21:33:26.577,6 Dec 2013 21:48:52.458,925.881
31,6 Dec 2013 23:13:33.585,6 Dec 2013 23:29:01.909,928.325
32,7 Dec 2013 00:54:42.752,7 Dec 2013 01:10:07.662,924.910
33,7 Dec 2013 02:36:51.031,7 Dec 2013 02:53:02.009,970.978
34,7 Dec 2013 10:24:51.557,7 Dec 2013 10:38:19.058,807.501
35,7 Dec 2013 12:04:58.029,7 Dec 2013 12:21:14.442,976.413
36,7 Dec 2013 13:46:30.357,7 Dec 2013 14:02:35.997,965.641
37,7 Dec 2013 15:27:00.440,7 Dec 2013 15:42:57.350,956.910
38,7 Dec 2013 17:06:46.174,7 Dec 2013 17:22:29.098,942.924
39,7 Dec 2013 18:46:30.500,7 Dec 2013 19:01:31.296,900.796
40,7 Dec 2013 20:27:27.089,7 Dec 2013 20:40:07.607,760.518
41,7 Dec 2013 22:13:02.327,7 Dec 2013 22:26:19.702,797.375
42,7 Dec 2013 23:57:23.495,8 Dec 2013 00:14:08.643,1005.148
43,8 Dec 2013 01:45:38.884,8 Dec 2013 01:49:56.348,257.464
44,8 Dec 2013 14:26:37.428,8 Dec 2013 14:35:48.061,550.634
45,8 Dec 2013 16:02:23.424,8 Dec 2013 16:15:56.180,812.756
46,8 Dec 2013 17:44:11.458,8 Dec 2013 18:01:10.253,1018.794
47,8 Dec 2013 19:32:36.131,8 Dec 2013 19:48:07.870,931.739
48,8 Dec 2013 21:19:19.727,8 Dec 2013 21:36:16.036,1016.309
49,8 Dec 2013 23:05:53.402,8 Dec 2013 23:18:08.892,735.490

"Access","Start Time (UTCG)","Stop Time (UTCG)","Duration (sec)"
1,3 Dec 2013 01:00:00.000,3 Dec 2013 01:10:48.367,648.367
2,3 Dec 2013 02:41:32.171,3 Dec 2013 02:58:02.249,990.077
3,3 Dec 2013 10:30:40.733,3 Dec 2013 10:41:49.572,668.839
4,3 Dec 2013 12:10:21.477,3 Dec 2013 12:24:27.944,846.467
5,3 Dec 2013 13:50:48.717,3 Dec 2013 14:05:33.402,884.686
6,3 Dec 2013 15:30:26.388,3 Dec 2013 15:45:32.534,906.147
7,3 Dec 2013 17:09:15.181,3 Dec 2013 17:24:50.336,935.154
8,3 Dec 2013 18:47:52.325,3 Dec 2013 19:03:45.123,952.798
9,3 Dec 2013 20:27:53.840,3 Dec 2013 20:43:45.993,952.153
10,3 Dec 2013 22:17:09.087,3 Dec 2013 22:31:43.561,874.475
11,4 Dec 2013 00:02:46.745,4 Dec 2013 00:19:39.903,1013.158
12,4 Dec 2013 01:49:56.052,4 Dec 2013 01:58:33.561,517.509
13,4 Dec 2013 16:11:44.292,4 Dec 2013 16:17:50.822,366.531
14,4 Dec 2013 17:50:27.318,4 Dec 2013 18:07:25.036,1017.718
15,4 Dec 2013 19:37:51.183,4 Dec 2013 19:53:50.551,959.368
16,4 Dec 2013 21:25:14.252,4 Dec 2013 21:42:03.544,1009.292
17,4 Dec 2013 23:11:36.033,4 Dec 2013 23:26:03.727,867.695
18,5 Dec 2013 15:14:39.479,5 Dec 2013 15:30:18.718,939.240
19,5 Dec 2013 16:59:31.173,5 Dec 2013 17:15:39.376,968.202
20,5 Dec 2013 18:48:18.874,5 Dec 2013 19:03:22.268,903.394
21,5 Dec 2013 20:34:39.069,5 Dec 2013 20:51:26.508,1007.440
22,5 Dec 2013 22:14:34.207,5 Dec 2013 22:29:14.441,880.234
23,5 Dec 2013 23:53:58.867,6 Dec 2013 00:06:22.134,743.267
24,6 Dec 2013 01:33:49.744,6 Dec 2013 01:43:50.902,601.158
25,6 Dec 2013 03:14:41.365,6 Dec 2013 03:21:58.816,437.451
26,6 Dec 2013 12:38:24.391,6 Dec 2013 12:52:01.518,817.127
27,6 Dec 2013 14:20:18.353,6 Dec 2013 14:36:10.763,952.410
28,6 Dec 2013 16:11:58.950,6 Dec 2013 16:19:51.406,472.456
29,6 Dec 2013 17:50:15.405,6 Dec 2013 18:03:18.978,783.573
30,6 Dec 2013 19:29:14.693,6 Dec 2013 19:44:03.971,889.278
31,6 Dec 2013 21:08:32.495,6 Dec 2013 21:23:55.149,922.655
32,6 Dec 2013 22:48:26.466,6 Dec 2013 23:03:55.356,928.890
33,7 Dec 2013 00:29:19.413,7 Dec 2013 00:44:44.643,925.230
34,7 Dec 2013 02:11:09.542,7 Dec 2013 02:27:38.286,988.744
35,7 Dec 2013 03:57:58.033,7 Dec 2013 04:02:30.401,272.368
36,7 Dec 2013 10:02:13.267,7 Dec 2013 10:11:08.594,535.326
37,7 Dec 2013 11:39:25.610,7 Dec 2013 11:55:45.334,979.723
38,7 Dec 2013 13:21:13.265,7 Dec 2013 13:37:21.204,967.939
39,7 Dec 2013 15:01:58.187,7 Dec 2013 15:17:57.402,959.214
40,7 Dec 2013 16:41:52.009,7 Dec 2013 16:57:39.652,947.643
41,7 Dec 2013 18:21:31.159,7 Dec 2013 18:36:47.764,916.605
42,7 Dec 2013 20:02:00.397,7 Dec 2013 20:15:32.347,811.950
43,7 Dec 2013 21:46:25.648,7 Dec 2013 21:58:30.138,724.490
44,7 Dec 2013 23:31:22.715,7 Dec 2013 23:47:57.808,995.093
45,8 Dec 2013 01:16:46.073,8 Dec 2013 01:28:29.524,703.451
46,8 Dec 2013 14:02:50.055,8 Dec 2013 14:10:34.850,464.795
47,8 Dec 2013 15:38:21.054,8 Dec 2013 15:50:59.316,758.262
48,8 Dec 2013 17:17:39.955,8 Dec 2013 17:34:40.107,1020.153
49,8 Dec 2013 19:05:25.519,8 Dec 2013 19:21:07.148,941.628
50,8 Dec 2013 20:52:54.595,8 Dec 2013 21:09:31.065,996.470
51,8 Dec 2013 22:38:46.249,8 Dec 2013 22:53:44.727,898.478

"Access","Start Time (UTCG)","Stop Time (UTCG)","Duration (sec)"
1,3 Dec 2013 02:15:43.298,3 Dec 2013 02:32:15.803,992.506
2,3 Dec 2013 04:01:20.468,3 Dec 2013 04:10:11.999,531.531
3,3 Dec 2013 11:45:10.038,3 Dec 2013 11:58:58.453,828.415
4,3 Dec 2013 13:25:45.825,3 Dec 2013 13:40:24.168,878.343
5,3 Dec 2013 15:05:37.185,3 Dec 2013 15:20:37.626,900.441
6,3 Dec 2013 16:44:36.149,3 Dec 2013 17:00:03.471,927.322
7,3 Dec 2013 18:23:10.822,3 Dec 2013 18:39:03.330,952.507
8,3 Dec 2013 20:02:23.146,3 Dec 2013 20:17:39.114,915.968
9,3 Dec 2013 21:50:07.354,3 Dec 2013 22:04:22.331,854.977
10,3 Dec 2013 23:36:34.119,3 Dec 2013 23:53:13.407,999.289
11,4 Dec 2013 01:22:11.493,4 Dec 2013 01:35:25.890,794.397
12,4 Dec 2013 17:24:28.485,4 Dec 2013 17:40:51.601,983.116
13,4 Dec 2013 19:10:42.482,4 Dec 2013 19:27:02.173,979.691
14,4 Dec 2013 20:58:39.412,4 Dec 2013 21:15:05.227,985.815
15,4 Dec 2013 22:44:45.312,4 Dec 2013 23:00:51.833,966.521
16,5 Dec 2013 14:49:58.377,5 Dec 2013 15:03:33.119,814.741
17,5 Dec 2013 16:32:36.663,5 Dec 2013 16:49:18.073,1001.410
18,5 Dec 2013 18:21:16.787,5 Dec 2013 18:36:03.587,886.799
19,5 Dec 2013 20:08:10.280,5 Dec 2013 20:25:01.904,1011.624
20,5 Dec 2013 21:49:46.717,5 Dec 2013 22:04:53.922,907.206
21,5 Dec 2013 23:29:05.657,5 Dec 2013 23:42:05.286,779.629
22,6 Dec 2013 01:08:48.513,6 Dec 2013 01:19:24.493,635.979
23,6 Dec 2013 02:49:18.596,6 Dec 2013 02:57:25.550,486.954
24,6 Dec 2013 04:32:52.726,6 Dec 2013 04:34:21.933,89.207
25,6 Dec 2013 12:15:20.357,6 Dec 2013 12:24:45.295,564.939
26,6 Dec 2013 13:53:48.907,6 Dec 2013 14:10:24.052,995.145
27,6 Dec 2013 15:43:34.835,6 Dec 2013 15:53:33.228,598.394
28,6 Dec 2013 17:25:34.145,6 Dec 2013 17:37:48.795,734.650
29,6 Dec 2013 19:04:28.339,6 Dec 2013 19:19:00.843,872.504
30,6 Dec 2013 20:43:40.638,6 Dec 2013 20:58:58.514,917.876
31,6 Dec 2013 22:23:23.160,6 Dec 2013 22:38:51.948,928.788
32,7 Dec 2013 00:04:00.015,7 Dec 2013 00:19:26.195,926.180
33,7 Dec 2013 01:45:39.958,7 Dec 2013 02:01:31.353,951.395
34,7 Dec 2013 03:29:26.786,7 Dec 2013 03:41:17.383,710.597
35,7 Dec 2013 11:13:50.773,7 Dec 2013 11:30:13.320,982.547
36,7 Dec 2013 12:55:52.110,7 Dec 2013 13:12:02.578,970.467
37,7 Dec 2013 14:36:52.629,7 Dec 2013 14:52:54.003,961.374
38,7 Dec 2013 16:16:56.788,7 Dec 2013 16:32:48.114,951.327
39,7 Dec 2013 17:56:34.752,7 Dec 2013 18:12:02.945,928.192
40,7 Dec 2013 19:36:43.472,7 Dec 2013 19:50:53.983,850.510
41,7 Dec 2013 21:19:18.702,7 Dec 2013 21:30:50.050,691.348
42,7 Dec 2013 23:05:22.783,7 Dec 2013 23:21:13.508,950.725
43,8 Dec 2013 00:49:52.436,8 Dec 2013 01:04:35.752,883.316
44,8 Dec 2013 13:39:08.150,8 Dec 2013 13:45:13.266,365.117
45,8 Dec 2013 15:14:22.925,8 Dec 2013 15:25:59.290,696.365
46,8 Dec 2013 16:51:34.492,8 Dec 2013 17:08:04.146,989.654
47,8 Dec 2013 18:38:11.605,8 Dec 2013 18:54:18.787,967.182
48,8 Dec 2013 20:26:21.356,8 Dec 2013 20:42:28.738,967.382
49,8 Dec 2013 22:12:08.045,8 Dec 2013 22:28:29.101,981.056

"Access","Start Time (UTCG)","Stop Time (UTCG)","Duration (sec)"
1,3 Dec 2013 01:50:02.443,3 Dec 2013 02:05:49.587,947.144
2,3 Dec 2013 03:33:59.077,3 Dec 2013 03:47:21.566,802.489
3,3 Dec 2013 11:19:58.241,3 Dec 2013 11:33:22.790,804.549
4,3 Dec 2013 13:00:40.005,3 Dec 2013 13:15:10.410,870.405
5,3 Dec 2013 14:40:44.529,3 Dec 2013 14:55:39.744,895.215
6,3 Dec 2013 16:19:55.427,3 Dec 2013 16:35:15.085,919.658
7,3 Dec 2013 17:58:31.539,3 Dec 2013 18:14:20.211,948.672
8,3 Dec 2013 19:37:27.039,3 Dec 2013 19:53:03.538,936.499
9,3 Dec 2013 21:22:47.724,3 Dec 2013 21:37:14.132,866.409
10,3 Dec 2013 23:10:17.572,3 Dec 2013 23:26:20.367,962.795
11,4 Dec 2013 00:55:25.461,4 Dec 2013 01:10:54.414,928.953
12,4 Dec 2013 16:59:03.637,4 Dec 2013 17:14:04.400,900.763
13,4 Dec 2013 18:43:40.338,4 Dec 2013 19:00:24.493,1004.155
14,4 Dec 2013 20:31:54.345,4 Dec 2013 20:47:57.788,963.443
15,4 Dec 2013 22:18:11.056,4 Dec 2013 22:35:02.765,1011.710
16,5 Dec 2013 00:10:18.795,5 Dec 2013 00:10:31.879,13.084
17,5 Dec 2013 14:26:32.850,5 Dec 2013 14:35:56.328,563.478
18,5 Dec 2013 16:06:06.469,5 Dec 2013 16:23:01.694,1015.225
19,5 Dec 2013 17:54:01.994,5 Dec 2013 18:08:58.669,896.676
20,5 Dec 2013 19:41:41.320,5 Dec 2013 19:58:01.485,980.165
21,5 Dec 2013 21:25:01.070,5 Dec 2013 21:40:29.820,928.750
22,5 Dec 2013 23:04:13.800,5 Dec 2013 23:17:49.062,815.262
23,6 Dec 2013 00:43:49.971,6 Dec 2013 00:55:01.102,671.131
24,6 Dec 2013 02:24:03.600,6 Dec 2013 02:32:52.146,528.546
25,6 Dec 2013 04:06:06.755,6 Dec 2013 04:10:48.722,281.967
26,6 Dec 2013 13:27:57.606,6 Dec 2013 13:44:31.251,993.645
27,6 Dec 2013 15:15:13.232,6 Dec 2013 15:27:40.647,747.414
28,6 Dec 2013 17:00:55.802,6 Dec 2013 17:12:06.883,671.080
29,6 Dec 2013 18:39:42.927,6 Dec 2013 18:53:53.257,850.330
30,6 Dec 2013 20:18:50.614,6 Dec 2013 20:34:01.735,911.121
31,6 Dec 2013 21:58:23.327,6 Dec 2013 22:13:51.174,927.847
32,6 Dec 2013 23:38:44.728,6 Dec 2013 23:54:12.058,927.331
33,7 Dec 2013 01:20:09.733,7 Dec 2013 01:35:35.380,925.647
34,7 Dec 2013 03:02:51.741,7 Dec 2013 03:17:39.988,888.247
35,7 Dec 2013 10:48:55.080,7 Dec 2013 11:04:30.029,934.949
36,7 Dec 2013 12:30:26.968,7 Dec 2013 12:46:40.261,973.293
37,7 Dec 2013 14:11:43.430,7 Dec 2013 14:27:46.913,963.483
38,7 Dec 2013 15:51:59.803,7 Dec 2013 16:07:54.138,954.334
39,7 Dec 2013 17:31:40.109,7 Dec 2013 17:47:16.777,936.668
40,7 Dec 2013 19:11:34.099,7 Dec 2013 19:26:13.454,879.356
41,7 Dec 2013 20:53:06.542,7 Dec 2013 21:04:38.066,691.524
42,7 Dec 2013 22:39:18.275,7 Dec 2013 22:53:58.653,880.378
43,8 Dec 2013 00:23:30.704,8 Dec 2013 00:39:43.274,972.570
44,8 Dec 2013 13:15:39.124,8 Dec 2013 13:19:34.868,235.744
45,8 Dec 2013 14:50:28.480,8 Dec 2013 15:00:55.762,627.282
46,8 Dec 2013 16:26:30.697,8 Dec 2013 16:41:13.172,882.475
47,8 Dec 2013 18:11:04.082,8 Dec 2013 18:27:41.278,997.196
48,8 Dec 2013 19:59:35.744,8 Dec 2013 20:15:17.720,941.976
49,8 Dec 2013 21:45:42.108,8 Dec 2013 22:02:37.187,1015.079
50,8 Dec 2013 23:34:33.189,8 Dec 2013 23:40:38.585,365.396

"Access","Start Time (UTCG)","Stop Time (UTCG)","Duration (sec)"
1,3 Dec 2013 01:03:55.238,3 Dec 2013 01:13:21.910,566.672
2,3 Dec 2013 02:44:40.377,3 Dec 2013 03:01:42.820,1022.442
3,3 Dec 2013 04:32:29.338,3 Dec 2013 04:48:20.445,951.107
4,3 Dec 2013 06:19:37.338,3 Dec 2013 06:36:31.436,1014.098
5,3 Dec 2013 08:06:04.521,3 Dec 2013 08:19:40.193,815.671
6,4 Dec 2013 00:08:46.797,4 Dec 2013 00:24:44.651,957.854
7,4 Dec 2013 01:54:08.216,4 Dec 2013 02:10:17.732,969.516
8,4 Dec 2013 03:42:37.794,4 Dec 2013 03:58:14.830,937.036
9,4 Dec 2013 05:28:54.185,4 Dec 2013 05:45:48.084,1013.899
10,4 Dec 2013 07:10:50.875,4 Dec 2013 07:23:43.890,773.015
11,4 Dec 2013 08:51:07.743,4 Dec 2013 08:59:24.222,496.479
12,4 Dec 2013 21:32:38.628,4 Dec 2013 21:46:44.188,845.560
13,4 Dec 2013 23:15:10.251,4 Dec 2013 23:31:03.608,953.357
14,5 Dec 2013 01:06:13.877,5 Dec 2013 01:15:57.947,584.070
15,5 Dec 2013 02:46:22.160,5 Dec 2013 02:59:47.232,805.072
16,5 Dec 2013 04:25:06.576,5 Dec 2013 04:40:20.197,913.620
17,5 Dec 2013 06:04:14.454,5 Dec 2013 06:20:00.561,946.107
18,5 Dec 2013 07:43:56.058,5 Dec 2013 07:59:53.965,957.906
19,5 Dec 2013 09:24:31.404,5 Dec 2013 09:40:37.751,966.347
20,5 Dec 2013 11:06:06.483,5 Dec 2013 11:22:33.445,986.962
21,5 Dec 2013 18:56:11.655,5 Dec 2013 19:06:32.215,620.559
22,5 Dec 2013 20:34:37.580,5 Dec 2013 20:50:39.114,961.534
23,5 Dec 2013 22:17:04.503,5 Dec 2013 22:32:32.836,928.333
24,5 Dec 2013 23:57:55.525,6 Dec 2013 00:13:26.466,930.941
25,6 Dec 2013 01:37:56.496,6 Dec 2013 01:53:21.051,924.556
26,6 Dec 2013 03:17:46.811,6 Dec 2013 03:32:38.914,892.103
27,6 Dec 2013 04:58:28.800,6 Dec 2013 05:11:37.738,788.937
28,6 Dec 2013 06:41:57.953,6 Dec 2013 06:52:59.425,661.472
29,6 Dec 2013 08:26:07.255,6 Dec 2013 08:42:41.428,994.173
30,6 Dec 2013 10:11:30.576,6 Dec 2013 10:22:25.882,655.306
31,6 Dec 2013 19:40:15.772,6 Dec 2013 19:46:57.508,401.736
32,6 Dec 2013 21:18:16.738,6 Dec 2013 21:27:57.397,580.659
33,6 Dec 2013 22:55:42.257,6 Dec 2013 23:07:51.719,729.462
34,7 Dec 2013 00:32:46.229,7 Dec 2013 00:47:18.666,872.437
35,7 Dec 2013 02:11:52.829,7 Dec 2013 02:28:55.051,1022.222
36,7 Dec 2013 04:00:13.274,7 Dec 2013 04:15:31.703,918.428
37,7 Dec 2013 05:47:25.735,7 Dec 2013 06:04:04.112,998.377
38,7 Dec 2013 07:33:12.378,7 Dec 2013 07:47:38.335,865.957
39,7 Dec 2013 23:36:38.360,7 Dec 2013 23:52:08.366,930.005
40,8 Dec 2013 01:21:35.027,8 Dec 2013 01:38:09.798,994.771
41,8 Dec 2013 03:09:47.881,8 Dec 2013 03:25:52.812,964.930
42,8 Dec 2013 04:56:05.852,8 Dec 2013 05:12:52.630,1006.777
43,8 Dec 2013 21:02:13.216,8 Dec 2013 21:14:26.694,733.478
44,8 Dec 2013 22:43:24.782,8 Dec 2013 23:00:05.644,1000.862
45,9 Dec 2013 00:32:22.810,9 Dec 2013 00:45:54.622,811.812

"Access","Start Time (UTCG)","Stop Time (UTCG)","Duration (sec)"
1,3 Dec 2013 02:18:28.332,3 Dec 2013 02:35:10.954,1002.622
2,3 Dec 2013 04:05:19.445,3 Dec 2013 04:21:27.319,967.874
3,3 Dec 2013 05:53:06.322,3 Dec 2013 06:09:38.585,992.263
4,3 Dec 2013 07:39:07.255,3 Dec 2013 07:54:47.070,939.815
5,3 Dec 2013 23:43:50.498,3 Dec 2013 23:58:02.059,851.561
6,4 Dec 2013 01:27:10.311,4 Dec 2013 01:43:50.941,1000.630
7,4 Dec 2013 03:15:42.392,4 Dec 2013 03:30:57.669,915.277
8,4 Dec 2013 05:02:22.582,4 Dec 2013 05:19:24.074,1021.492
9,4 Dec 2013 06:45:55.043,4 Dec 2013 06:59:39.850,824.807
10,4 Dec 2013 08:25:57.382,4 Dec 2013 08:35:33.706,576.324
11,4 Dec 2013 10:07:53.106,4 Dec 2013 10:10:02.360,129.254
12,4 Dec 2013 21:09:12.235,4 Dec 2013 21:19:38.407,626.172
13,4 Dec 2013 22:48:34.524,4 Dec 2013 23:05:10.724,996.199
14,5 Dec 2013 00:38:08.607,5 Dec 2013 00:49:13.015,664.407
15,5 Dec 2013 02:21:47.076,5 Dec 2013 02:34:19.027,751.951
16,5 Dec 2013 04:00:23.064,5 Dec 2013 04:15:20.201,897.136
17,5 Dec 2013 05:39:25.102,5 Dec 2013 05:55:06.276,941.174
18,5 Dec 2013 07:18:56.310,5 Dec 2013 07:34:51.925,955.614
19,5 Dec 2013 08:59:16.821,5 Dec 2013 09:15:20.957,964.136
20,5 Dec 2013 10:40:37.570,5 Dec 2013 10:56:52.347,974.777
21,5 Dec 2013 12:24:35.581,5 Dec 2013 12:35:27.349,651.768
22,5 Dec 2013 20:08:45.559,5 Dec 2013 20:25:12.324,986.765
23,5 Dec 2013 21:51:41.015,5 Dec 2013 22:07:09.402,928.387
24,5 Dec 2013 23:32:48.597,5 Dec 2013 23:48:19.154,930.557
25,6 Dec 2013 01:12:59.129,6 Dec 2013 01:28:26.857,927.728
26,6 Dec 2013 02:52:47.284,6 Dec 2013 03:07:51.594,904.310
27,6 Dec 2013 04:33:08.916,6 Dec 2013 04:46:54.773,825.858
28,6 Dec 2013 06:15:33.871,6 Dec 2013 06:25:30.330,596.459
29,6 Dec 2013 08:00:13.937,6 Dec 2013 08:16:02.319,948.382
30,6 Dec 2013 09:44:30.676,6 Dec 2013 09:58:50.376,859.699
31,6 Dec 2013 19:15:50.653,6 Dec 2013 19:21:18.440,327.787
32,6 Dec 2013 20:53:48.393,6 Dec 2013 21:02:51.418,543.025
33,6 Dec 2013 22:31:24.693,6 Dec 2013 22:42:56.330,691.637
34,7 Dec 2013 00:08:29.239,7 Dec 2013 00:22:29.056,839.817
35,7 Dec 2013 01:45:55.994,7 Dec 2013 02:02:22.681,986.688
36,7 Dec 2013 03:32:56.009,7 Dec 2013 03:48:37.904,941.895
37,7 Dec 2013 05:20:57.747,7 Dec 2013 05:37:04.527,966.780
38,7 Dec 2013 07:06:31.927,7 Dec 2013 07:22:36.974,965.047
39,7 Dec 2013 23:11:51.197,7 Dec 2013 23:25:07.810,796.613
40,8 Dec 2013 00:54:44.038,8 Dec 2013 01:11:39.661,1015.623
41,8 Dec 2013 02:42:53.391,8 Dec 2013 02:58:43.070,949.679
42,8 Dec 2013 04:29:34.535,8 Dec 2013 04:46:37.333,1022.799
43,8 Dec 2013 06:17:39.745,8 Dec 2013 06:27:47.745,608.000
44,8 Dec 2013 20:40:02.080,8 Dec 2013 20:46:02.131,360.050
45,8 Dec 2013 22:17:08.146,8 Dec 2013 22:33:57.633,1009.487
46,9 Dec 2013 00:04:51.195,9 Dec 2013 00:19:02.983,851.788
47,9 Dec 2013 01:53:26.033,9 Dec 2013 02:08:20.187,894.154

"Access","Start Time (UTCG)","Stop Time (UTCG)","Duration (sec)"
1,3 Dec 2013 01:52:46.559,3 Dec 2013 02:08:28.908,942.349
2,3 Dec 2013 03:38:12.327,3 Dec 2013 03:54:45.589,993.261
3,3 Dec 2013 05:26:25.912,3 Dec 2013 05:42:33.163,967.250
4,3 Dec 2013 07:12:31.135,3 Dec 2013 07:29:11.607,1000.472
5,3 Dec 2013 23:19:57.737,3 Dec 2013 23:30:39.330,641.593
6,4 Dec 2013 01:00:33.721,4 Dec 2013 01:17:30.511,1016.790
7,4 Dec 2013 02:48:34.332,4 Dec 2013 03:03:49.461,915.129
8,4 Dec 2013 04:35:53.315,4 Dec 2013 04:52:36.730,1003.415
9,4 Dec 2013 06:21:02.129,4 Dec 2013 06:35:30.965,868.836
10,4 Dec 2013 08:00:51.673,4 Dec 2013 08:11:40.260,648.586
11,4 Dec 2013 09:41:52.824,4 Dec 2013 09:46:50.315,297.491
12,4 Dec 2013 22:22:34.929,4 Dec 2013 22:39:14.108,999.178
13,5 Dec 2013 00:10:03.731,5 Dec 2013 00:22:57.582,773.851
14,5 Dec 2013 01:57:16.977,5 Dec 2013 02:08:37.675,680.697
15,5 Dec 2013 03:35:40.925,5 Dec 2013 03:50:15.777,874.852
16,5 Dec 2013 05:14:37.491,5 Dec 2013 05:30:12.109,934.618
17,5 Dec 2013 06:53:59.698,5 Dec 2013 07:09:52.707,953.009
18,5 Dec 2013 08:34:06.118,5 Dec 2013 08:50:08.185,962.067
19,5 Dec 2013 10:15:11.943,5 Dec 2013 10:31:23.555,971.612
20,5 Dec 2013 11:57:50.423,5 Dec 2013 12:12:10.578,860.155
21,5 Dec 2013 19:43:37.634,5 Dec 2013 19:59:29.974,952.340
22,5 Dec 2013 21:26:12.860,5 Dec 2013 21:41:42.366,929.506
23,5 Dec 2013 23:07:38.024,5 Dec 2013 23:23:07.823,929.799
24,6 Dec 2013 00:48:00.256,6 Dec 2013 01:03:29.967,929.711
25,6 Dec 2013 02:27:49.716,6 Dec 2013 02:43:03.043,913.327
26,6 Dec 2013 04:07:56.312,6 Dec 2013 04:22:10.499,854.187
27,6 Dec 2013 05:49:38.390,6 Dec 2013 06:00:57.052,678.662
28,6 Dec 2013 07:34:19.089,6 Dec 2013 07:48:48.627,869.538
29,6 Dec 2013 09:18:08.648,6 Dec 2013 09:34:09.867,961.219
30,6 Dec 2013 18:51:43.118,6 Dec 2013 18:55:14.035,210.918
31,6 Dec 2013 20:29:17.841,6 Dec 2013 20:37:40.622,502.781
32,6 Dec 2013 22:07:04.858,6 Dec 2013 22:17:59.129,654.272
33,6 Dec 2013 23:44:13.594,6 Dec 2013 23:57:37.994,804.400
34,7 Dec 2013 01:21:28.536,7 Dec 2013 01:36:52.841,924.305
35,7 Dec 2013 03:05:40.815,7 Dec 2013 03:21:56.756,975.941
36,7 Dec 2013 04:54:17.805,7 Dec 2013 05:09:52.522,934.718
37,7 Dec 2013 06:40:06.662,7 Dec 2013 06:56:55.885,1009.223
38,7 Dec 2013 08:31:18.847,7 Dec 2013 08:31:45.386,26.539
39,7 Dec 2013 22:48:24.501,7 Dec 2013 22:57:06.411,521.910
40,8 Dec 2013 00:28:13.699,8 Dec 2013 00:45:13.648,1019.948
41,8 Dec 2013 02:15:48.637,8 Dec 2013 02:31:40.116,951.478
42,8 Dec 2013 04:03:04.811,8 Dec 2013 04:19:58.182,1013.371
43,8 Dec 2013 05:49:47.997,8 Dec 2013 06:03:45.495,837.497
44,8 Dec 2013 21:51:25.213,8 Dec 2013 22:07:45.131,979.918
45,8 Dec 2013 23:37:22.967,8 Dec 2013 23:52:32.040,909.074
46,9 Dec 2013 01:26:44.099,9 Dec 2013 01:40:42.730,838.631

"Access","Start Time (UTCG)","Stop Time (UTCG)","Duration (sec)"
1,3 Dec 2013 01:27:45.326,3 Dec 2013 01:41:23.716,818.390
2,3 Dec 2013 03:11:16.905,3 Dec 2013 03:28:12.364,1015.458
3,3 Dec 2013 04:59:33.311,3 Dec 2013 05:15:24.209,950.898
4,3 Dec 2013 06:46:03.675,3 Dec 2013 07:03:04.374,1020.699
5,3 Dec 2013 08:33:55.342,3 Dec 2013 08:43:20.131,564.789
6,4 Dec 2013 00:34:24.096,4 Dec 2013 00:51:10.682,1006.586
7,4 Dec 2013 02:21:19.609,4 Dec 2013 02:36:56.041,936.432
8,4 Dec 2013 04:09:20.205,4 Dec 2013 04:25:31.153,970.948
9,4 Dec 2013 05:55:35.611,4 Dec 2013 06:11:16.504,940.893
10,4 Dec 2013 07:35:49.672,4 Dec 2013 07:47:43.812,714.140
11,4 Dec 2013 09:16:24.680,4 Dec 2013 09:23:10.955,406.274
12,4 Dec 2013 21:57:13.863,4 Dec 2013 22:13:08.327,954.465
13,4 Dec 2013 23:42:21.011,4 Dec 2013 23:56:57.379,876.367
14,5 Dec 2013 01:32:55.458,5 Dec 2013 01:42:38.197,582.739
15,5 Dec 2013 03:11:00.439,5 Dec 2013 03:25:05.389,844.950
16,5 Dec 2013 04:49:51.371,5 Dec 2013 05:05:17.104,925.733
17,5 Dec 2013 06:29:05.869,5 Dec 2013 06:44:55.796,949.927
18,5 Dec 2013 08:08:59.248,5 Dec 2013 08:24:59.271,960.023
19,5 Dec 2013 09:49:49.821,5 Dec 2013 10:05:58.636,968.815
20,5 Dec 2013 11:31:47.226,5 Dec 2013 11:47:45.977,958.751
21,5 Dec 2013 19:19:18.678,5 Dec 2013 19:33:24.079,845.401
22,5 Dec 2013 21:00:40.046,5 Dec 2013 21:16:12.124,932.078
23,5 Dec 2013 22:42:23.428,5 Dec 2013 22:57:52.369,928.941
24,6 Dec 2013 00:22:59.244,6 Dec 2013 00:38:29.962,930.718
25,6 Dec 2013 02:02:53.092,6 Dec 2013 02:18:12.981,919.889
26,6 Dec 2013 03:42:49.404,6 Dec 2013 03:57:25.192,875.788
27,6 Dec 2013 05:23:57.828,6 Dec 2013 05:36:18.845,741.017
28,6 Dec 2013 07:08:16.853,6 Dec 2013 07:21:04.016,767.163
29,6 Dec 2013 08:52:03.714,6 Dec 2013 09:08:44.679,1000.964
30,6 Dec 2013 20:04:46.250,6 Dec 2013 20:12:23.447,457.196
31,6 Dec 2013 21:42:42.273,6 Dec 2013 21:52:59.686,617.413
32,6 Dec 2013 23:19:58.265,6 Dec 2013 23:32:45.562,767.297
33,7 Dec 2013 00:57:05.636,7 Dec 2013 01:12:06.673,901.036
34,7 Dec 2013 02:38:37.366,7 Dec 2013 02:55:24.316,1006.950
35,7 Dec 2013 04:27:22.679,7 Dec 2013 04:42:38.359,915.680
36,7 Dec 2013 06:13:46.817,7 Dec 2013 06:30:43.167,1016.350
37,7 Dec 2013 08:00:29.157,7 Dec 2013 08:11:40.008,670.851
38,8 Dec 2013 00:02:09.715,8 Dec 2013 00:18:45.831,996.116
39,8 Dec 2013 01:48:39.538,8 Dec 2013 02:04:48.916,969.378
40,8 Dec 2013 03:36:30.828,8 Dec 2013 03:53:00.871,990.043
41,8 Dec 2013 05:22:46.328,8 Dec 2013 05:38:38.458,952.130
42,8 Dec 2013 21:26:21.999,8 Dec 2013 21:41:20.092,898.093
43,8 Dec 2013 23:10:11.331,8 Dec 2013 23:26:15.147,963.816
44,9 Dec 2013 00:59:43.289,9 Dec 2013 01:13:09.784,806.495

