STK Models/Altitude_variations/US_Greatcircle_12sat_550km/Aircraft-B747LAX_Heathrow-Transmitter-adsb_out6-To-Satellite-600km_p1_1-Receiver-adsb_satrcvr2 Access.csv

"Access","Start Time (UTCG)","Stop Time (UTCG)","Duration (sec)"
1,3 Dec 2013 01:16:58.925,3 Dec 2013 01:30:45.174,826.249
2,3 Dec 2013 02:52:58.754,3 Dec 2013 03:06:59.293,840.539
3,3 Dec 2013 04:28:20.544,3 Dec 2013 04:42:14.471,833.927
4,3 Dec 2013 06:03:40.332,3 Dec 2013 06:17:42.201,841.869
5,3 Dec 2013 07:40:13.506,3 Dec 2013 07:53:52.027,818.521
6,3 Dec 2013 09:19:15.072,3 Dec 2013 09:30:50.255,695.183
7,3 Dec 2013 10:59:44.926,3 Dec 2013 11:11:18.220,693.294
8,3 Dec 2013 12:37:26.067,3 Dec 2013 12:50:45.441,799.374
9,3 Dec 2013 20:16:00.665,3 Dec 2013 20:28:46.505,765.840
10,3 Dec 2013 21:53:34.760,3 Dec 2013 22:06:21.605,766.845
11,3 Dec 2013 23:30:28.351,3 Dec 2013 23:42:13.811,705.460
12,4 Dec 2013 01:05:42.883,4 Dec 2013 01:17:14.936,692.053
13,4 Dec 2013 02:39:40.608,4 Dec 2013 02:52:28.766,768.158
14,4 Dec 2013 04:14:01.825,4 Dec 2013 04:27:57.289,835.464
15,4 Dec 2013 05:50:53.296,4 Dec 2013 06:02:50.340,717.044
16,4 Dec 2013 07:34:03.725,4 Dec 2013 07:46:02.114,718.389
17,4 Dec 2013 09:14:48.024,4 Dec 2013 09:29:27.411,879.387
18,4 Dec 2013 10:56:10.349,4 Dec 2013 11:04:58.739,528.389
19,5 Dec 2013 02:29:06.040,5 Dec 2013 02:41:54.259,768.219
20,5 Dec 2013 04:10:10.945,5 Dec 2013 04:25:12.532,901.587
21,5 Dec 2013 05:53:04.364,5 Dec 2013 06:08:03.543,899.180
22,5 Dec 2013 07:35:13.297,5 Dec 2013 07:48:23.551,790.254
23,6 Dec 2013 00:53:43.278,6 Dec 2013 01:04:43.904,660.626
24,6 Dec 2013 02:33:11.514,6 Dec 2013 02:47:59.766,888.252
25,6 Dec 2013 04:15:34.900,6 Dec 2013 04:30:20.600,885.699
26,6 Dec 2013 05:58:59.014,6 Dec 2013 06:09:28.821,629.807
27,6 Dec 2013 23:14:57.953,6 Dec 2013 23:28:21.433,803.481
28,7 Dec 2013 00:55:31.717,7 Dec 2013 01:10:31.114,899.397
29,7 Dec 2013 02:37:39.521,7 Dec 2013 02:51:37.080,837.559
30,7 Dec 2013 04:12:59.316,7 Dec 2013 04:26:25.947,806.631
31,7 Dec 2013 05:48:05.146,7 Dec 2013 06:01:21.269,796.124
32,7 Dec 2013 07:23:37.330,7 Dec 2013 07:37:26.414,829.084
33,7 Dec 2013 09:00:35.613,7 Dec 2013 09:14:54.874,859.261
34,7 Dec 2013 10:39:16.219,7 Dec 2013 10:53:46.217,869.999
35,7 Dec 2013 12:19:00.371,7 Dec 2013 12:32:56.949,836.578
36,7 Dec 2013 19:58:01.439,7 Dec 2013 20:07:31.832,570.393
37,7 Dec 2013 21:34:04.506,7 Dec 2013 21:48:43.364,878.858

"Access","Start Time (UTCG)","Stop Time (UTCG)","Duration (sec)"
1,3 Dec 2013 01:00:00.000,3 Dec 2013 01:06:22.472,382.472
2,3 Dec 2013 02:29:02.827,3 Dec 2013 02:43:04.669,841.842
3,3 Dec 2013 04:04:32.507,3 Dec 2013 04:18:26.667,834.160
4,3 Dec 2013 05:39:46.840,3 Dec 2013 05:53:46.771,839.931
5,3 Dec 2013 07:15:53.770,3 Dec 2013 07:29:45.264,831.495
6,3 Dec 2013 08:54:13.064,3 Dec 2013 09:06:30.542,737.479
7,3 Dec 2013 10:35:22.746,3 Dec 2013 10:44:19.749,537.003
8,3 Dec 2013 12:12:39.751,3 Dec 2013 12:26:53.202,853.451
9,3 Dec 2013 19:53:06.277,3 Dec 2013 20:03:23.722,617.445
10,3 Dec 2013 21:29:08.213,3 Dec 2013 21:42:08.339,780.126
11,3 Dec 2013 23:06:23.604,3 Dec 2013 23:18:23.460,719.856
12,4 Dec 2013 00:42:03.782,4 Dec 2013 00:53:30.193,686.411
13,4 Dec 2013 02:16:13.765,4 Dec 2013 02:28:37.896,744.130
14,4 Dec 2013 03:50:17.645,4 Dec 2013 04:04:05.711,828.066
15,4 Dec 2013 05:26:17.613,4 Dec 2013 05:39:15.936,778.324
16,4 Dec 2013 07:08:21.771,4 Dec 2013 07:19:40.025,678.254
17,4 Dec 2013 08:49:45.788,4 Dec 2013 09:04:08.959,863.171
18,4 Dec 2013 10:30:19.765,4 Dec 2013 10:42:15.762,715.997
19,5 Dec 2013 02:04:53.176,5 Dec 2013 02:15:24.917,631.741
20,5 Dec 2013 03:44:32.470,5 Dec 2013 03:59:30.248,897.778
21,5 Dec 2013 05:27:25.271,5 Dec 2013 05:42:23.635,898.363
22,5 Dec 2013 07:09:39.110,5 Dec 2013 07:23:50.738,851.628
23,6 Dec 2013 00:30:28.045,6 Dec 2013 00:37:55.136,447.090
24,6 Dec 2013 02:07:50.078,6 Dec 2013 02:22:20.471,870.393
25,6 Dec 2013 03:49:56.282,6 Dec 2013 04:04:51.326,895.044
26,6 Dec 2013 05:32:48.359,6 Dec 2013 05:45:23.222,754.864
27,6 Dec 2013 22:50:52.875,6 Dec 2013 23:02:37.259,704.385
28,7 Dec 2013 00:29:58.590,7 Dec 2013 00:44:56.005,897.415
29,7 Dec 2013 02:12:40.315,7 Dec 2013 02:27:41.126,900.811
30,7 Dec 2013 03:49:11.014,7 Dec 2013 04:02:46.901,815.887
31,7 Dec 2013 05:24:18.664,7 Dec 2013 05:37:32.276,793.612
32,7 Dec 2013 06:59:38.163,7 Dec 2013 07:13:17.381,819.218
33,7 Dec 2013 08:36:11.022,7 Dec 2013 08:50:24.905,853.883
34,7 Dec 2013 10:14:27.791,7 Dec 2013 10:28:55.963,868.172
35,7 Dec 2013 11:54:05.554,7 Dec 2013 12:08:40.060,874.507
36,7 Dec 2013 13:36:15.379,7 Dec 2013 13:39:15.757,180.378
37,7 Dec 2013 19:37:28.338,7 Dec 2013 19:39:53.942,145.604
38,7 Dec 2013 21:09:09.060,7 Dec 2013 21:23:40.329,871.269

"Access","Start Time (UTCG)","Stop Time (UTCG)","Duration (sec)"
1,3 Dec 2013 02:05:04.236,3 Dec 2013 02:19:05.014,840.779
2,3 Dec 2013 03:40:43.248,3 Dec 2013 03:54:38.976,835.729
3,3 Dec 2013 05:15:56.575,3 Dec 2013 05:29:53.914,837.339
4,3 Dec 2013 06:51:42.476,3 Dec 2013 07:05:41.390,838.914
5,3 Dec 2013 08:29:22.383,3 Dec 2013 08:42:14.498,772.115
6,3 Dec 2013 10:09:51.456,3 Dec 2013 10:19:43.560,592.105
7,3 Dec 2013 11:48:07.395,3 Dec 2013 12:02:22.566,855.171
8,3 Dec 2013 13:28:26.590,3 Dec 2013 13:35:48.075,441.485
9,3 Dec 2013 19:31:50.034,3 Dec 2013 19:36:49.863,299.829
10,3 Dec 2013 21:04:37.152,3 Dec 2013 21:17:48.213,791.061
11,3 Dec 2013 22:42:12.834,3 Dec 2013 22:54:28.590,735.756
12,4 Dec 2013 00:18:18.530,4 Dec 2013 00:29:45.867,687.337
13,4 Dec 2013 01:52:46.408,4 Dec 2013 02:04:48.537,722.129
14,4 Dec 2013 03:26:40.625,4 Dec 2013 03:40:13.278,812.653
15,4 Dec 2013 05:01:59.459,4 Dec 2013 05:15:33.897,814.438
16,4 Dec 2013 06:42:18.803,4 Dec 2013 06:53:25.889,667.086
17,4 Dec 2013 08:24:40.537,4 Dec 2013 08:38:25.304,824.767
18,4 Dec 2013 10:04:59.201,4 Dec 2013 10:18:36.027,816.826
19,5 Dec 2013 01:42:03.660,5 Dec 2013 01:47:40.900,337.240
20,5 Dec 2013 03:19:05.125,5 Dec 2013 03:33:46.415,881.289
21,5 Dec 2013 05:01:41.599,5 Dec 2013 05:16:39.824,898.225
22,5 Dec 2013 06:44:09.128,5 Dec 2013 06:58:52.409,883.280
23,5 Dec 2013 08:27:23.455,5 Dec 2013 08:35:19.598,476.143
24,6 Dec 2013 01:42:43.170,6 Dec 2013 01:56:38.544,835.374
25,6 Dec 2013 03:24:18.247,6 Dec 2013 03:39:16.135,897.888
26,6 Dec 2013 05:06:57.187,6 Dec 2013 05:20:42.763,825.576
27,6 Dec 2013 22:27:40.199,6 Dec 2013 22:36:23.640,523.441
28,7 Dec 2013 00:04:38.226,7 Dec 2013 00:19:24.732,886.506
29,7 Dec 2013 01:46:56.379,7 Dec 2013 02:01:55.316,898.937
30,7 Dec 2013 03:25:21.490,7 Dec 2013 03:39:06.901,825.412
31,7 Dec 2013 05:00:32.705,7 Dec 2013 05:13:47.351,794.647
32,7 Dec 2013 06:35:43.782,7 Dec 2013 06:49:13.565,809.783
33,7 Dec 2013 08:11:53.247,7 Dec 2013 08:26:00.179,846.932
34,7 Dec 2013 09:49:44.455,7 Dec 2013 10:04:10.493,866.038
35,7 Dec 2013 11:29:05.647,7 Dec 2013 11:43:39.037,873.390
36,7 Dec 2013 13:09:02.496,7 Dec 2013 13:19:00.033,597.537
37,7 Dec 2013 20:44:44.589,7 Dec 2013 20:58:33.043,828.454

"Access","Start Time (UTCG)","Stop Time (UTCG)","Duration (sec)"
1,3 Dec 2013 01:41:02.930,3 Dec 2013 01:54:58.948,836.018
2,3 Dec 2013 03:16:52.146,3 Dec 2013 03:30:50.275,838.130
3,3 Dec 2013 04:52:08.213,3 Dec 2013 05:06:03.315,835.102
4,3 Dec 2013 06:27:38.426,3 Dec 2013 06:41:40.376,841.950
5,3 Dec 2013 08:04:42.749,3 Dec 2013 08:18:01.728,798.979
6,3 Dec 2013 09:44:28.200,3 Dec 2013 09:55:14.260,646.060
7,3 Dec 2013 11:23:47.853,3 Dec 2013 11:37:13.163,805.310
8,3 Dec 2013 13:02:33.135,3 Dec 2013 13:13:52.646,679.512
9,3 Dec 2013 20:40:01.993,3 Dec 2013 20:53:21.245,799.253
10,3 Dec 2013 22:17:56.425,3 Dec 2013 22:30:28.210,751.785
11,3 Dec 2013 23:54:26.728,4 Dec 2013 00:06:00.843,694.115
12,4 Dec 2013 01:29:16.658,4 Dec 2013 01:41:00.909,704.251
13,4 Dec 2013 03:03:08.913,4 Dec 2013 03:16:20.745,791.832
14,4 Dec 2013 04:37:55.065,4 Dec 2013 04:51:47.089,832.024
15,4 Dec 2013 06:15:57.194,4 Dec 2013 06:27:27.006,689.812
16,4 Dec 2013 07:59:28.167,4 Dec 2013 08:12:20.678,772.511
17,4 Dec 2013 09:39:51.011,4 Dec 2013 09:54:17.638,866.628
18,5 Dec 2013 02:53:54.116,5 Dec 2013 03:07:56.782,842.666
19,5 Dec 2013 04:35:55.556,5 Dec 2013 04:50:55.588,900.032
20,5 Dec 2013 06:18:38.522,5 Dec 2013 06:33:34.866,896.344
21,5 Dec 2013 08:01:00.424,5 Dec 2013 08:12:21.145,680.721
22,6 Dec 2013 01:17:57.392,6 Dec 2013 01:30:49.488,772.096
23,6 Dec 2013 02:58:42.312,6 Dec 2013 03:13:38.337,896.025
24,6 Dec 2013 04:41:14.416,6 Dec 2013 04:55:39.539,865.123
25,6 Dec 2013 06:26:05.297,6 Dec 2013 06:32:22.913,377.616
26,6 Dec 2013 23:39:35.992,6 Dec 2013 23:53:54.678,858.686
27,7 Dec 2013 01:21:12.478,7 Dec 2013 01:36:11.125,898.648
28,7 Dec 2013 03:01:30.881,7 Dec 2013 03:15:24.221,833.340
29,7 Dec 2013 04:36:46.445,7 Dec 2013 04:50:05.623,799.178
30,7 Dec 2013 06:11:53.143,7 Dec 2013 06:25:14.922,801.778
31,7 Dec 2013 07:47:42.144,7 Dec 2013 08:01:40.684,838.540
32,7 Dec 2013 09:25:06.880,7 Dec 2013 09:39:30.089,863.210
33,7 Dec 2013 11:04:09.051,7 Dec 2013 11:18:40.796,871.745
34,7 Dec 2013 12:43:44.817,7 Dec 2013 12:56:25.673,760.855
35,7 Dec 2013 20:20:57.109,7 Dec 2013 20:33:15.049,737.939

"Access","Start Time (UTCG)","Stop Time (UTCG)","Duration (sec)"
1,3 Dec 2013 10:37:07.485,3 Dec 2013 10:46:49.652,582.168
2,3 Dec 2013 12:16:10.501,3 Dec 2013 12:31:08.121,897.620
3,3 Dec 2013 13:59:12.120,3 Dec 2013 14:14:04.526,892.406
4,3 Dec 2013 15:41:27.741,3 Dec 2013 15:56:02.130,874.389
5,3 Dec 2013 17:25:27.766,3 Dec 2013 17:30:44.232,316.466
6,4 Dec 2013 09:03:26.158,4 Dec 2013 09:08:27.089,300.931
7,4 Dec 2013 10:39:35.396,4 Dec 2013 10:53:56.317,860.921
8,4 Dec 2013 12:21:34.002,4 Dec 2013 12:36:30.992,896.990
9,4 Dec 2013 14:04:16.781,4 Dec 2013 14:17:24.153,787.372
10,5 Dec 2013 07:23:42.975,5 Dec 2013 07:33:58.767,615.793
11,5 Dec 2013 09:01:51.729,5 Dec 2013 09:16:43.718,891.989
12,5 Dec 2013 10:44:18.699,5 Dec 2013 10:59:21.084,902.384
13,5 Dec 2013 12:22:55.670,5 Dec 2013 12:36:24.970,809.300
14,5 Dec 2013 13:58:05.429,5 Dec 2013 14:10:53.513,768.084
15,5 Dec 2013 15:33:14.632,5 Dec 2013 15:46:21.189,786.557
16,5 Dec 2013 17:09:23.525,5 Dec 2013 17:23:16.012,832.487
17,5 Dec 2013 18:47:13.358,5 Dec 2013 19:01:33.328,859.970
18,5 Dec 2013 20:26:33.703,5 Dec 2013 20:40:57.108,863.405
19,5 Dec 2013 22:07:38.381,5 Dec 2013 22:14:33.831,415.450
20,6 Dec 2013 05:41:46.287,6 Dec 2013 05:55:56.675,850.387
21,6 Dec 2013 07:21:27.232,6 Dec 2013 07:35:26.810,839.578
22,6 Dec 2013 08:57:51.799,6 Dec 2013 09:11:53.677,841.878
23,6 Dec 2013 10:33:21.541,6 Dec 2013 10:47:12.939,831.398
24,6 Dec 2013 12:08:32.159,6 Dec 2013 12:22:31.627,839.468
25,6 Dec 2013 13:44:43.239,6 Dec 2013 13:58:17.537,814.299
26,6 Dec 2013 15:23:36.984,6 Dec 2013 15:34:19.468,642.484
27,6 Dec 2013 17:04:51.814,6 Dec 2013 17:14:27.583,575.769
28,6 Dec 2013 18:42:23.901,6 Dec 2013 18:56:38.816,854.915
29,7 Dec 2013 02:23:00.444,7 Dec 2013 02:33:11.870,611.426
30,7 Dec 2013 04:00:36.932,7 Dec 2013 04:10:53.948,617.016
31,7 Dec 2013 05:37:46.630,7 Dec 2013 05:46:35.994,529.364
32,7 Dec 2013 07:13:03.194,7 Dec 2013 07:21:26.586,503.392
33,7 Dec 2013 08:46:14.878,7 Dec 2013 08:56:54.270,639.393
34,7 Dec 2013 10:19:22.751,7 Dec 2013 10:32:43.292,800.541
35,7 Dec 2013 11:54:35.508,7 Dec 2013 12:08:01.730,806.222
36,7 Dec 2013 13:37:51.786,7 Dec 2013 13:50:49.909,778.123
37,7 Dec 2013 15:19:50.836,7 Dec 2013 15:34:30.436,879.600
38,7 Dec 2013 17:00:58.543,7 Dec 2013 17:12:26.165,687.622

"Access","Start Time (UTCG)","Stop Time (UTCG)","Duration (sec)"
1,3 Dec 2013 10:14:59.379,3 Dec 2013 10:21:44.951,405.572
2,3 Dec 2013 11:50:43.456,3 Dec 2013 12:05:23.808,880.352
3,3 Dec 2013 13:33:25.327,3 Dec 2013 13:48:18.368,893.041
4,3 Dec 2013 15:16:00.071,3 Dec 2013 15:30:52.924,892.853
5,3 Dec 2013 16:58:27.332,3 Dec 2013 17:08:39.849,612.517
6,4 Dec 2013 10:14:34.170,4 Dec 2013 10:28:11.554,817.384
7,4 Dec 2013 11:55:56.404,4 Dec 2013 12:10:54.485,898.081
8,4 Dec 2013 13:38:30.954,4 Dec 2013 13:52:34.966,844.012
9,5 Dec 2013 07:01:25.150,5 Dec 2013 07:06:57.527,332.377
10,5 Dec 2013 08:36:40.048,5 Dec 2013 08:51:11.669,871.621
11,5 Dec 2013 10:18:35.871,5 Dec 2013 10:33:37.559,901.688
12,5 Dec 2013 11:59:05.287,5 Dec 2013 12:12:47.494,822.208
13,5 Dec 2013 13:34:19.642,5 Dec 2013 13:47:13.375,773.733
14,5 Dec 2013 15:09:24.359,5 Dec 2013 15:22:21.228,776.870
15,5 Dec 2013 16:45:12.511,5 Dec 2013 16:58:54.259,821.748
16,5 Dec 2013 18:22:36.323,5 Dec 2013 18:36:51.793,855.470
17,5 Dec 2013 20:01:36.724,5 Dec 2013 20:16:01.810,865.085
18,5 Dec 2013 21:41:38.558,5 Dec 2013 21:52:55.919,677.361
19,6 Dec 2013 05:17:40.107,6 Dec 2013 05:30:41.042,780.934
20,6 Dec 2013 06:57:05.934,6 Dec 2013 07:11:01.672,835.738
21,6 Dec 2013 08:33:51.367,6 Dec 2013 08:47:56.202,844.835
22,6 Dec 2013 10:09:33.065,6 Dec 2013 10:23:25.352,832.287
23,6 Dec 2013 11:44:42.552,6 Dec 2013 11:58:39.665,837.113
24,6 Dec 2013 13:20:29.423,6 Dec 2013 13:34:18.612,829.189
25,6 Dec 2013 14:58:31.933,6 Dec 2013 15:10:19.403,707.470
26,6 Dec 2013 16:41:16.197,6 Dec 2013 16:46:17.127,300.931
27,6 Dec 2013 18:17:44.359,6 Dec 2013 18:32:06.161,861.802
28,6 Dec 2013 19:58:20.595,6 Dec 2013 20:05:45.651,445.056
29,7 Dec 2013 02:01:44.943,7 Dec 2013 02:06:55.617,310.674
30,7 Dec 2013 03:36:08.768,7 Dec 2013 03:46:40.677,631.909
31,7 Dec 2013 05:13:37.316,7 Dec 2013 05:22:49.420,552.104
32,7 Dec 2013 06:49:27.739,7 Dec 2013 06:57:42.444,494.705
33,7 Dec 2013 08:23:03.267,7 Dec 2013 08:32:58.376,595.109
34,7 Dec 2013 09:55:58.405,7 Dec 2013 10:08:46.764,768.358
35,7 Dec 2013 11:30:29.384,7 Dec 2013 11:44:18.651,829.267
36,7 Dec 2013 13:11:49.678,7 Dec 2013 13:24:48.590,778.912
37,7 Dec 2013 14:54:36.171,7 Dec 2013 15:08:54.021,857.850
38,7 Dec 2013 16:35:28.663,7 Dec 2013 16:48:49.135,800.471

"Access","Start Time (UTCG)","Stop Time (UTCG)","Duration (sec)"
1,3 Dec 2013 11:25:33.796,3 Dec 2013 11:39:32.525,838.729
2,3 Dec 2013 13:07:36.426,3 Dec 2013 13:22:33.332,896.907
3,3 Dec 2013 14:50:29.571,3 Dec 2013 15:05:26.699,897.128
4,3 Dec 2013 16:32:32.186,3 Dec 2013 16:45:05.677,753.491
5,4 Dec 2013 09:49:56.884,4 Dec 2013 10:02:16.693,739.809
6,4 Dec 2013 11:30:21.579,4 Dec 2013 11:45:16.047,894.468
7,4 Dec 2013 13:12:50.732,4 Dec 2013 13:27:25.763,875.031
8,4 Dec 2013 14:56:49.416,4 Dec 2013 15:05:13.281,503.865
9,5 Dec 2013 08:11:48.913,5 Dec 2013 08:25:38.402,829.489
10,5 Dec 2013 09:52:54.551,5 Dec 2013 10:07:55.881,901.330
11,5 Dec 2013 11:35:14.157,5 Dec 2013 11:49:06.377,832.220
12,5 Dec 2013 13:10:32.916,5 Dec 2013 13:23:36.210,783.294
13,5 Dec 2013 14:45:36.822,5 Dec 2013 14:58:26.814,769.992
14,5 Dec 2013 16:21:07.785,5 Dec 2013 16:34:37.791,810.006
15,5 Dec 2013 17:58:05.474,5 Dec 2013 18:12:14.928,849.455
16,5 Dec 2013 19:36:44.068,5 Dec 2013 19:51:08.894,864.826
17,5 Dec 2013 21:16:37.443,5 Dec 2013 21:29:57.665,800.223
18,6 Dec 2013 04:54:17.262,6 Dec 2013 05:05:08.276,651.014
19,6 Dec 2013 06:31:33.517,6 Dec 2013 06:46:12.020,878.502
20,6 Dec 2013 08:09:47.225,6 Dec 2013 08:23:53.261,846.036
21,6 Dec 2013 09:45:42.308,6 Dec 2013 09:59:37.031,834.723
22,6 Dec 2013 11:20:55.150,6 Dec 2013 11:34:49.467,834.317
23,6 Dec 2013 12:56:24.031,6 Dec 2013 13:10:21.180,837.149
24,6 Dec 2013 14:33:42.710,6 Dec 2013 14:46:18.459,755.749
25,6 Dec 2013 16:14:48.747,6 Dec 2013 16:22:07.354,438.607
26,6 Dec 2013 17:53:14.361,6 Dec 2013 18:06:56.926,822.564
27,6 Dec 2013 19:32:25.843,6 Dec 2013 19:43:45.062,679.219
28,7 Dec 2013 03:11:37.823,7 Dec 2013 03:22:19.344,641.521
29,7 Dec 2013 04:49:21.984,7 Dec 2013 04:58:57.644,575.660
30,7 Dec 2013 06:25:42.852,7 Dec 2013 06:34:00.493,497.641
31,7 Dec 2013 07:59:49.088,7 Dec 2013 08:09:04.671,555.584
32,7 Dec 2013 09:32:40.243,7 Dec 2013 09:44:49.260,729.018
33,7 Dec 2013 11:06:36.571,7 Dec 2013 11:20:30.234,833.663
34,7 Dec 2013 12:45:37.599,7 Dec 2013 12:58:56.486,798.887
35,7 Dec 2013 14:29:13.742,7 Dec 2013 14:43:00.386,826.644
36,7 Dec 2013 16:10:12.515,7 Dec 2013 16:24:32.449,859.934

"Access","Start Time (UTCG)","Stop Time (UTCG)","Duration (sec)"
1,3 Dec 2013 11:00:48.235,3 Dec 2013 11:13:26.416,758.181
2,3 Dec 2013 12:41:49.820,3 Dec 2013 12:56:50.304,900.484
3,3 Dec 2013 14:24:53.872,3 Dec 2013 14:39:48.814,894.943
4,3 Dec 2013 16:06:56.411,3 Dec 2013 16:20:48.750,832.340
5,4 Dec 2013 09:25:57.312,4 Dec 2013 09:35:58.702,601.390
6,4 Dec 2013 11:04:53.050,4 Dec 2013 11:19:36.878,883.829
7,4 Dec 2013 12:47:12.245,4 Dec 2013 13:02:02.767,890.522
8,4 Dec 2013 14:30:16.153,4 Dec 2013 14:41:43.971,687.819
9,5 Dec 2013 07:47:25.587,5 Dec 2013 07:59:58.073,752.486
10,5 Dec 2013 09:27:18.284,5 Dec 2013 09:42:17.907,899.623
11,5 Dec 2013 11:10:01.157,5 Dec 2013 11:25:02.995,901.838
12,5 Dec 2013 12:46:44.941,5 Dec 2013 13:00:00.617,795.677
13,5 Dec 2013 14:21:50.864,5 Dec 2013 14:34:37.732,766.867
14,5 Dec 2013 15:57:08.765,5 Dec 2013 16:10:26.728,797.964
15,5 Dec 2013 17:33:41.155,5 Dec 2013 17:47:42.948,841.793
16,5 Dec 2013 19:11:56.116,5 Dec 2013 19:26:19.186,863.070
17,5 Dec 2013 20:51:34.822,5 Dec 2013 21:05:53.841,859.019
18,6 Dec 2013 04:32:10.936,6 Dec 2013 04:38:46.073,395.138
19,6 Dec 2013 06:06:25.745,6 Dec 2013 06:21:05.191,879.446
20,6 Dec 2013 07:45:39.230,6 Dec 2013 07:59:43.769,844.539
21,6 Dec 2013 09:21:48.693,6 Dec 2013 09:35:46.877,838.184
22,6 Dec 2013 10:57:08.554,6 Dec 2013 11:11:00.730,832.176
23,6 Dec 2013 12:32:25.463,6 Dec 2013 12:46:25.473,840.010
24,6 Dec 2013 14:09:07.103,6 Dec 2013 14:22:17.627,790.524
25,6 Dec 2013 15:49:00.864,6 Dec 2013 15:58:16.833,555.969
26,6 Dec 2013 17:28:54.743,6 Dec 2013 17:41:07.483,732.740
27,6 Dec 2013 19:07:15.315,6 Dec 2013 19:20:34.103,798.788
28,7 Dec 2013 02:47:04.885,7 Dec 2013 02:57:49.789,644.904
29,7 Dec 2013 04:25:01.583,7 Dec 2013 04:34:59.433,597.850
30,7 Dec 2013 06:01:48.852,7 Dec 2013 06:10:19.025,510.173
31,7 Dec 2013 07:36:29.799,7 Dec 2013 07:45:13.929,524.130
32,7 Dec 2013 09:09:26.423,7 Dec 2013 09:20:51.509,685.086
33,7 Dec 2013 10:42:54.934,7 Dec 2013 10:56:38.070,823.136
34,7 Dec 2013 12:19:22.708,7 Dec 2013 12:33:13.520,830.812
35,7 Dec 2013 14:03:39.836,7 Dec 2013 14:16:56.312,796.475
36,7 Dec 2013 15:45:01.594,7 Dec 2013 15:59:44.618,883.025
37,7 Dec 2013 17:27:04.946,7 Dec 2013 17:35:00.072,475.126

"Access","Start Time (UTCG)","Stop Time (UTCG)","Duration (sec)"
1,3 Dec 2013 17:08:44.913,3 Dec 2013 17:22:54.607,849.695
2,3 Dec 2013 18:50:16.393,3 Dec 2013 19:05:19.095,902.702
3,3 Dec 2013 20:32:49.344,3 Dec 2013 20:46:27.707,818.363
4,3 Dec 2013 22:08:08.971,3 Dec 2013 22:20:36.873,747.901
5,3 Dec 2013 23:43:11.011,3 Dec 2013 23:55:22.332,731.322
6,4 Dec 2013 01:18:39.802,4 Dec 2013 01:31:39.055,779.252
7,4 Dec 2013 02:55:36.929,4 Dec 2013 03:09:22.878,825.949
8,4 Dec 2013 04:34:16.534,4 Dec 2013 04:48:14.738,838.205
9,4 Dec 2013 06:14:24.468,4 Dec 2013 06:26:41.268,736.800
10,4 Dec 2013 13:50:45.635,4 Dec 2013 14:02:37.492,711.858
11,4 Dec 2013 15:29:04.582,4 Dec 2013 15:43:42.197,877.615
12,4 Dec 2013 17:07:25.322,4 Dec 2013 17:21:28.400,843.077
13,4 Dec 2013 18:43:12.132,4 Dec 2013 18:57:07.971,835.839
14,4 Dec 2013 20:18:25.341,4 Dec 2013 20:32:21.697,836.356
15,4 Dec 2013 21:54:03.564,4 Dec 2013 22:08:00.750,837.185
16,4 Dec 2013 23:31:35.110,4 Dec 2013 23:44:14.842,759.731
17,5 Dec 2013 01:12:25.081,5 Dec 2013 01:20:55.164,510.084
18,5 Dec 2013 02:50:41.301,5 Dec 2013 03:04:43.592,842.292
19,5 Dec 2013 04:30:15.651,5 Dec 2013 04:40:00.538,584.886
20,5 Dec 2013 12:07:56.696,5 Dec 2013 12:20:08.866,732.170
21,5 Dec 2013 13:45:37.062,5 Dec 2013 13:56:48.353,671.291
22,5 Dec 2013 15:21:48.747,5 Dec 2013 15:32:00.432,611.686
23,5 Dec 2013 16:56:07.176,5 Dec 2013 17:07:02.798,655.623
24,5 Dec 2013 18:29:33.290,5 Dec 2013 18:42:34.168,780.877
25,5 Dec 2013 20:04:12.319,5 Dec 2013 20:18:02.870,830.551
26,5 Dec 2013 21:43:52.181,5 Dec 2013 21:56:10.369,738.188
27,5 Dec 2013 23:26:58.524,5 Dec 2013 23:40:41.637,823.113
28,6 Dec 2013 01:07:35.368,6 Dec 2013 01:21:37.156,841.788
29,6 Dec 2013 18:22:13.948,6 Dec 2013 18:36:21.084,847.136
30,6 Dec 2013 20:04:15.061,6 Dec 2013 20:19:17.117,902.057
31,6 Dec 2013 21:46:50.469,6 Dec 2013 22:01:40.167,889.698
32,6 Dec 2013 23:29:43.046,6 Dec 2013 23:39:24.866,581.820
33,7 Dec 2013 16:45:58.785,7 Dec 2013 16:59:19.712,800.927
34,7 Dec 2013 18:27:03.051,7 Dec 2013 18:42:00.558,897.506
35,7 Dec 2013 20:09:38.986,7 Dec 2013 20:23:53.073,854.087
36,7 Dec 2013 21:56:11.053,7 Dec 2013 21:57:56.203,105.150

"Access","Start Time (UTCG)","Stop Time (UTCG)","Duration (sec)"
1,3 Dec 2013 16:44:05.908,3 Dec 2013 16:57:16.436,790.528
2,3 Dec 2013 18:24:38.174,3 Dec 2013 18:39:39.359,901.185
3,3 Dec 2013 20:07:21.240,3 Dec 2013 20:22:16.957,895.717
4,3 Dec 2013 21:44:20.981,3 Dec 2013 21:57:05.061,764.080
5,3 Dec 2013 23:19:25.731,3 Dec 2013 23:31:33.146,727.415
6,4 Dec 2013 00:54:41.143,4 Dec 2013 01:07:26.103,764.960
7,4 Dec 2013 02:31:12.678,4 Dec 2013 02:44:49.641,816.963
8,4 Dec 2013 04:09:27.911,4 Dec 2013 04:23:26.979,839.068
9,4 Dec 2013 05:49:14.119,4 Dec 2013 06:02:45.924,811.805
10,4 Dec 2013 13:27:57.016,4 Dec 2013 13:36:40.473,523.458
11,4 Dec 2013 15:03:46.274,4 Dec 2013 15:18:30.574,884.300
12,4 Dec 2013 16:43:20.750,4 Dec 2013 16:57:20.323,839.574
13,4 Dec 2013 18:19:19.803,4 Dec 2013 18:33:18.436,838.632
14,4 Dec 2013 19:54:37.781,4 Dec 2013 20:08:32.073,834.292
15,4 Dec 2013 21:30:01.960,4 Dec 2013 21:44:02.580,840.620
16,4 Dec 2013 23:06:56.723,4 Dec 2013 23:20:08.366,791.643
17,5 Dec 2013 00:46:49.880,5 Dec 2013 00:56:43.572,593.692
18,5 Dec 2013 02:26:22.692,5 Dec 2013 02:39:13.667,770.975
19,5 Dec 2013 04:04:50.595,5 Dec 2013 04:17:20.388,749.793
20,5 Dec 2013 11:43:22.027,5 Dec 2013 11:55:41.086,739.059
21,5 Dec 2013 13:21:18.825,5 Dec 2013 13:32:48.755,689.930
22,5 Dec 2013 14:57:56.223,5 Dec 2013 15:08:16.716,620.494
23,5 Dec 2013 16:32:41.868,5 Dec 2013 16:43:14.329,632.460
24,5 Dec 2013 18:06:09.795,5 Dec 2013 18:18:39.770,749.975
25,5 Dec 2013 19:40:19.184,5 Dec 2013 19:54:13.787,834.603
26,5 Dec 2013 21:17:31.306,5 Dec 2013 21:30:21.389,770.083
27,5 Dec 2013 23:01:35.118,5 Dec 2013 23:14:35.958,780.840
28,6 Dec 2013 00:42:26.471,6 Dec 2013 00:57:03.206,876.734
29,6 Dec 2013 02:25:12.114,6 Dec 2013 02:30:30.507,318.393
30,6 Dec 2013 17:57:22.917,6 Dec 2013 18:10:22.141,779.224
31,6 Dec 2013 19:38:32.205,6 Dec 2013 19:53:34.440,902.235
32,6 Dec 2013 21:21:16.985,6 Dec 2013 21:36:15.855,898.870
33,6 Dec 2013 23:03:38.238,6 Dec 2013 23:15:52.312,734.074
34,7 Dec 2013 16:21:32.080,7 Dec 2013 16:33:23.745,711.666
35,7 Dec 2013 18:01:30.063,7 Dec 2013 18:16:22.337,892.274
36,7 Dec 2013 19:43:57.962,7 Dec 2013 19:58:38.318,880.356
37,7 Dec 2013 21:27:48.509,7 Dec 2013 21:37:09.790,561.281

"Access","Start Time (UTCG)","Stop Time (UTCG)","Duration (sec)"
1,3 Dec 2013 16:19:59.861,3 Dec 2013 16:31:25.761,685.900
2,3 Dec 2013 17:59:06.895,3 Dec 2013 18:14:02.713,895.818
3,3 Dec 2013 19:41:39.472,3 Dec 2013 19:56:41.366,901.894
4,3 Dec 2013 21:20:31.529,3 Dec 2013 21:33:34.159,782.630
5,3 Dec 2013 22:55:40.871,3 Dec 2013 23:07:49.680,728.809
6,4 Dec 2013 00:30:47.510,4 Dec 2013 00:43:18.863,751.353
7,4 Dec 2013 02:06:55.145,4 Dec 2013 02:20:21.084,805.939
8,4 Dec 2013 03:44:44.867,4 Dec 2013 03:58:42.003,837.136
9,4 Dec 2013 05:24:09.612,4 Dec 2013 05:37:55.238,825.626
10,4 Dec 2013 14:38:53.468,4 Dec 2013 14:53:19.582,866.114
11,4 Dec 2013 16:19:12.803,4 Dec 2013 16:33:04.592,831.789
12,4 Dec 2013 17:55:24.725,4 Dec 2013 18:09:26.195,841.470
13,4 Dec 2013 19:30:50.391,4 Dec 2013 19:44:43.764,833.373
14,4 Dec 2013 21:06:06.030,4 Dec 2013 21:20:06.719,840.689
15,4 Dec 2013 22:42:29.556,4 Dec 2013 22:56:03.760,814.204
16,5 Dec 2013 00:21:30.527,5 Dec 2013 00:32:32.690,662.164
17,5 Dec 2013 02:02:21.070,5 Dec 2013 02:12:55.266,634.196
18,5 Dec 2013 03:39:53.389,5 Dec 2013 03:53:47.261,833.872
19,5 Dec 2013 11:19:22.864,5 Dec 2013 11:31:06.067,703.203
20,5 Dec 2013 12:56:55.652,5 Dec 2013 13:08:42.574,706.922
21,5 Dec 2013 14:33:56.393,5 Dec 2013 14:44:31.127,634.734
22,5 Dec 2013 16:09:11.140,5 Dec 2013 16:19:28.129,616.989
23,5 Dec 2013 17:42:49.020,5 Dec 2013 17:54:45.987,716.968
24,5 Dec 2013 19:16:36.181,5 Dec 2013 19:30:21.983,825.802
25,5 Dec 2013 20:52:38.192,5 Dec 2013 21:05:26.477,768.285
26,5 Dec 2013 22:35:57.581,5 Dec 2013 22:48:22.799,745.218
27,6 Dec 2013 00:17:20.120,6 Dec 2013 00:32:00.132,880.012
28,6 Dec 2013 01:58:29.956,6 Dec 2013 02:08:49.643,619.687
29,6 Dec 2013 17:33:04.523,6 Dec 2013 17:44:00.158,655.636
30,6 Dec 2013 19:12:54.416,6 Dec 2013 19:27:52.293,897.877
31,6 Dec 2013 20:55:39.809,6 Dec 2013 21:10:40.872,901.063
32,6 Dec 2013 22:37:55.985,6 Dec 2013 22:51:35.197,819.212
33,7 Dec 2013 15:57:49.661,7 Dec 2013 16:06:59.887,550.227
34,7 Dec 2013 17:36:04.955,7 Dec 2013 17:50:43.905,878.950
35,7 Dec 2013 19:18:18.680,7 Dec 2013 19:33:11.642,892.962
36,7 Dec 2013 21:01:22.926,7 Dec 2013 21:13:21.164,718.237

"Access","Start Time (UTCG)","Stop Time (UTCG)","Duration (sec)"
1,3 Dec 2013 15:56:49.034,3 Dec 2013 16:05:01.342,492.308
2,3 Dec 2013 17:33:47.357,3 Dec 2013 17:48:28.567,881.210
3,3 Dec 2013 19:15:57.651,3 Dec 2013 19:31:00.710,903.058
4,3 Dec 2013 20:56:40.844,3 Dec 2013 21:10:02.341,801.497
5,3 Dec 2013 22:31:55.500,3 Dec 2013 22:44:11.276,735.776
6,4 Dec 2013 00:06:57.858,4 Dec 2013 00:19:17.559,739.700
7,4 Dec 2013 01:42:44.286,4 Dec 2013 01:55:57.470,793.183
8,4 Dec 2013 03:20:07.751,4 Dec 2013 03:34:00.461,832.710
9,4 Dec 2013 04:59:10.468,4 Dec 2013 05:13:04.472,834.004
10,4 Dec 2013 06:39:53.953,4 Dec 2013 06:48:57.701,543.748
11,4 Dec 2013 14:14:30.746,4 Dec 2013 14:28:04.420,813.674
12,4 Dec 2013 15:54:44.165,4 Dec 2013 16:08:40.267,836.102
13,4 Dec 2013 17:31:26.616,4 Dec 2013 17:45:29.948,843.332
14,4 Dec 2013 19:07:02.120,4 Dec 2013 19:20:56.042,833.922
15,4 Dec 2013 20:42:14.302,4 Dec 2013 20:56:13.140,838.838
16,4 Dec 2013 22:18:12.297,4 Dec 2013 22:32:01.182,828.885
17,4 Dec 2013 23:56:25.978,5 Dec 2013 00:08:23.016,717.038
18,5 Dec 2013 01:38:17.320,5 Dec 2013 01:45:17.843,420.522
19,5 Dec 2013 03:15:11.579,5 Dec 2013 03:29:34.001,862.422
20,5 Dec 2013 04:57:26.009,5 Dec 2013 05:00:28.643,182.634
21,5 Dec 2013 10:57:04.848,5 Dec 2013 11:05:27.080,502.232
22,5 Dec 2013 12:32:28.096,5 Dec 2013 12:44:29.349,721.253
23,5 Dec 2013 14:09:49.796,5 Dec 2013 14:20:42.118,652.322
24,5 Dec 2013 15:45:33.672,5 Dec 2013 15:55:43.799,610.127
25,5 Dec 2013 17:19:28.871,5 Dec 2013 17:30:53.475,684.604
26,5 Dec 2013 18:53:01.473,5 Dec 2013 19:06:28.491,807.018
27,5 Dec 2013 20:28:17.713,5 Dec 2013 20:41:47.812,810.099
28,5 Dec 2013 22:10:02.955,5 Dec 2013 22:22:11.726,728.771
29,5 Dec 2013 23:52:12.117,6 Dec 2013 00:06:31.611,859.494
30,6 Dec 2013 01:32:52.663,6 Dec 2013 01:45:36.557,763.894
31,6 Dec 2013 17:09:52.914,6 Dec 2013 17:16:38.989,406.075
32,6 Dec 2013 18:47:26.592,6 Dec 2013 19:02:09.041,882.449
33,6 Dec 2013 20:29:58.662,6 Dec 2013 20:45:00.012,901.349
34,6 Dec 2013 22:12:22.233,6 Dec 2013 22:26:48.557,866.324
35,6 Dec 2013 23:57:15.485,7 Dec 2013 00:01:06.600,231.115
36,7 Dec 2013 15:36:41.382,7 Dec 2013 15:38:18.863,97.480
37,7 Dec 2013 17:10:52.553,7 Dec 2013 17:25:04.142,851.589
38,7 Dec 2013 18:52:40.097,7 Dec 2013 19:07:37.802,897.705
39,7 Dec 2013 20:35:25.040,7 Dec 2013 20:48:50.100,805.060

