Raw and processed data/perplane variations/us_greatcircle_9sat1/Aircraft-B747LAX_Narita-Transmitter-adsb_out6211-To-Satellite-700km_p1_1-Receiver-adsb_satrcvr2 Access.csv

"Access","Start Time (UTCG)","Stop Time (UTCG)","Duration (sec)"
1,3 Dec 2013 06:03:06.297,3 Dec 2013 06:14:24.581,678.284
2,3 Dec 2013 07:43:17.800,3 Dec 2013 07:59:55.035,997.235
3,3 Dec 2013 09:32:39.689,3 Dec 2013 09:44:44.489,724.800
4,3 Dec 2013 11:17:44.257,3 Dec 2013 11:30:57.759,793.502
5,3 Dec 2013 12:56:10.183,3 Dec 2013 13:11:34.990,924.806
6,3 Dec 2013 14:35:05.676,3 Dec 2013 14:51:01.523,955.847
7,3 Dec 2013 16:14:28.545,3 Dec 2013 16:30:31.995,963.450
8,3 Dec 2013 17:54:37.086,3 Dec 2013 18:10:47.798,970.712
9,3 Dec 2013 19:35:45.891,3 Dec 2013 19:52:01.271,975.380
10,3 Dec 2013 21:19:55.245,3 Dec 2013 21:29:30.327,575.082
11,4 Dec 2013 03:29:55.593,4 Dec 2013 03:32:25.700,150.107
12,4 Dec 2013 05:03:39.967,4 Dec 2013 05:20:09.284,989.317
13,4 Dec 2013 06:48:01.996,4 Dec 2013 07:02:11.896,849.900
14,4 Dec 2013 08:29:05.021,4 Dec 2013 08:43:47.250,882.228
15,4 Dec 2013 10:09:12.885,4 Dec 2013 10:24:11.542,898.658
16,4 Dec 2013 11:49:03.219,4 Dec 2013 12:03:48.219,885.000
17,4 Dec 2013 13:29:27.535,4 Dec 2013 13:43:07.301,819.766
18,4 Dec 2013 15:11:37.140,4 Dec 2013 15:22:22.197,645.057
19,4 Dec 2013 16:55:07.351,4 Dec 2013 17:10:54.450,947.099
20,4 Dec 2013 18:39:12.818,4 Dec 2013 18:53:05.909,833.091
21,5 Dec 2013 02:27:38.385,5 Dec 2013 02:36:38.623,540.238
22,5 Dec 2013 04:07:16.094,5 Dec 2013 04:19:02.670,706.577
23,5 Dec 2013 05:46:42.432,5 Dec 2013 05:59:39.738,777.307
24,5 Dec 2013 07:25:18.000,5 Dec 2013 07:39:19.438,841.438
25,5 Dec 2013 09:03:16.413,5 Dec 2013 09:18:31.452,915.039
26,5 Dec 2013 10:41:31.922,5 Dec 2013 10:57:22.614,950.692
27,5 Dec 2013 12:27:47.714,5 Dec 2013 12:42:56.543,908.830
28,5 Dec 2013 14:15:36.559,5 Dec 2013 14:31:41.718,965.159
29,5 Dec 2013 16:00:57.792,5 Dec 2013 16:16:45.410,947.618
30,6 Dec 2013 08:05:25.576,6 Dec 2013 08:19:37.645,852.070
31,6 Dec 2013 09:49:11.420,6 Dec 2013 10:06:02.779,1011.359
32,6 Dec 2013 11:37:23.859,6 Dec 2013 11:53:21.531,957.672
33,6 Dec 2013 13:23:52.407,6 Dec 2013 13:40:51.868,1019.461
34,6 Dec 2013 15:12:58.068,6 Dec 2013 15:20:13.348,435.280
35,7 Dec 2013 05:33:12.983,7 Dec 2013 05:41:05.943,472.960
36,7 Dec 2013 07:11:38.305,7 Dec 2013 07:28:31.046,1012.741
37,7 Dec 2013 08:59:28.062,7 Dec 2013 09:14:03.512,875.450
38,7 Dec 2013 10:47:32.147,7 Dec 2013 11:03:16.974,944.827
39,7 Dec 2013 12:29:12.790,7 Dec 2013 12:45:03.575,950.784
40,7 Dec 2013 14:08:08.741,7 Dec 2013 14:23:11.685,902.944
41,7 Dec 2013 15:47:24.752,7 Dec 2013 16:01:17.220,832.468
42,7 Dec 2013 17:27:13.442,7 Dec 2013 17:40:06.964,773.522
43,7 Dec 2013 19:08:07.631,7 Dec 2013 19:19:44.409,696.777
44,7 Dec 2013 20:51:03.419,7 Dec 2013 20:59:16.959,493.540
45,8 Dec 2013 04:33:18.900,8 Dec 2013 04:49:45.939,987.040
46,8 Dec 2013 06:20:17.197,8 Dec 2013 06:32:21.900,724.703
47,8 Dec 2013 08:04:16.763,8 Dec 2013 08:15:57.549,700.785
48,8 Dec 2013 09:43:34.682,8 Dec 2013 09:57:35.574,840.892
49,8 Dec 2013 11:22:56.515,8 Dec 2013 11:37:46.853,890.338
50,8 Dec 2013 13:02:41.651,8 Dec 2013 13:17:37.092,895.442
51,8 Dec 2013 14:43:21.696,8 Dec 2013 14:57:53.714,872.018
52,8 Dec 2013 16:25:14.513,8 Dec 2013 16:39:25.651,851.138
53,8 Dec 2013 18:07:57.871,8 Dec 2013 18:23:08.914,911.043
54,9 Dec 2013 01:54:14.031,9 Dec 2013 02:09:26.550,912.519

"Access","Start Time (UTCG)","Stop Time (UTCG)","Duration (sec)"
1,3 Dec 2013 07:08:35.913,3 Dec 2013 07:25:12.792,996.879
2,3 Dec 2013 08:55:34.423,3 Dec 2013 09:09:24.921,830.499
3,3 Dec 2013 10:45:11.301,3 Dec 2013 10:56:47.695,696.393
4,3 Dec 2013 12:23:16.967,3 Dec 2013 12:38:15.357,898.390
5,3 Dec 2013 14:02:04.711,3 Dec 2013 14:17:55.168,950.457
6,3 Dec 2013 15:41:16.885,3 Dec 2013 15:57:18.220,961.335
7,3 Dec 2013 17:21:07.973,3 Dec 2013 17:37:16.165,968.192
8,3 Dec 2013 19:01:55.973,3 Dec 2013 19:18:10.741,974.768
9,3 Dec 2013 20:44:07.983,3 Dec 2013 20:58:42.778,874.795
10,4 Dec 2013 04:30:04.154,4 Dec 2013 04:45:48.307,944.153
11,4 Dec 2013 06:14:03.217,4 Dec 2013 06:28:05.306,842.089
12,4 Dec 2013 07:55:31.797,4 Dec 2013 08:10:03.685,871.887
13,4 Dec 2013 09:35:54.261,4 Dec 2013 09:50:50.338,896.078
14,4 Dec 2013 11:15:45.589,4 Dec 2013 11:30:39.246,893.658
15,4 Dec 2013 12:55:51.692,4 Dec 2013 13:10:01.562,849.870
16,4 Dec 2013 14:37:16.833,4 Dec 2013 14:49:18.061,721.228
17,4 Dec 2013 16:20:47.062,4 Dec 2013 16:34:30.598,823.537
18,4 Dec 2013 18:04:07.112,4 Dec 2013 18:20:17.621,970.510
19,5 Dec 2013 01:54:46.661,5 Dec 2013 02:01:45.070,418.408
20,5 Dec 2013 03:34:00.842,5 Dec 2013 03:45:10.141,669.299
21,5 Dec 2013 05:13:38.558,5 Dec 2013 05:26:15.680,757.122
22,5 Dec 2013 06:52:31.940,5 Dec 2013 07:06:10.365,818.425
23,5 Dec 2013 08:30:38.337,5 Dec 2013 08:45:29.550,891.213
24,5 Dec 2013 10:08:40.468,5 Dec 2013 10:24:28.577,948.109
25,5 Dec 2013 11:51:19.234,5 Dec 2013 12:07:18.493,959.259
26,5 Dec 2013 13:40:08.486,5 Dec 2013 13:55:22.804,914.318
27,5 Dec 2013 15:25:46.980,5 Dec 2013 15:42:37.376,1010.396
28,5 Dec 2013 17:15:09.399,5 Dec 2013 17:18:58.697,229.298
29,6 Dec 2013 07:33:44.336,6 Dec 2013 07:42:27.415,523.079
30,6 Dec 2013 09:13:44.648,6 Dec 2013 09:30:45.391,1020.744
31,6 Dec 2013 11:01:20.725,6 Dec 2013 11:17:16.187,955.462
32,6 Dec 2013 12:48:33.729,6 Dec 2013 13:05:28.808,1015.079
33,6 Dec 2013 14:35:14.483,6 Dec 2013 14:48:58.923,824.440
34,7 Dec 2013 06:37:16.857,7 Dec 2013 06:53:29.326,972.469
35,7 Dec 2013 08:22:58.708,7 Dec 2013 08:38:33.894,935.185
36,7 Dec 2013 10:11:58.157,7 Dec 2013 10:26:40.129,881.972
37,7 Dec 2013 11:56:20.310,7 Dec 2013 12:12:08.202,947.892
38,7 Dec 2013 13:35:07.732,7 Dec 2013 13:50:32.498,924.766
39,7 Dec 2013 15:14:16.927,7 Dec 2013 15:28:32.015,855.088
40,7 Dec 2013 16:53:51.845,7 Dec 2013 17:07:04.264,792.420
41,7 Dec 2013 18:34:19.723,7 Dec 2013 18:46:28.402,728.679
42,7 Dec 2013 20:16:24.610,7 Dec 2013 20:26:14.045,589.435
43,8 Dec 2013 04:00:09.073,8 Dec 2013 04:14:57.121,888.048
44,8 Dec 2013 05:43:21.435,8 Dec 2013 05:58:20.300,898.866
45,8 Dec 2013 07:31:12.132,8 Dec 2013 07:41:31.043,618.910
46,8 Dec 2013 09:10:28.592,8 Dec 2013 09:23:56.353,807.761
47,8 Dec 2013 10:49:48.019,8 Dec 2013 11:04:28.277,880.257
48,8 Dec 2013 12:29:22.101,8 Dec 2013 12:44:19.416,897.315
49,8 Dec 2013 14:09:40.479,8 Dec 2013 14:24:22.901,882.422
50,8 Dec 2013 15:51:09.325,8 Dec 2013 16:05:17.438,848.113
51,8 Dec 2013 17:33:22.255,8 Dec 2013 17:49:51.984,989.729
52,9 Dec 2013 01:22:51.217,9 Dec 2013 01:34:08.711,677.494

"Access","Start Time (UTCG)","Stop Time (UTCG)","Duration (sec)"
1,3 Dec 2013 06:35:02.511,3 Dec 2013 06:50:13.299,910.788
2,3 Dec 2013 08:18:59.884,3 Dec 2013 08:34:34.659,934.775
3,3 Dec 2013 10:09:32.051,3 Dec 2013 10:20:56.252,684.201
4,3 Dec 2013 11:50:27.612,3 Dec 2013 12:04:44.570,856.958
5,3 Dec 2013 13:29:06.230,3 Dec 2013 13:44:47.217,940.986
6,3 Dec 2013 15:08:09.522,3 Dec 2013 15:24:08.572,959.050
7,3 Dec 2013 16:47:45.325,3 Dec 2013 17:03:51.048,965.723
8,3 Dec 2013 18:28:13.034,3 Dec 2013 18:44:26.065,973.032
9,3 Dec 2013 20:09:42.698,3 Dec 2013 20:25:54.421,971.722
10,4 Dec 2013 03:57:59.065,4 Dec 2013 04:10:43.247,764.182
11,4 Dec 2013 05:38:33.393,4 Dec 2013 05:54:03.577,930.184
12,4 Dec 2013 07:21:51.184,4 Dec 2013 07:36:11.738,860.554
13,4 Dec 2013 09:02:32.089,4 Dec 2013 09:17:22.580,890.491
14,4 Dec 2013 10:42:29.440,4 Dec 2013 10:57:27.427,897.987
15,4 Dec 2013 12:22:24.461,4 Dec 2013 12:36:55.387,870.926
16,4 Dec 2013 14:03:14.855,4 Dec 2013 14:16:12.851,777.996
17,4 Dec 2013 15:46:19.607,4 Dec 2013 15:57:01.290,641.682
18,4 Dec 2013 17:29:30.899,4 Dec 2013 17:46:10.171,999.271
19,4 Dec 2013 19:15:49.986,4 Dec 2013 19:23:33.716,463.730
20,5 Dec 2013 03:00:46.609,5 Dec 2013 03:11:03.622,617.013
21,5 Dec 2013 04:40:29.336,5 Dec 2013 04:52:43.864,734.528
22,5 Dec 2013 06:19:40.260,5 Dec 2013 06:32:57.515,797.255
23,5 Dec 2013 07:57:59.572,5 Dec 2013 08:12:25.636,866.064
24,5 Dec 2013 09:35:56.246,5 Dec 2013 09:51:31.263,935.017
25,5 Dec 2013 11:15:10.342,5 Dec 2013 11:31:57.161,1006.819
26,5 Dec 2013 13:04:11.037,5 Dec 2013 13:19:00.104,889.067
27,5 Dec 2013 14:50:44.951,5 Dec 2013 15:07:32.083,1007.133
28,5 Dec 2013 16:36:42.839,5 Dec 2013 16:49:34.558,771.719
29,6 Dec 2013 08:39:03.688,6 Dec 2013 08:55:24.042,980.354
30,6 Dec 2013 10:25:09.761,6 Dec 2013 10:41:29.959,980.198
31,6 Dec 2013 12:13:07.593,6 Dec 2013 12:29:32.664,985.071
32,6 Dec 2013 13:59:18.169,6 Dec 2013 14:15:28.083,969.914
33,7 Dec 2013 06:04:07.772,7 Dec 2013 06:18:02.211,834.440
34,7 Dec 2013 07:46:56.004,7 Dec 2013 08:03:27.798,991.795
35,7 Dec 2013 09:35:55.819,7 Dec 2013 09:50:07.358,851.539
36,7 Dec 2013 11:22:49.908,7 Dec 2013 11:39:01.300,971.392
37,7 Dec 2013 13:02:08.912,7 Dec 2013 13:17:50.698,941.786
38,7 Dec 2013 14:41:11.753,7 Dec 2013 14:55:50.783,879.031
39,7 Dec 2013 16:20:36.035,7 Dec 2013 16:34:07.721,811.686
40,7 Dec 2013 18:00:42.230,7 Dec 2013 18:13:15.367,753.137
41,7 Dec 2013 19:42:08.148,7 Dec 2013 19:53:00.890,652.741
42,8 Dec 2013 03:28:49.299,8 Dec 2013 03:39:06.722,617.423
43,8 Dec 2013 05:07:44.318,8 Dec 2013 05:24:09.819,985.501
44,8 Dec 2013 06:58:11.019,8 Dec 2013 07:06:40.300,509.281
45,8 Dec 2013 08:37:22.545,8 Dec 2013 08:50:04.746,762.201
46,8 Dec 2013 10:16:40.992,8 Dec 2013 10:31:05.332,864.340
47,8 Dec 2013 11:56:07.480,8 Dec 2013 12:11:03.243,895.763
48,8 Dec 2013 13:36:07.398,8 Dec 2013 13:50:57.789,890.391
49,8 Dec 2013 15:17:11.406,8 Dec 2013 15:31:31.478,860.072
50,8 Dec 2013 16:59:12.799,8 Dec 2013 17:15:18.527,965.728
51,8 Dec 2013 18:43:27.606,8 Dec 2013 18:54:44.141,676.536

"Access","Start Time (UTCG)","Stop Time (UTCG)","Duration (sec)"
1,3 Dec 2013 01:24:26.981,3 Dec 2013 01:38:41.721,854.740
2,3 Dec 2013 03:07:33.951,3 Dec 2013 03:23:07.179,933.228
3,3 Dec 2013 10:54:47.168,3 Dec 2013 11:07:40.222,773.053
4,3 Dec 2013 12:35:31.726,3 Dec 2013 12:49:51.817,860.091
5,3 Dec 2013 14:15:48.378,3 Dec 2013 14:30:38.500,890.122
6,3 Dec 2013 15:55:12.375,3 Dec 2013 16:10:24.923,912.548
7,3 Dec 2013 17:33:53.371,3 Dec 2013 17:49:35.917,942.546
8,3 Dec 2013 19:12:37.317,3 Dec 2013 19:28:25.373,948.056
9,3 Dec 2013 20:55:19.149,3 Dec 2013 21:10:22.979,903.830
10,3 Dec 2013 22:43:51.244,3 Dec 2013 22:59:07.170,915.926
11,4 Dec 2013 00:29:01.468,4 Dec 2013 00:45:35.424,993.956
12,4 Dec 2013 16:34:27.892,4 Dec 2013 16:46:46.091,738.199
13,4 Dec 2013 18:16:53.204,4 Dec 2013 18:33:53.954,1020.750
14,4 Dec 2013 20:04:57.527,4 Dec 2013 20:20:50.436,952.909
15,4 Dec 2013 21:51:43.096,4 Dec 2013 22:08:44.896,1021.800
16,4 Dec 2013 23:39:05.365,4 Dec 2013 23:50:18.597,673.232
17,5 Dec 2013 15:40:05.744,5 Dec 2013 15:56:44.461,998.717
18,5 Dec 2013 17:26:43.132,5 Dec 2013 17:42:11.426,928.294
19,5 Dec 2013 19:15:06.185,5 Dec 2013 19:30:45.456,939.271
20,5 Dec 2013 21:00:17.776,5 Dec 2013 21:16:01.214,943.437
21,5 Dec 2013 22:39:23.451,5 Dec 2013 22:53:32.626,849.175
22,6 Dec 2013 00:18:53.718,6 Dec 2013 00:30:40.657,706.939
23,6 Dec 2013 01:58:54.603,6 Dec 2013 02:08:20.442,565.838
24,6 Dec 2013 03:40:15.275,6 Dec 2013 03:46:29.024,373.749
25,6 Dec 2013 13:02:46.807,6 Dec 2013 13:18:27.308,940.501
26,6 Dec 2013 14:47:26.580,6 Dec 2013 15:01:55.275,868.695
27,6 Dec 2013 16:36:22.679,6 Dec 2013 16:46:10.013,587.334
28,6 Dec 2013 18:14:58.724,6 Dec 2013 18:28:40.047,821.323
29,6 Dec 2013 19:54:02.266,6 Dec 2013 20:09:04.103,901.837
30,6 Dec 2013 21:33:26.790,6 Dec 2013 21:48:52.673,925.883
31,6 Dec 2013 23:13:33.803,6 Dec 2013 23:29:02.130,928.327
32,7 Dec 2013 00:54:42.977,7 Dec 2013 01:10:07.890,924.912
33,7 Dec 2013 02:36:51.263,7 Dec 2013 02:53:02.236,970.973
34,7 Dec 2013 10:24:51.786,7 Dec 2013 10:38:19.319,807.533
35,7 Dec 2013 12:04:58.281,7 Dec 2013 12:21:14.696,976.415
36,7 Dec 2013 13:46:30.610,7 Dec 2013 14:02:36.253,965.643
37,7 Dec 2013 15:27:00.695,7 Dec 2013 15:42:57.607,956.912
38,7 Dec 2013 17:06:46.432,7 Dec 2013 17:22:29.357,942.925
39,7 Dec 2013 18:46:30.763,7 Dec 2013 19:01:31.558,900.795
40,7 Dec 2013 20:27:27.361,7 Dec 2013 20:40:07.871,760.510
41,7 Dec 2013 22:13:02.612,7 Dec 2013 22:26:20.005,797.393
42,7 Dec 2013 23:57:23.781,8 Dec 2013 00:14:08.930,1005.148
43,8 Dec 2013 01:45:39.252,8 Dec 2013 01:49:56.541,257.289
44,8 Dec 2013 14:26:37.721,8 Dec 2013 14:35:48.374,550.653
45,8 Dec 2013 16:02:23.725,8 Dec 2013 16:15:56.493,812.769
46,8 Dec 2013 17:44:11.796,8 Dec 2013 18:01:10.590,1018.794
47,8 Dec 2013 19:32:36.478,8 Dec 2013 19:48:08.219,931.742
48,8 Dec 2013 21:19:20.069,8 Dec 2013 21:36:16.383,1016.314
49,8 Dec 2013 23:05:53.763,8 Dec 2013 23:18:09.207,735.444

"Access","Start Time (UTCG)","Stop Time (UTCG)","Duration (sec)"
1,3 Dec 2013 01:00:00.000,3 Dec 2013 01:01:19.736,79.736
2,3 Dec 2013 02:32:54.754,3 Dec 2013 02:49:31.202,996.448
3,3 Dec 2013 10:23:21.067,3 Dec 2013 10:32:39.501,558.435
4,3 Dec 2013 12:01:57.785,3 Dec 2013 12:15:58.793,841.008
5,3 Dec 2013 13:42:28.131,3 Dec 2013 13:57:10.834,882.703
6,3 Dec 2013 15:22:10.395,3 Dec 2013 15:37:14.570,904.175
7,3 Dec 2013 17:01:02.346,3 Dec 2013 17:16:34.907,932.561
8,3 Dec 2013 18:39:38.210,3 Dec 2013 18:55:31.391,953.181
9,3 Dec 2013 20:19:05.002,3 Dec 2013 20:34:55.914,950.912
10,3 Dec 2013 22:08:10.809,3 Dec 2013 22:22:35.654,864.846
11,3 Dec 2013 23:54:02.667,4 Dec 2013 00:10:54.368,1011.700
12,4 Dec 2013 01:40:29.281,4 Dec 2013 01:51:05.890,636.609
13,4 Dec 2013 17:41:44.529,4 Dec 2013 17:58:34.877,1010.348
14,4 Dec 2013 19:28:48.230,4 Dec 2013 19:44:53.219,964.989
15,4 Dec 2013 21:16:23.661,4 Dec 2013 21:33:05.764,1002.104
16,4 Dec 2013 23:02:36.483,4 Dec 2013 23:17:44.796,908.313
17,5 Dec 2013 15:06:20.126,5 Dec 2013 15:21:26.751,906.625
18,5 Dec 2013 16:50:30.833,5 Dec 2013 17:06:51.536,980.702
19,5 Dec 2013 18:39:20.026,5 Dec 2013 18:54:15.174,895.148
20,5 Dec 2013 20:25:49.261,5 Dec 2013 20:42:50.630,1021.369
21,5 Dec 2013 22:06:18.350,5 Dec 2013 22:21:08.092,889.741
22,5 Dec 2013 23:45:41.135,5 Dec 2013 23:58:16.550,755.415
23,6 Dec 2013 01:25:29.162,6 Dec 2013 01:35:41.929,612.766
24,6 Dec 2013 03:06:12.926,6 Dec 2013 03:13:48.060,455.134
25,6 Dec 2013 12:30:31.644,6 Dec 2013 12:43:04.774,753.130
26,6 Dec 2013 14:11:24.506,6 Dec 2013 14:27:35.836,971.331
27,6 Dec 2013 16:02:41.142,6 Dec 2013 16:10:58.617,497.475
28,6 Dec 2013 17:42:01.606,6 Dec 2013 17:54:50.267,768.660
29,6 Dec 2013 19:20:59.342,6 Dec 2013 19:35:43.551,884.209
30,6 Dec 2013 21:00:15.194,6 Dec 2013 21:15:36.449,921.255
31,6 Dec 2013 22:40:05.175,6 Dec 2013 22:55:34.114,928.939
32,7 Dec 2013 00:20:52.721,7 Dec 2013 00:36:18.225,925.504
33,7 Dec 2013 02:02:39.205,7 Dec 2013 02:19:01.097,981.891
34,7 Dec 2013 03:47:56.228,7 Dec 2013 03:56:01.259,485.031
35,7 Dec 2013 09:55:25.981,7 Dec 2013 10:01:26.385,360.405
36,7 Dec 2013 11:30:53.143,7 Dec 2013 11:47:15.189,982.046
37,7 Dec 2013 13:12:46.919,7 Dec 2013 13:28:55.669,968.750
38,7 Dec 2013 14:53:36.974,7 Dec 2013 15:09:36.926,959.952
39,7 Dec 2013 16:33:34.014,7 Dec 2013 16:49:22.982,948.968
40,7 Dec 2013 18:13:12.350,7 Dec 2013 18:28:33.229,920.879
41,7 Dec 2013 19:53:34.061,7 Dec 2013 20:07:20.109,826.048
42,7 Dec 2013 21:37:27.323,7 Dec 2013 21:49:14.988,707.664
43,7 Dec 2013 23:22:43.183,7 Dec 2013 23:39:06.943,983.760
44,8 Dec 2013 01:07:42.914,8 Dec 2013 01:20:40.439,777.525
45,8 Dec 2013 13:54:55.599,8 Dec 2013 14:02:09.119,433.519
46,8 Dec 2013 15:30:21.534,8 Dec 2013 15:42:39.984,738.451
47,8 Dec 2013 17:08:55.329,8 Dec 2013 17:25:49.475,1014.146
48,8 Dec 2013 18:56:21.123,8 Dec 2013 19:12:09.992,948.869
49,8 Dec 2013 20:44:05.004,8 Dec 2013 21:00:32.187,987.183
50,8 Dec 2013 22:29:51.753,8 Dec 2013 22:45:24.524,932.771

"Access","Start Time (UTCG)","Stop Time (UTCG)","Duration (sec)"
1,3 Dec 2013 01:58:35.365,3 Dec 2013 02:14:42.807,967.442
2,3 Dec 2013 03:42:56.654,3 Dec 2013 03:55:11.112,734.457
3,3 Dec 2013 11:28:22.179,3 Dec 2013 11:41:55.429,813.250
4,3 Dec 2013 13:09:02.273,3 Dec 2013 13:23:35.550,873.277
5,3 Dec 2013 14:49:02.503,3 Dec 2013 15:03:59.428,896.925
6,3 Dec 2013 16:28:09.265,3 Dec 2013 16:43:31.436,922.171
7,3 Dec 2013 18:06:44.497,3 Dec 2013 18:22:34.762,950.265
8,3 Dec 2013 19:45:44.996,3 Dec 2013 20:01:15.773,930.778
9,3 Dec 2013 21:31:55.881,3 Dec 2013 21:46:15.062,859.180
10,3 Dec 2013 23:19:03.937,3 Dec 2013 23:35:20.728,976.790
11,4 Dec 2013 01:04:17.484,4 Dec 2013 01:19:11.140,893.656
12,4 Dec 2013 17:07:27.603,4 Dec 2013 17:23:02.550,934.947
13,4 Dec 2013 18:52:39.877,4 Dec 2013 19:09:16.156,996.278
14,4 Dec 2013 20:40:50.780,4 Dec 2013 20:57:00.836,970.056
15,4 Dec 2013 22:27:01.497,4 Dec 2013 22:43:42.751,1001.254
16,5 Dec 2013 14:34:08.713,5 Dec 2013 14:45:18.796,670.083
17,5 Dec 2013 16:14:53.658,5 Dec 2013 16:31:47.119,1013.461
18,5 Dec 2013 18:03:08.081,5 Dec 2013 18:17:58.570,890.490
19,5 Dec 2013 19:50:31.542,5 Dec 2013 20:07:03.892,992.350
20,5 Dec 2013 21:33:16.213,5 Dec 2013 21:48:38.477,922.264
21,5 Dec 2013 23:12:31.100,5 Dec 2013 23:25:54.620,803.521
22,6 Dec 2013 00:52:09.393,6 Dec 2013 01:03:08.736,659.343
23,6 Dec 2013 02:32:28.040,6 Dec 2013 02:41:03.345,515.305
24,6 Dec 2013 04:14:51.247,6 Dec 2013 04:18:50.123,238.876
25,6 Dec 2013 12:02:59.147,6 Dec 2013 12:03:49.786,50.640
26,6 Dec 2013 13:36:30.616,6 Dec 2013 13:53:10.004,999.387
27,6 Dec 2013 15:24:37.260,6 Dec 2013 15:36:17.198,699.938
28,6 Dec 2013 17:09:08.360,6 Dec 2013 17:20:42.552,694.192
29,6 Dec 2013 18:47:58.161,6 Dec 2013 19:02:16.577,858.415
30,6 Dec 2013 20:27:07.315,6 Dec 2013 20:42:20.947,913.632
31,6 Dec 2013 22:06:43.118,6 Dec 2013 22:22:11.391,928.272
32,6 Dec 2013 23:47:09.583,7 Dec 2013 00:02:36.530,926.947
33,7 Dec 2013 01:28:39.699,7 Dec 2013 01:44:05.906,926.207
34,7 Dec 2013 03:11:38.504,7 Dec 2013 03:25:40.792,842.289
35,7 Dec 2013 10:57:08.703,7 Dec 2013 11:13:07.175,958.472
36,7 Dec 2013 12:38:56.039,7 Dec 2013 12:55:08.355,972.316
37,7 Dec 2013 14:20:07.168,7 Dec 2013 14:36:09.952,962.784
38,7 Dec 2013 16:00:19.293,7 Dec 2013 16:16:12.683,953.390
39,7 Dec 2013 17:39:58.454,7 Dec 2013 17:55:32.586,934.132
40,7 Dec 2013 19:19:56.766,7 Dec 2013 19:34:27.431,870.665
41,7 Dec 2013 21:01:43.531,7 Dec 2013 21:12:46.927,663.396
42,7 Dec 2013 22:48:00.949,7 Dec 2013 23:03:07.011,906.062
43,8 Dec 2013 00:32:16.075,8 Dec 2013 00:48:06.201,950.126
44,8 Dec 2013 13:23:26.532,8 Dec 2013 13:28:11.042,284.509
45,8 Dec 2013 14:58:26.544,8 Dec 2013 15:09:17.672,651.128
46,8 Dec 2013 16:34:34.628,8 Dec 2013 16:50:12.944,938.316
47,8 Dec 2013 18:20:05.649,8 Dec 2013 18:36:33.150,987.500
48,8 Dec 2013 20:08:32.843,8 Dec 2013 20:24:22.097,949.254
49,8 Dec 2013 21:54:30.345,8 Dec 2013 22:11:18.357,1008.012

"Access","Start Time (UTCG)","Stop Time (UTCG)","Duration (sec)"
1,3 Dec 2013 01:03:55.236,3 Dec 2013 01:13:21.912,566.676
2,3 Dec 2013 02:44:40.381,3 Dec 2013 03:01:42.826,1022.445
3,3 Dec 2013 04:32:29.346,3 Dec 2013 04:48:20.456,951.109
4,3 Dec 2013 06:19:37.350,3 Dec 2013 06:36:31.451,1014.101
5,3 Dec 2013 08:06:04.538,3 Dec 2013 08:19:40.210,815.672
6,4 Dec 2013 00:08:46.850,4 Dec 2013 00:24:44.709,957.859
7,4 Dec 2013 01:54:08.277,4 Dec 2013 02:10:17.795,969.517
8,4 Dec 2013 03:42:37.859,4 Dec 2013 03:58:14.900,937.040
9,4 Dec 2013 05:28:54.254,4 Dec 2013 05:45:48.154,1013.900
10,4 Dec 2013 07:10:50.944,4 Dec 2013 07:23:43.959,773.015
11,4 Dec 2013 08:51:07.816,4 Dec 2013 08:59:24.295,496.479
12,4 Dec 2013 21:32:38.726,4 Dec 2013 21:46:44.300,845.573
13,4 Dec 2013 23:15:10.365,4 Dec 2013 23:31:03.721,953.355
14,5 Dec 2013 01:06:13.999,5 Dec 2013 01:15:58.069,584.070
15,5 Dec 2013 02:46:22.273,5 Dec 2013 02:59:47.351,805.078
16,5 Dec 2013 04:25:06.693,5 Dec 2013 04:40:20.317,913.624
17,5 Dec 2013 06:04:14.576,5 Dec 2013 06:20:00.685,946.110
18,5 Dec 2013 07:43:56.184,5 Dec 2013 07:59:54.093,957.909
19,5 Dec 2013 09:24:31.535,5 Dec 2013 09:40:37.884,966.349
20,5 Dec 2013 11:06:06.619,5 Dec 2013 11:22:33.584,986.964
21,5 Dec 2013 18:56:11.789,5 Dec 2013 19:06:32.385,620.595
22,5 Dec 2013 20:34:37.744,5 Dec 2013 20:50:39.275,961.532
23,5 Dec 2013 22:17:04.665,5 Dec 2013 22:32:33.000,928.336
24,5 Dec 2013 23:57:55.689,6 Dec 2013 00:13:26.632,930.943
25,6 Dec 2013 01:37:56.663,6 Dec 2013 01:53:21.220,924.558
26,6 Dec 2013 03:17:46.982,6 Dec 2013 03:32:39.086,892.104
27,6 Dec 2013 04:58:28.978,6 Dec 2013 05:11:37.913,788.935
28,6 Dec 2013 06:41:58.142,6 Dec 2013 06:52:59.629,661.487
29,6 Dec 2013 08:26:07.445,6 Dec 2013 08:42:41.623,994.179
30,6 Dec 2013 10:11:30.782,6 Dec 2013 10:22:26.055,655.274
31,6 Dec 2013 19:40:15.976,6 Dec 2013 19:46:57.724,401.748
32,6 Dec 2013 21:18:16.946,6 Dec 2013 21:27:57.613,580.667
33,6 Dec 2013 22:55:42.467,6 Dec 2013 23:07:51.937,729.469
34,7 Dec 2013 00:32:46.444,7 Dec 2013 00:47:18.887,872.443
35,7 Dec 2013 02:11:53.068,7 Dec 2013 02:28:55.291,1022.224
36,7 Dec 2013 04:00:13.523,7 Dec 2013 04:15:31.952,918.429
37,7 Dec 2013 05:47:25.980,7 Dec 2013 06:04:04.364,998.384
38,7 Dec 2013 07:33:12.632,7 Dec 2013 07:47:38.570,865.938
39,7 Dec 2013 23:36:38.637,7 Dec 2013 23:52:08.661,930.025
40,8 Dec 2013 01:21:35.327,8 Dec 2013 01:38:10.096,994.769
41,8 Dec 2013 03:09:48.184,8 Dec 2013 03:25:53.121,964.937
42,8 Dec 2013 04:56:06.156,8 Dec 2013 05:12:52.930,1006.774
43,8 Dec 2013 21:02:13.520,8 Dec 2013 21:14:27.049,733.529
44,8 Dec 2013 22:43:25.129,8 Dec 2013 23:00:05.988,1000.859
45,9 Dec 2013 00:32:23.174,9 Dec 2013 00:45:54.983,811.809

"Access","Start Time (UTCG)","Stop Time (UTCG)","Duration (sec)"
1,3 Dec 2013 02:09:50.689,3 Dec 2013 02:26:18.555,987.866
2,3 Dec 2013 03:56:16.306,3 Dec 2013 04:12:32.233,975.927
3,3 Dec 2013 05:44:14.098,3 Dec 2013 06:00:37.766,983.667
4,3 Dec 2013 07:30:13.664,3 Dec 2013 07:46:19.285,965.621
5,3 Dec 2013 23:35:43.871,3 Dec 2013 23:49:01.060,797.189
6,4 Dec 2013 01:18:15.490,4 Dec 2013 01:35:03.758,1008.267
7,4 Dec 2013 03:06:40.998,4 Dec 2013 03:21:53.600,912.602
8,4 Dec 2013 04:53:32.956,4 Dec 2013 05:10:30.735,1017.779
9,4 Dec 2013 06:37:37.144,4 Dec 2013 06:51:37.531,840.387
10,4 Dec 2013 08:17:35.094,4 Dec 2013 08:27:36.280,601.186
11,4 Dec 2013 09:59:05.275,4 Dec 2013 10:02:25.636,200.360
12,4 Dec 2013 21:01:51.987,4 Dec 2013 21:10:14.426,502.438
13,4 Dec 2013 22:39:50.691,4 Dec 2013 22:56:32.611,1001.920
14,5 Dec 2013 00:28:45.708,5 Dec 2013 00:40:25.538,699.831
15,5 Dec 2013 02:13:36.478,5 Dec 2013 02:25:47.013,730.536
16,5 Dec 2013 03:52:08.971,5 Dec 2013 04:06:59.412,890.441
17,5 Dec 2013 05:31:09.172,5 Dec 2013 05:46:48.374,939.202
18,5 Dec 2013 07:10:37.232,5 Dec 2013 07:26:32.023,954.791
19,5 Dec 2013 08:50:52.953,5 Dec 2013 09:06:56.390,963.438
20,5 Dec 2013 10:32:08.785,5 Dec 2013 10:48:22.474,973.689
21,5 Dec 2013 12:15:33.376,5 Dec 2013 12:27:52.170,738.794
22,5 Dec 2013 20:00:18.135,5 Dec 2013 20:16:40.432,982.297
23,5 Dec 2013 21:43:12.315,5 Dec 2013 21:58:40.935,928.620
24,5 Dec 2013 23:24:25.661,5 Dec 2013 23:39:55.999,930.338
25,6 Dec 2013 01:04:39.869,6 Dec 2013 01:20:08.381,928.512
26,6 Dec 2013 02:44:28.101,6 Dec 2013 02:59:35.726,907.625
27,6 Dec 2013 04:24:44.168,6 Dec 2013 04:38:40.318,836.149
28,6 Dec 2013 06:06:53.623,6 Dec 2013 06:17:20.161,626.539
29,6 Dec 2013 07:51:36.259,6 Dec 2013 08:07:01.704,925.445
30,6 Dec 2013 09:35:40.799,6 Dec 2013 09:50:42.787,901.988
31,6 Dec 2013 19:07:45.201,6 Dec 2013 19:12:41.190,295.989
32,6 Dec 2013 20:45:38.617,6 Dec 2013 20:54:28.637,530.020
33,6 Dec 2013 22:23:18.573,6 Dec 2013 22:34:37.696,679.123
34,7 Dec 2013 00:00:24.140,7 Dec 2013 00:14:12.412,828.272
35,7 Dec 2013 01:37:46.487,7 Dec 2013 01:53:30.183,943.697
36,7 Dec 2013 03:23:50.442,7 Dec 2013 03:39:43.169,952.728
37,7 Dec 2013 05:12:06.224,7 Dec 2013 05:28:01.678,955.455
38,7 Dec 2013 06:57:42.655,7 Dec 2013 07:14:07.421,984.767
39,7 Dec 2013 23:03:49.950,7 Dec 2013 23:15:58.134,728.184
40,8 Dec 2013 00:45:51.625,8 Dec 2013 01:02:51.094,1019.470
41,8 Dec 2013 02:33:53.052,8 Dec 2013 02:49:41.301,948.249
42,8 Dec 2013 04:20:45.062,8 Dec 2013 04:37:46.983,1021.921
43,8 Dec 2013 06:08:13.509,8 Dec 2013 06:19:58.043,704.534
44,8 Dec 2013 22:08:30.214,8 Dec 2013 22:25:14.635,1004.420
45,8 Dec 2013 23:55:41.039,9 Dec 2013 00:10:11.027,869.988
46,9 Dec 2013 01:44:34.167,9 Dec 2013 01:59:08.489,874.322

"Access","Start Time (UTCG)","Stop Time (UTCG)","Duration (sec)"
1,3 Dec 2013 01:36:00.154,3 Dec 2013 01:50:29.284,869.130
2,3 Dec 2013 03:20:13.596,3 Dec 2013 03:37:02.776,1009.180
3,3 Dec 2013 05:08:32.250,3 Dec 2013 05:24:27.016,954.766
4,3 Dec 2013 06:54:52.394,3 Dec 2013 07:11:49.925,1017.531
5,3 Dec 2013 08:43:45.346,3 Dec 2013 08:50:36.211,410.866
6,3 Dec 2013 23:05:26.743,3 Dec 2013 23:11:13.122,346.379
7,4 Dec 2013 00:43:04.061,4 Dec 2013 00:59:57.668,1013.607
8,4 Dec 2013 02:30:24.748,4 Dec 2013 02:45:52.144,927.397
9,4 Dec 2013 04:18:12.090,4 Dec 2013 04:34:34.707,982.617
10,4 Dec 2013 06:04:28.588,4 Dec 2013 06:19:22.056,893.468
11,4 Dec 2013 07:44:10.035,4 Dec 2013 07:55:43.060,693.025
12,4 Dec 2013 09:24:52.495,4 Dec 2013 09:31:05.307,372.812
13,4 Dec 2013 22:05:36.420,4 Dec 2013 22:21:51.821,975.401
14,4 Dec 2013 23:51:32.106,5 Dec 2013 00:05:36.504,844.398
15,5 Dec 2013 01:41:01.427,5 Dec 2013 01:51:20.612,619.185
16,5 Dec 2013 03:19:13.837,5 Dec 2013 03:33:29.742,855.905
17,5 Dec 2013 04:58:06.706,5 Dec 2013 05:13:35.716,929.011
18,5 Dec 2013 06:37:23.653,5 Dec 2013 06:53:14.676,951.023
19,5 Dec 2013 08:17:21.247,5 Dec 2013 08:33:21.956,960.709
20,5 Dec 2013 09:58:16.924,5 Dec 2013 10:14:26.636,969.711
21,5 Dec 2013 11:40:25.421,5 Dec 2013 11:56:00.135,934.714
22,5 Dec 2013 19:27:18.909,5 Dec 2013 19:42:09.626,890.717
23,5 Dec 2013 21:09:11.650,5 Dec 2013 21:24:42.699,931.048
24,5 Dec 2013 22:50:48.923,5 Dec 2013 23:06:18.141,929.218
25,6 Dec 2013 00:31:20.025,6 Dec 2013 00:46:50.503,930.478
26,6 Dec 2013 02:11:12.084,6 Dec 2013 02:26:30.026,917.943
27,6 Dec 2013 03:51:11.336,6 Dec 2013 04:05:40.576,869.241
28,6 Dec 2013 05:32:30.112,6 Dec 2013 05:44:32.156,722.044
29,6 Dec 2013 07:16:59.079,6 Dec 2013 07:30:22.060,802.981
30,6 Dec 2013 09:00:44.287,6 Dec 2013 09:17:17.688,993.401
31,6 Dec 2013 20:12:56.995,6 Dec 2013 20:20:50.218,473.224
32,6 Dec 2013 21:50:50.335,6 Dec 2013 22:01:20.000,629.666
33,6 Dec 2013 23:28:03.612,6 Dec 2013 23:41:03.410,779.798
34,7 Dec 2013 01:05:13.046,7 Dec 2013 01:20:22.506,909.460
35,7 Dec 2013 02:47:36.959,7 Dec 2013 03:04:14.730,997.771
36,7 Dec 2013 04:36:23.045,7 Dec 2013 04:51:42.914,919.869
37,7 Dec 2013 06:22:33.519,7 Dec 2013 06:39:30.834,1017.315
38,7 Dec 2013 08:09:53.079,7 Dec 2013 08:19:17.573,564.494
39,8 Dec 2013 00:10:48.061,8 Dec 2013 00:27:36.020,1007.959
40,8 Dec 2013 01:57:42.831,8 Dec 2013 02:13:44.872,962.041
41,8 Dec 2013 03:45:23.247,8 Dec 2013 04:02:01.888,998.641
42,8 Dec 2013 05:31:43.994,8 Dec 2013 05:47:06.112,922.118
43,8 Dec 2013 21:34:38.383,8 Dec 2013 21:50:10.870,932.487
44,8 Dec 2013 23:19:13.101,8 Dec 2013 23:34:59.989,946.888
45,9 Dec 2013 01:08:46.242,9 Dec 2013 01:22:19.717,813.476

