Raw and processed data/perplane variations/us_greatcircle_9sat1/Aircraft-B747LAX_Heathrow-Transmitter-adsb_out6-To-Satellite-700km_p1_1-Receiver-adsb_satrcvr2 Access.csv

"Access","Start Time (UTCG)","Stop Time (UTCG)","Duration (sec)"
1,3 Dec 2013 01:16:46.370,3 Dec 2013 01:32:32.205,945.836
2,3 Dec 2013 02:55:55.871,3 Dec 2013 03:11:51.364,955.493
3,3 Dec 2013 04:34:22.357,3 Dec 2013 04:50:11.494,949.137
4,3 Dec 2013 06:12:51.422,3 Dec 2013 06:28:49.455,958.033
5,3 Dec 2013 07:52:47.535,3 Dec 2013 08:08:17.986,930.452
6,3 Dec 2013 09:35:26.109,3 Dec 2013 09:48:50.484,804.374
7,3 Dec 2013 11:18:32.815,3 Dec 2013 11:33:52.509,919.694
8,3 Dec 2013 13:00:26.754,3 Dec 2013 13:14:06.545,819.791
9,3 Dec 2013 19:19:31.225,3 Dec 2013 19:23:21.379,230.154
10,3 Dec 2013 20:53:26.847,3 Dec 2013 21:08:45.303,918.456
11,3 Dec 2013 22:34:23.239,3 Dec 2013 22:48:48.570,865.331
12,4 Dec 2013 00:13:42.008,4 Dec 2013 00:27:17.048,815.041
13,4 Dec 2013 01:51:17.615,4 Dec 2013 02:05:21.196,843.581
14,4 Dec 2013 03:28:17.320,4 Dec 2013 03:43:47.025,929.704
15,4 Dec 2013 05:06:45.867,4 Dec 2013 05:22:13.657,927.790
16,4 Dec 2013 06:50:46.607,4 Dec 2013 07:04:32.252,825.645
17,4 Dec 2013 08:36:33.725,4 Dec 2013 08:52:48.932,975.207
18,4 Dec 2013 10:20:25.054,4 Dec 2013 10:35:14.456,889.402
19,5 Dec 2013 02:26:18.474,5 Dec 2013 02:41:09.394,890.920
20,5 Dec 2013 04:10:53.354,5 Dec 2013 04:28:01.904,1028.550
21,5 Dec 2013 05:57:22.579,5 Dec 2013 06:14:27.823,1025.245
22,5 Dec 2013 07:43:02.513,5 Dec 2013 07:57:58.037,895.524
23,6 Dec 2013 01:35:52.245,6 Dec 2013 01:51:41.710,949.465
24,6 Dec 2013 03:20:49.739,6 Dec 2013 03:37:54.013,1024.274
25,6 Dec 2013 05:07:01.228,6 Dec 2013 05:22:58.825,957.597
26,6 Dec 2013 23:00:58.117,6 Dec 2013 23:15:40.955,882.838
27,7 Dec 2013 00:44:15.497,7 Dec 2013 01:01:20.295,1024.798
28,7 Dec 2013 02:30:30.030,7 Dec 2013 02:46:23.245,953.215
29,7 Dec 2013 04:08:56.075,7 Dec 2013 04:24:22.903,926.828
30,7 Dec 2013 05:47:06.464,7 Dec 2013 06:02:23.649,917.186
31,7 Dec 2013 07:25:47.064,7 Dec 2013 07:41:37.337,950.273
32,7 Dec 2013 09:06:02.729,7 Dec 2013 09:22:22.927,980.198
33,7 Dec 2013 10:48:09.585,7 Dec 2013 11:04:41.326,991.741
34,7 Dec 2013 12:31:07.373,7 Dec 2013 12:46:41.064,933.691
35,7 Dec 2013 20:23:44.369,7 Dec 2013 20:38:19.593,875.225

"Access","Start Time (UTCG)","Stop Time (UTCG)","Duration (sec)"
1,3 Dec 2013 02:22:58.405,3 Dec 2013 02:38:56.157,957.752
2,3 Dec 2013 04:01:36.536,3 Dec 2013 04:17:25.788,949.252
3,3 Dec 2013 05:39:56.620,3 Dec 2013 05:55:51.942,955.322
4,3 Dec 2013 07:19:13.680,3 Dec 2013 07:35:02.168,948.488
5,3 Dec 2013 09:00:52.775,3 Dec 2013 09:15:11.000,858.225
6,3 Dec 2013 10:45:21.868,3 Dec 2013 10:57:52.872,751.003
7,3 Dec 2013 12:26:04.623,3 Dec 2013 12:41:54.540,949.917
8,3 Dec 2013 20:19:54.500,3 Dec 2013 20:34:58.255,903.755
9,3 Dec 2013 22:00:54.143,3 Dec 2013 22:15:40.236,886.093
10,3 Dec 2013 23:40:47.857,3 Dec 2013 23:54:34.276,826.419
11,4 Dec 2013 01:18:54.986,4 Dec 2013 01:32:38.133,823.147
12,4 Dec 2013 02:55:53.980,4 Dec 2013 03:10:56.255,902.275
13,4 Dec 2013 04:33:38.427,4 Dec 2013 04:49:27.914,949.488
14,4 Dec 2013 06:14:28.061,4 Dec 2013 06:28:34.445,846.384
15,4 Dec 2013 08:01:45.120,4 Dec 2013 08:17:02.917,917.796
16,4 Dec 2013 09:45:43.151,4 Dec 2013 10:02:03.546,980.395
17,5 Dec 2013 01:53:03.292,5 Dec 2013 02:04:31.430,688.138
18,5 Dec 2013 03:35:33.134,5 Dec 2013 03:52:33.119,1019.985
19,5 Dec 2013 05:21:57.705,5 Dec 2013 05:39:03.318,1025.613
20,5 Dec 2013 07:07:48.208,5 Dec 2013 07:24:08.915,980.707
21,5 Dec 2013 08:56:33.055,5 Dec 2013 09:00:18.337,225.282
22,6 Dec 2013 01:01:58.004,6 Dec 2013 01:16:01.072,843.069
23,6 Dec 2013 02:45:32.381,6 Dec 2013 03:02:31.404,1019.022
24,6 Dec 2013 04:31:35.366,6 Dec 2013 04:48:17.957,1002.591
25,6 Dec 2013 06:18:57.032,6 Dec 2013 06:29:50.185,653.153
26,6 Dec 2013 22:28:28.314,6 Dec 2013 22:39:57.139,688.825
27,7 Dec 2013 00:09:11.890,7 Dec 2013 00:26:05.850,1013.960
28,7 Dec 2013 01:55:09.950,7 Dec 2013 02:12:16.142,1026.192
29,7 Dec 2013 03:36:09.717,7 Dec 2013 03:51:48.156,938.439
30,7 Dec 2013 05:14:23.013,7 Dec 2013 05:29:37.497,914.484
31,7 Dec 2013 06:52:45.673,7 Dec 2013 07:08:22.830,937.157
32,7 Dec 2013 08:32:24.521,7 Dec 2013 08:48:37.295,972.775
33,7 Dec 2013 10:13:56.666,7 Dec 2013 10:30:25.384,988.717
34,7 Dec 2013 11:56:58.413,7 Dec 2013 12:13:35.300,996.887
35,7 Dec 2013 13:41:33.567,7 Dec 2013 13:47:42.704,369.137
36,7 Dec 2013 19:52:07.366,7 Dec 2013 20:03:02.092,654.726
37,7 Dec 2013 21:30:53.628,7 Dec 2013 21:47:35.849,1002.222

"Access","Start Time (UTCG)","Stop Time (UTCG)","Duration (sec)"
1,3 Dec 2013 01:49:55.325,3 Dec 2013 02:05:50.913,955.588
2,3 Dec 2013 03:28:48.254,3 Dec 2013 03:44:40.093,951.839
3,3 Dec 2013 05:07:08.056,3 Dec 2013 05:22:59.642,951.586
4,3 Dec 2013 06:45:55.984,3 Dec 2013 07:01:52.756,956.771
5,3 Dec 2013 08:26:40.020,3 Dec 2013 08:41:40.654,900.634
6,3 Dec 2013 10:10:18.212,3 Dec 2013 10:22:41.560,743.348
7,3 Dec 2013 11:52:08.970,3 Dec 2013 12:08:28.442,979.472
8,3 Dec 2013 13:35:51.821,3 Dec 2013 13:44:25.881,514.059
9,3 Dec 2013 19:48:11.794,3 Dec 2013 20:00:16.745,724.951
10,3 Dec 2013 21:27:15.021,3 Dec 2013 21:42:19.340,904.319
11,3 Dec 2013 23:07:41.419,3 Dec 2013 23:21:45.796,844.377
12,4 Dec 2013 00:46:23.982,4 Dec 2013 00:59:57.384,813.402
13,4 Dec 2013 02:23:35.722,4 Dec 2013 02:38:07.320,871.598
14,4 Dec 2013 04:00:50.564,4 Dec 2013 04:16:38.199,947.635
15,4 Dec 2013 05:40:19.100,4 Dec 2013 05:54:51.488,872.388
16,4 Dec 2013 07:26:32.749,4 Dec 2013 07:40:49.279,856.530
17,4 Dec 2013 09:11:09.768,4 Dec 2013 09:27:52.010,1002.242
18,4 Dec 2013 10:55:37.288,4 Dec 2013 11:07:02.982,685.693
19,5 Dec 2013 01:23:09.938,5 Dec 2013 01:27:22.796,252.858
20,5 Dec 2013 03:00:36.965,5 Dec 2013 03:17:00.013,983.047
21,5 Dec 2013 04:46:25.364,5 Dec 2013 05:03:32.230,1026.866
22,5 Dec 2013 06:32:38.093,5 Dec 2013 06:49:34.042,1015.949
23,5 Dec 2013 08:18:41.804,5 Dec 2013 08:30:37.924,716.121
24,6 Dec 2013 00:29:19.941,6 Dec 2013 00:39:35.085,615.144
25,6 Dec 2013 02:10:29.143,6 Dec 2013 02:27:08.194,999.051
26,6 Dec 2013 03:56:12.165,6 Dec 2013 04:13:12.395,1020.230
27,6 Dec 2013 05:42:39.440,6 Dec 2013 05:56:59.426,859.986
28,6 Dec 2013 23:34:41.187,6 Dec 2013 23:50:56.179,974.993
29,7 Dec 2013 01:19:38.861,7 Dec 2013 01:36:44.115,1025.254
30,7 Dec 2013 03:03:20.877,7 Dec 2013 03:19:09.760,948.882
31,7 Dec 2013 04:41:40.173,7 Dec 2013 04:56:58.159,917.986
32,7 Dec 2013 06:19:53.061,7 Dec 2013 06:35:18.425,925.364
33,7 Dec 2013 07:58:59.509,7 Dec 2013 08:15:02.122,962.613
34,7 Dec 2013 09:39:53.816,7 Dec 2013 09:56:19.026,985.211
35,7 Dec 2013 11:22:30.701,7 Dec 2013 11:39:05.546,994.845
36,7 Dec 2013 13:05:28.506,7 Dec 2013 13:18:26.409,777.904
37,7 Dec 2013 20:56:47.963,7 Dec 2013 21:13:02.745,974.782

"Access","Start Time (UTCG)","Stop Time (UTCG)","Duration (sec)"
1,3 Dec 2013 10:54:39.417,3 Dec 2013 11:09:12.650,873.232
2,3 Dec 2013 12:39:05.911,3 Dec 2013 12:56:13.580,1027.669
3,3 Dec 2013 14:25:46.907,3 Dec 2013 14:42:49.096,1022.189
4,3 Dec 2013 16:11:21.127,3 Dec 2013 16:27:08.472,947.346
5,4 Dec 2013 10:04:23.667,4 Dec 2013 10:19:47.429,923.763
6,4 Dec 2013 11:49:02.328,4 Dec 2013 12:06:06.298,1023.970
7,4 Dec 2013 13:35:09.796,4 Dec 2013 13:51:27.210,977.414
8,4 Dec 2013 15:24:12.785,4 Dec 2013 15:30:03.562,350.777
9,5 Dec 2013 07:30:21.368,5 Dec 2013 07:43:47.620,806.251
10,5 Dec 2013 09:12:41.442,5 Dec 2013 09:29:43.228,1021.787
11,5 Dec 2013 10:58:52.738,5 Dec 2013 11:16:01.982,1029.244
12,5 Dec 2013 12:39:34.395,5 Dec 2013 12:54:52.726,918.331
13,5 Dec 2013 14:17:44.210,5 Dec 2013 14:32:34.085,889.875
14,5 Dec 2013 15:56:08.120,5 Dec 2013 16:11:28.369,920.249
15,5 Dec 2013 17:35:53.638,5 Dec 2013 17:51:57.946,964.308
16,5 Dec 2013 19:17:30.646,5 Dec 2013 19:33:57.148,986.503
17,5 Dec 2013 21:00:36.925,5 Dec 2013 21:16:52.416,975.491
18,6 Dec 2013 04:53:51.231,6 Dec 2013 05:06:56.812,785.581
19,6 Dec 2013 06:34:34.960,6 Dec 2013 06:51:16.356,1001.396
20,6 Dec 2013 08:15:53.779,6 Dec 2013 08:31:56.582,962.804
21,6 Dec 2013 09:54:53.613,6 Dec 2013 10:10:42.219,948.606
22,6 Dec 2013 11:33:09.957,6 Dec 2013 11:49:00.441,950.484
23,6 Dec 2013 13:11:53.798,6 Dec 2013 13:27:43.710,949.912
24,6 Dec 2013 14:52:48.857,6 Dec 2013 15:06:59.083,850.226
25,6 Dec 2013 16:37:53.479,6 Dec 2013 16:46:54.304,540.825
26,6 Dec 2013 18:18:58.429,6 Dec 2013 18:35:22.239,983.810
27,6 Dec 2013 20:02:38.709,6 Dec 2013 20:12:17.291,578.583
28,7 Dec 2013 02:15:46.984,7 Dec 2013 02:27:18.218,691.234
29,7 Dec 2013 03:55:58.088,7 Dec 2013 04:08:27.134,749.045
30,7 Dec 2013 05:36:17.720,7 Dec 2013 05:47:25.444,667.724
31,7 Dec 2013 07:14:38.320,7 Dec 2013 07:25:20.529,642.209
32,7 Dec 2013 08:50:55.318,7 Dec 2013 09:03:43.424,768.106
33,7 Dec 2013 10:27:10.112,7 Dec 2013 10:42:31.559,921.448
34,7 Dec 2013 12:05:38.908,7 Dec 2013 12:21:32.442,953.534
35,7 Dec 2013 13:53:11.659,7 Dec 2013 14:08:41.997,930.337
36,7 Dec 2013 15:38:30.334,7 Dec 2013 15:55:18.690,1008.356
37,7 Dec 2013 17:23:26.518,7 Dec 2013 17:34:50.289,683.771

"Access","Start Time (UTCG)","Stop Time (UTCG)","Duration (sec)"
1,3 Dec 2013 10:22:51.129,3 Dec 2013 10:33:31.264,640.135
2,3 Dec 2013 12:03:45.861,3 Dec 2013 12:20:44.650,1018.789
3,3 Dec 2013 13:50:17.429,3 Dec 2013 14:07:17.836,1020.407
4,3 Dec 2013 15:36:13.945,3 Dec 2013 15:52:57.681,1003.736
5,3 Dec 2013 17:22:49.893,3 Dec 2013 17:31:59.083,549.190
6,4 Dec 2013 09:30:46.465,4 Dec 2013 09:43:54.915,788.450
7,4 Dec 2013 11:13:47.754,4 Dec 2013 11:30:42.924,1015.170
8,4 Dec 2013 12:59:46.573,4 Dec 2013 13:16:37.476,1010.903
9,4 Dec 2013 14:46:35.897,4 Dec 2013 14:59:00.102,744.205
10,5 Dec 2013 06:58:45.565,5 Dec 2013 07:07:23.061,517.496
11,5 Dec 2013 08:37:50.891,5 Dec 2013 08:54:29.357,998.466
12,5 Dec 2013 10:23:23.191,5 Dec 2013 10:40:31.732,1028.540
13,5 Dec 2013 12:06:46.871,5 Dec 2013 12:22:21.965,935.095
14,5 Dec 2013 13:45:02.292,5 Dec 2013 13:59:55.036,892.744
15,5 Dec 2013 15:23:14.292,5 Dec 2013 15:38:19.785,905.493
16,5 Dec 2013 17:02:26.212,5 Dec 2013 17:18:17.628,951.416
17,5 Dec 2013 18:43:26.681,5 Dec 2013 18:59:48.339,981.658
18,5 Dec 2013 20:26:06.805,5 Dec 2013 20:42:35.405,988.600
19,5 Dec 2013 22:10:06.674,5 Dec 2013 22:19:35.660,568.986
20,6 Dec 2013 04:23:24.358,6 Dec 2013 04:30:47.708,443.350
21,6 Dec 2013 06:00:00.642,6 Dec 2013 06:16:37.664,997.022
22,6 Dec 2013 07:42:38.824,6 Dec 2013 07:58:41.505,962.681
23,6 Dec 2013 09:22:00.499,6 Dec 2013 09:37:53.919,953.420
24,6 Dec 2013 11:00:26.002,6 Dec 2013 11:16:13.123,947.121
25,6 Dec 2013 12:38:49.972,6 Dec 2013 12:54:45.357,955.385
26,6 Dec 2013 14:18:49.162,6 Dec 2013 14:33:51.147,901.985
27,6 Dec 2013 16:02:14.824,6 Dec 2013 16:13:17.750,662.925
28,6 Dec 2013 17:45:09.024,6 Dec 2013 18:00:36.396,927.371
29,6 Dec 2013 19:27:25.015,6 Dec 2013 19:41:29.699,844.684
30,7 Dec 2013 03:22:14.572,7 Dec 2013 03:35:00.263,765.690
31,7 Dec 2013 05:03:01.652,7 Dec 2013 05:14:37.905,696.253
32,7 Dec 2013 06:42:07.576,7 Dec 2013 06:52:42.336,634.759
33,7 Dec 2013 08:18:57.614,7 Dec 2013 08:30:50.931,713.317
34,7 Dec 2013 09:54:56.227,7 Dec 2013 10:09:35.604,879.377
35,7 Dec 2013 11:32:26.925,7 Dec 2013 11:48:12.952,946.027
36,7 Dec 2013 13:17:20.635,7 Dec 2013 13:32:45.097,924.462
37,7 Dec 2013 15:03:41.184,7 Dec 2013 15:20:16.275,995.091
38,7 Dec 2013 16:48:05.731,7 Dec 2013 17:02:52.974,887.243

"Access","Start Time (UTCG)","Stop Time (UTCG)","Duration (sec)"
1,3 Dec 2013 09:52:37.201,3 Dec 2013 09:59:10.137,392.936
2,3 Dec 2013 11:28:52.479,3 Dec 2013 11:45:09.473,976.994
3,3 Dec 2013 13:14:40.530,3 Dec 2013 13:31:44.143,1023.613
4,3 Dec 2013 15:01:04.990,3 Dec 2013 15:18:06.776,1021.787
5,3 Dec 2013 16:46:40.529,3 Dec 2013 17:00:22.346,821.817
6,4 Dec 2013 08:58:51.479,4 Dec 2013 09:06:49.387,477.907
7,4 Dec 2013 10:38:50.482,4 Dec 2013 10:55:18.349,987.867
8,4 Dec 2013 12:24:23.966,4 Dec 2013 12:41:26.857,1022.891
9,4 Dec 2013 14:10:40.168,4 Dec 2013 14:25:42.079,901.911
10,5 Dec 2013 08:03:38.193,5 Dec 2013 08:19:15.604,937.411
11,5 Dec 2013 09:47:56.316,5 Dec 2013 10:05:03.756,1027.440
12,5 Dec 2013 11:33:57.270,5 Dec 2013 11:49:45.573,948.302
13,5 Dec 2013 13:12:19.431,5 Dec 2013 13:27:22.375,902.944
14,5 Dec 2013 14:50:27.297,5 Dec 2013 15:05:21.882,894.585
15,5 Dec 2013 16:29:11.429,5 Dec 2013 16:44:47.699,936.270
16,5 Dec 2013 18:09:33.969,5 Dec 2013 18:25:48.336,974.367
17,5 Dec 2013 19:51:44.447,5 Dec 2013 20:08:13.459,989.012
18,5 Dec 2013 21:34:57.132,5 Dec 2013 21:49:08.056,850.923
19,6 Dec 2013 05:26:21.052,6 Dec 2013 05:41:56.406,935.354
20,6 Dec 2013 07:09:15.417,6 Dec 2013 07:25:12.167,956.751
21,6 Dec 2013 08:49:00.821,6 Dec 2013 09:04:59.758,958.937
22,6 Dec 2013 10:27:41.459,6 Dec 2013 10:43:27.725,946.267
23,6 Dec 2013 12:05:56.686,6 Dec 2013 12:21:50.973,954.287
24,6 Dec 2013 13:45:12.183,6 Dec 2013 14:00:45.798,933.615
25,6 Dec 2013 15:27:15.705,6 Dec 2013 15:40:08.567,772.862
26,6 Dec 2013 17:11:33.004,6 Dec 2013 17:24:35.710,782.705
27,6 Dec 2013 18:53:01.202,6 Dec 2013 19:09:01.385,960.183
28,7 Dec 2013 02:48:25.851,7 Dec 2013 03:01:18.087,772.237
29,7 Dec 2013 04:29:34.419,7 Dec 2013 04:41:39.255,724.836
30,7 Dec 2013 06:09:20.376,7 Dec 2013 06:20:05.438,645.062
31,7 Dec 2013 07:46:53.773,7 Dec 2013 07:58:03.060,669.287
32,7 Dec 2013 09:22:52.949,7 Dec 2013 09:36:38.933,825.984
33,7 Dec 2013 10:59:38.955,7 Dec 2013 11:15:24.809,945.854
34,7 Dec 2013 12:41:12.633,7 Dec 2013 12:57:01.397,948.763
35,7 Dec 2013 14:28:37.633,7 Dec 2013 14:44:38.719,961.086
36,7 Dec 2013 16:13:14.597,7 Dec 2013 16:29:34.686,980.089

"Access","Start Time (UTCG)","Stop Time (UTCG)","Duration (sec)"
1,3 Dec 2013 15:59:57.659,3 Dec 2013 16:11:39.127,701.468
2,3 Dec 2013 17:41:10.826,3 Dec 2013 17:58:03.685,1012.859
3,3 Dec 2013 19:27:05.251,3 Dec 2013 19:44:14.749,1029.498
4,3 Dec 2013 21:10:13.351,3 Dec 2013 21:25:22.043,908.691
5,3 Dec 2013 22:48:26.014,3 Dec 2013 23:02:41.051,855.037
6,4 Dec 2013 00:26:36.953,4 Dec 2013 00:41:11.867,874.913
7,4 Dec 2013 02:05:53.971,4 Dec 2013 02:21:23.265,929.294
8,4 Dec 2013 03:47:01.476,4 Dec 2013 04:03:03.170,961.694
9,4 Dec 2013 05:29:50.801,4 Dec 2013 05:45:42.135,951.334
10,4 Dec 2013 13:24:19.488,4 Dec 2013 13:35:12.616,653.128
11,4 Dec 2013 15:03:27.166,4 Dec 2013 15:20:14.668,1007.502
12,4 Dec 2013 16:46:17.670,4 Dec 2013 17:02:15.837,958.167
13,4 Dec 2013 18:25:24.124,4 Dec 2013 18:41:17.134,953.010
14,4 Dec 2013 20:03:46.117,4 Dec 2013 20:19:36.066,949.949
15,4 Dec 2013 21:42:22.120,4 Dec 2013 21:58:17.727,955.607
16,4 Dec 2013 23:22:45.917,4 Dec 2013 23:37:42.643,896.726
17,5 Dec 2013 01:06:24.700,5 Dec 2013 01:17:53.966,689.266
18,5 Dec 2013 02:48:39.901,5 Dec 2013 03:04:42.762,962.862
19,5 Dec 2013 04:31:21.884,5 Dec 2013 04:43:23.762,721.877
20,5 Dec 2013 10:47:02.284,5 Dec 2013 10:55:55.192,532.908
21,5 Dec 2013 12:24:34.260,5 Dec 2013 12:38:44.350,850.090
22,5 Dec 2013 14:05:11.923,5 Dec 2013 14:18:16.167,784.244
23,5 Dec 2013 15:44:04.585,5 Dec 2013 15:56:25.423,740.838
24,5 Dec 2013 17:21:05.403,5 Dec 2013 17:34:34.030,808.626
25,5 Dec 2013 18:57:43.692,5 Dec 2013 19:13:09.396,925.704
26,5 Dec 2013 20:36:12.543,5 Dec 2013 20:51:33.296,920.753
27,5 Dec 2013 22:21:57.519,5 Dec 2013 22:36:41.277,883.758
28,6 Dec 2013 00:07:28.313,6 Dec 2013 00:24:08.360,1000.047
29,6 Dec 2013 01:51:45.987,6 Dec 2013 02:05:12.119,806.132
30,6 Dec 2013 17:57:56.982,6 Dec 2013 18:13:05.353,908.371
31,6 Dec 2013 19:42:40.790,6 Dec 2013 19:59:49.877,1029.088
32,6 Dec 2013 21:29:00.242,6 Dec 2013 21:46:03.120,1022.878
33,6 Dec 2013 23:14:54.191,6 Dec 2013 23:28:38.645,824.454
34,7 Dec 2013 15:29:42.641,7 Dec 2013 15:33:46.985,244.344
35,7 Dec 2013 17:07:22.274,7 Dec 2013 17:23:33.670,971.396
36,7 Dec 2013 18:52:37.279,7 Dec 2013 19:09:41.630,1024.351
37,7 Dec 2013 20:38:54.734,7 Dec 2013 20:54:29.146,934.412

"Access","Start Time (UTCG)","Stop Time (UTCG)","Duration (sec)"
1,3 Dec 2013 15:30:39.239,3 Dec 2013 15:33:09.527,150.288
2,3 Dec 2013 17:06:34.382,3 Dec 2013 17:22:48.512,974.131
3,3 Dec 2013 18:51:37.745,3 Dec 2013 19:08:47.003,1029.258
4,3 Dec 2013 20:37:24.224,3 Dec 2013 20:52:55.601,931.377
5,3 Dec 2013 22:15:44.216,3 Dec 2013 22:30:10.423,866.206
6,3 Dec 2013 23:53:49.684,4 Dec 2013 00:08:10.425,860.741
7,4 Dec 2013 01:32:36.946,4 Dec 2013 01:47:48.748,911.802
8,4 Dec 2013 03:13:06.516,4 Dec 2013 03:29:01.323,954.807
9,4 Dec 2013 04:55:24.386,4 Dec 2013 05:11:25.640,961.254
10,4 Dec 2013 06:39:14.126,4 Dec 2013 06:50:50.805,696.678
11,4 Dec 2013 14:29:16.624,4 Dec 2013 14:45:30.853,974.229
12,4 Dec 2013 16:13:01.779,4 Dec 2013 16:28:51.248,949.469
13,4 Dec 2013 17:52:28.360,4 Dec 2013 18:08:25.671,957.312
14,4 Dec 2013 19:31:01.175,4 Dec 2013 19:46:49.506,948.331
15,4 Dec 2013 21:09:23.037,4 Dec 2013 21:25:19.295,956.258
16,4 Dec 2013 22:49:00.065,4 Dec 2013 23:04:29.420,929.355
17,5 Dec 2013 00:31:26.323,5 Dec 2013 00:44:24.352,778.029
18,5 Dec 2013 02:15:06.015,5 Dec 2013 02:29:24.028,858.013
19,5 Dec 2013 03:56:39.333,5 Dec 2013 04:11:47.870,908.537
20,5 Dec 2013 11:50:44.698,5 Dec 2013 12:05:06.953,862.255
21,5 Dec 2013 13:31:49.278,5 Dec 2013 13:45:18.055,808.778
22,5 Dec 2013 15:11:20.612,5 Dec 2013 15:23:46.392,745.780
23,5 Dec 2013 16:48:54.091,5 Dec 2013 17:01:47.615,773.525
24,5 Dec 2013 18:25:24.983,5 Dec 2013 18:40:16.259,891.276
25,5 Dec 2013 20:03:02.723,5 Dec 2013 20:18:50.521,947.799
26,5 Dec 2013 21:45:54.022,5 Dec 2013 22:00:42.098,888.075
27,5 Dec 2013 23:32:39.753,5 Dec 2013 23:48:44.641,964.888
28,6 Dec 2013 01:16:48.935,6 Dec 2013 01:32:33.677,944.741
29,6 Dec 2013 17:24:29.797,6 Dec 2013 17:36:42.112,732.316
30,6 Dec 2013 19:07:20.403,6 Dec 2013 19:24:21.480,1021.077
31,6 Dec 2013 20:53:38.776,6 Dec 2013 21:10:46.535,1027.759
32,6 Dec 2013 22:39:28.412,6 Dec 2013 22:55:14.441,946.030
33,7 Dec 2013 16:33:12.757,7 Dec 2013 16:48:01.842,889.085
34,7 Dec 2013 18:17:17.403,7 Dec 2013 18:34:19.638,1022.235
35,7 Dec 2013 20:03:24.966,7 Dec 2013 20:19:57.701,992.735
36,7 Dec 2013 21:51:33.642,7 Dec 2013 21:57:56.203,382.560

"Access","Start Time (UTCG)","Stop Time (UTCG)","Duration (sec)"
1,3 Dec 2013 16:32:41.670,3 Dec 2013 16:47:27.584,885.913
2,3 Dec 2013 18:16:16.157,3 Dec 2013 18:33:22.259,1026.101
3,3 Dec 2013 20:02:33.108,3 Dec 2013 20:19:37.073,1023.966
4,3 Dec 2013 21:43:00.149,3 Dec 2013 21:57:45.449,885.300
5,3 Dec 2013 23:21:07.029,3 Dec 2013 23:35:20.419,853.389
6,4 Dec 2013 00:59:31.865,4 Dec 2013 01:14:24.769,892.904
7,4 Dec 2013 02:39:23.811,4 Dec 2013 02:55:07.701,943.890
8,4 Dec 2013 04:21:07.751,4 Dec 2013 04:37:11.878,964.127
9,4 Dec 2013 06:04:27.181,4 Dec 2013 06:19:38.489,911.308
10,4 Dec 2013 13:56:05.406,4 Dec 2013 14:10:38.601,873.195
11,4 Dec 2013 15:38:25.379,4 Dec 2013 15:55:02.264,996.885
12,4 Dec 2013 17:19:26.395,4 Dec 2013 17:35:26.332,959.937
13,4 Dec 2013 18:58:14.568,4 Dec 2013 19:14:04.047,949.479
14,4 Dec 2013 20:36:32.271,4 Dec 2013 20:52:25.606,953.335
15,4 Dec 2013 22:15:33.261,4 Dec 2013 22:31:21.102,947.841
16,4 Dec 2013 23:56:53.850,5 Dec 2013 00:11:00.848,846.998
17,5 Dec 2013 01:41:48.087,5 Dec 2013 01:52:31.652,643.565
18,5 Dec 2013 03:22:30.304,5 Dec 2013 03:38:49.508,979.204
19,5 Dec 2013 05:08:24.073,5 Dec 2013 05:11:47.274,203.201
20,5 Dec 2013 11:17:33.538,5 Dec 2013 11:31:15.763,822.225
21,5 Dec 2013 12:58:16.264,5 Dec 2013 13:12:07.888,831.624
22,5 Dec 2013 14:38:22.793,5 Dec 2013 14:51:04.539,761.746
23,5 Dec 2013 16:16:35.068,5 Dec 2013 16:29:05.050,749.981
24,5 Dec 2013 17:53:13.929,5 Dec 2013 18:07:23.961,850.033
25,5 Dec 2013 19:30:14.762,5 Dec 2013 19:46:01.547,946.785
26,5 Dec 2013 21:09:51.022,5 Dec 2013 21:25:02.389,911.367
27,5 Dec 2013 22:57:32.389,5 Dec 2013 23:12:49.149,916.760
28,6 Dec 2013 00:42:07.967,6 Dec 2013 00:58:47.783,999.815
29,6 Dec 2013 02:27:41.944,6 Dec 2013 02:35:58.631,496.686
30,6 Dec 2013 16:53:55.011,6 Dec 2013 16:57:39.599,224.588
31,6 Dec 2013 18:32:21.310,6 Dec 2013 18:48:50.281,988.972
32,6 Dec 2013 20:18:10.348,6 Dec 2013 20:35:19.202,1028.854
33,6 Dec 2013 22:04:14.829,6 Dec 2013 22:20:56.883,1002.054
34,6 Dec 2013 23:51:08.483,7 Dec 2013 00:00:30.390,561.907
35,7 Dec 2013 16:00:04.061,7 Dec 2013 16:12:01.131,717.070
36,7 Dec 2013 17:42:08.635,7 Dec 2013 17:58:57.104,1008.469
37,7 Dec 2013 19:28:00.568,7 Dec 2013 19:44:57.602,1017.035
38,7 Dec 2013 21:14:43.492,7 Dec 2013 21:28:14.027,810.535

