Raw and processed data/perplane variations/us_greatcircle_15sat/Aircraft-B747LAX_Narita-Transmitter-adsb_out6211-To-Satellite-700km_p1_1-Receiver-adsb_satrcvr2 Access.csv

"Access","Start Time (UTCG)","Stop Time (UTCG)","Duration (sec)"
1,3 Dec 2013 06:03:06.297,3 Dec 2013 06:14:24.581,678.284
2,3 Dec 2013 07:43:17.800,3 Dec 2013 07:59:55.035,997.235
3,3 Dec 2013 09:32:39.689,3 Dec 2013 09:44:44.489,724.800
4,3 Dec 2013 11:17:44.257,3 Dec 2013 11:30:57.759,793.502
5,3 Dec 2013 12:56:10.183,3 Dec 2013 13:11:34.990,924.806
6,3 Dec 2013 14:35:05.676,3 Dec 2013 14:51:01.523,955.847
7,3 Dec 2013 16:14:28.545,3 Dec 2013 16:30:31.995,963.450
8,3 Dec 2013 17:54:37.086,3 Dec 2013 18:10:47.798,970.712
9,3 Dec 2013 19:35:45.891,3 Dec 2013 19:52:01.271,975.380
10,3 Dec 2013 21:19:55.245,3 Dec 2013 21:29:30.327,575.082
11,4 Dec 2013 03:29:55.593,4 Dec 2013 03:32:25.700,150.107
12,4 Dec 2013 05:03:39.967,4 Dec 2013 05:20:09.284,989.317
13,4 Dec 2013 06:48:01.996,4 Dec 2013 07:02:11.896,849.900
14,4 Dec 2013 08:29:05.021,4 Dec 2013 08:43:47.250,882.228
15,4 Dec 2013 10:09:12.885,4 Dec 2013 10:24:11.542,898.658
16,4 Dec 2013 11:49:03.219,4 Dec 2013 12:03:48.219,885.000
17,4 Dec 2013 13:29:27.535,4 Dec 2013 13:43:07.301,819.766
18,4 Dec 2013 15:11:37.140,4 Dec 2013 15:22:22.197,645.057
19,4 Dec 2013 16:55:07.351,4 Dec 2013 17:10:54.450,947.099
20,4 Dec 2013 18:39:12.818,4 Dec 2013 18:53:05.909,833.091
21,5 Dec 2013 02:27:38.385,5 Dec 2013 02:36:38.623,540.238
22,5 Dec 2013 04:07:16.094,5 Dec 2013 04:19:02.670,706.577
23,5 Dec 2013 05:46:42.432,5 Dec 2013 05:59:39.738,777.307
24,5 Dec 2013 07:25:18.000,5 Dec 2013 07:39:19.438,841.438
25,5 Dec 2013 09:03:16.413,5 Dec 2013 09:18:31.452,915.039
26,5 Dec 2013 10:41:31.922,5 Dec 2013 10:57:22.614,950.692
27,5 Dec 2013 12:27:47.714,5 Dec 2013 12:42:56.543,908.830
28,5 Dec 2013 14:15:36.559,5 Dec 2013 14:31:41.718,965.159
29,5 Dec 2013 16:00:57.792,5 Dec 2013 16:16:45.410,947.618
30,6 Dec 2013 08:05:25.576,6 Dec 2013 08:19:37.645,852.070
31,6 Dec 2013 09:49:11.420,6 Dec 2013 10:06:02.779,1011.359
32,6 Dec 2013 11:37:23.859,6 Dec 2013 11:53:21.531,957.672
33,6 Dec 2013 13:23:52.407,6 Dec 2013 13:40:51.868,1019.461
34,6 Dec 2013 15:12:58.068,6 Dec 2013 15:20:13.348,435.280
35,7 Dec 2013 05:33:12.983,7 Dec 2013 05:41:05.943,472.960
36,7 Dec 2013 07:11:38.305,7 Dec 2013 07:28:31.046,1012.741
37,7 Dec 2013 08:59:28.062,7 Dec 2013 09:14:03.512,875.450
38,7 Dec 2013 10:47:32.147,7 Dec 2013 11:03:16.974,944.827
39,7 Dec 2013 12:29:12.790,7 Dec 2013 12:45:03.575,950.784
40,7 Dec 2013 14:08:08.741,7 Dec 2013 14:23:11.685,902.944
41,7 Dec 2013 15:47:24.752,7 Dec 2013 16:01:17.220,832.468
42,7 Dec 2013 17:27:13.442,7 Dec 2013 17:40:06.964,773.522
43,7 Dec 2013 19:08:07.631,7 Dec 2013 19:19:44.409,696.777
44,7 Dec 2013 20:51:03.419,7 Dec 2013 20:59:16.959,493.540
45,8 Dec 2013 04:33:18.900,8 Dec 2013 04:49:45.939,987.040
46,8 Dec 2013 06:20:17.197,8 Dec 2013 06:32:21.900,724.703
47,8 Dec 2013 08:04:16.763,8 Dec 2013 08:15:57.549,700.785
48,8 Dec 2013 09:43:34.682,8 Dec 2013 09:57:35.574,840.892
49,8 Dec 2013 11:22:56.515,8 Dec 2013 11:37:46.853,890.338
50,8 Dec 2013 13:02:41.651,8 Dec 2013 13:17:37.092,895.442
51,8 Dec 2013 14:43:21.696,8 Dec 2013 14:57:53.714,872.018
52,8 Dec 2013 16:25:14.513,8 Dec 2013 16:39:25.651,851.138
53,8 Dec 2013 18:07:57.871,8 Dec 2013 18:23:08.914,911.043
54,9 Dec 2013 01:54:14.031,9 Dec 2013 02:09:26.550,912.519

"Access","Start Time (UTCG)","Stop Time (UTCG)","Duration (sec)"
1,3 Dec 2013 05:45:46.042,3 Dec 2013 05:51:29.516,343.473
2,3 Dec 2013 07:22:21.082,3 Dec 2013 07:39:06.810,1005.727
3,3 Dec 2013 09:10:22.865,3 Dec 2013 09:23:27.906,785.041
4,3 Dec 2013 10:58:10.780,3 Dec 2013 11:10:31.156,740.375
5,3 Dec 2013 12:36:25.864,3 Dec 2013 12:51:36.323,910.460
6,3 Dec 2013 14:15:16.786,3 Dec 2013 14:31:09.763,952.977
7,3 Dec 2013 15:54:32.989,3 Dec 2013 16:10:35.157,962.168
8,3 Dec 2013 17:34:30.819,3 Dec 2013 17:50:40.023,969.204
9,3 Dec 2013 19:15:27.104,3 Dec 2013 19:31:42.293,975.189
10,3 Dec 2013 20:58:12.614,3 Dec 2013 21:11:21.658,789.043
11,4 Dec 2013 04:43:21.038,4 Dec 2013 04:59:36.446,975.409
12,4 Dec 2013 06:27:39.935,4 Dec 2013 06:41:44.654,844.719
13,4 Dec 2013 08:08:57.908,4 Dec 2013 08:23:34.118,876.210
14,4 Dec 2013 09:49:14.058,4 Dec 2013 10:04:11.539,897.480
15,4 Dec 2013 11:29:04.354,4 Dec 2013 11:43:55.120,890.766
16,4 Dec 2013 13:09:16.841,4 Dec 2013 13:23:15.889,839.048
17,4 Dec 2013 14:50:58.527,4 Dec 2013 15:02:31.920,693.393
18,4 Dec 2013 16:34:31.340,4 Dec 2013 16:49:12.385,881.044
19,4 Dec 2013 18:18:04.320,4 Dec 2013 18:33:35.802,931.482
20,5 Dec 2013 02:07:52.157,5 Dec 2013 02:15:47.105,474.948
21,5 Dec 2013 03:47:19.020,5 Dec 2013 03:58:44.657,685.637
22,5 Dec 2013 05:26:52.798,5 Dec 2013 05:39:38.149,765.351
23,5 Dec 2013 07:05:38.989,5 Dec 2013 07:19:26.391,827.402
24,5 Dec 2013 08:43:41.517,5 Dec 2013 08:58:42.547,901.030
25,5 Dec 2013 10:21:48.018,5 Dec 2013 10:37:38.640,950.622
26,5 Dec 2013 12:05:53.543,5 Dec 2013 12:21:31.006,937.463
27,5 Dec 2013 13:54:22.866,5 Dec 2013 14:09:56.351,933.486
28,5 Dec 2013 15:39:49.238,5 Dec 2013 15:56:24.229,994.990
29,6 Dec 2013 07:46:01.881,6 Dec 2013 07:57:38.747,696.866
30,6 Dec 2013 09:27:50.591,6 Dec 2013 09:44:51.965,1021.375
31,6 Dec 2013 11:15:47.872,6 Dec 2013 11:31:40.485,952.613
32,6 Dec 2013 13:02:41.377,6 Dec 2013 13:19:42.824,1021.447
33,6 Dec 2013 14:49:56.845,6 Dec 2013 15:01:54.972,718.127
34,7 Dec 2013 06:50:53.960,7 Dec 2013 07:07:31.637,997.677
35,7 Dec 2013 08:37:32.680,7 Dec 2013 08:52:42.140,909.459
36,7 Dec 2013 10:26:14.649,7 Dec 2013 10:41:20.054,905.405
37,7 Dec 2013 12:09:28.787,7 Dec 2013 12:25:19.538,950.752
38,7 Dec 2013 13:48:19.889,7 Dec 2013 14:03:36.340,916.451
39,7 Dec 2013 15:27:31.702,7 Dec 2013 15:41:37.534,845.832
40,7 Dec 2013 17:07:11.716,7 Dec 2013 17:20:16.619,784.903
41,7 Dec 2013 18:47:49.530,7 Dec 2013 18:59:46.569,717.040
42,7 Dec 2013 20:30:12.895,7 Dec 2013 20:39:29.018,556.124
43,8 Dec 2013 04:13:14.916,8 Dec 2013 04:28:56.930,942.014
44,8 Dec 2013 05:57:57.703,8 Dec 2013 06:11:57.914,840.211
45,8 Dec 2013 07:44:25.746,8 Dec 2013 07:55:20.240,654.494
46,8 Dec 2013 09:23:43.025,8 Dec 2013 09:37:25.357,822.332
47,8 Dec 2013 11:03:03.186,8 Dec 2013 11:17:48.101,884.915
48,8 Dec 2013 12:42:41.256,8 Dec 2013 12:57:38.219,896.964
49,8 Dec 2013 14:23:07.958,8 Dec 2013 14:37:46.468,878.510
50,8 Dec 2013 16:04:46.604,8 Dec 2013 16:18:50.375,843.771
51,8 Dec 2013 17:47:08.566,8 Dec 2013 18:03:20.436,971.870
52,9 Dec 2013 01:35:07.636,9 Dec 2013 01:48:27.291,799.655

"Access","Start Time (UTCG)","Stop Time (UTCG)","Duration (sec)"
1,3 Dec 2013 07:01:47.326,3 Dec 2013 07:18:14.869,987.543
2,3 Dec 2013 08:48:12.039,3 Dec 2013 09:02:25.241,853.201
3,3 Dec 2013 10:38:27.105,3 Dec 2013 10:49:53.894,686.788
4,3 Dec 2013 12:16:42.739,3 Dec 2013 12:31:34.230,891.491
5,3 Dec 2013 13:55:28.822,3 Dec 2013 14:11:17.785,948.962
6,3 Dec 2013 15:34:39.098,3 Dec 2013 15:50:39.999,960.902
7,3 Dec 2013 17:14:26.945,3 Dec 2013 17:30:34.629,967.684
8,3 Dec 2013 18:55:10.820,3 Dec 2013 19:11:25.314,974.494
9,3 Dec 2013 20:37:09.874,3 Dec 2013 20:52:16.466,906.592
10,4 Dec 2013 04:23:30.825,4 Dec 2013 04:38:51.900,921.076
11,4 Dec 2013 06:07:14.235,4 Dec 2013 06:21:15.317,841.082
12,4 Dec 2013 07:48:48.303,4 Dec 2013 08:03:17.960,869.657
13,4 Dec 2013 09:29:14.155,4 Dec 2013 09:44:09.347,895.192
14,4 Dec 2013 11:09:06.304,4 Dec 2013 11:24:01.151,894.847
15,4 Dec 2013 12:49:09.645,4 Dec 2013 13:03:24.373,854.729
16,4 Dec 2013 14:30:27.101,4 Dec 2013 14:42:41.069,733.968
17,4 Dec 2013 16:13:54.589,4 Dec 2013 16:27:05.648,791.059
18,4 Dec 2013 17:57:10.260,4 Dec 2013 18:13:33.842,983.582
19,5 Dec 2013 01:48:16.446,5 Dec 2013 01:54:40.807,384.361
20,5 Dec 2013 03:27:21.791,5 Dec 2013 03:38:22.068,660.277
21,5 Dec 2013 05:07:01.106,5 Dec 2013 05:19:33.984,752.878
22,5 Dec 2013 06:45:58.075,5 Dec 2013 06:59:32.133,814.057
23,5 Dec 2013 08:24:06.708,5 Dec 2013 08:38:52.932,886.224
24,5 Dec 2013 10:02:07.138,5 Dec 2013 10:17:53.340,946.202
25,5 Dec 2013 11:44:03.216,5 Dec 2013 12:00:13.309,970.092
26,5 Dec 2013 13:32:59.498,5 Dec 2013 13:48:05.693,906.195
27,5 Dec 2013 15:18:46.415,5 Dec 2013 15:35:40.493,1014.078
28,5 Dec 2013 17:06:44.203,5 Dec 2013 17:13:53.338,429.135
29,6 Dec 2013 07:28:01.095,6 Dec 2013 07:34:28.012,386.918
30,6 Dec 2013 09:06:44.372,6 Dec 2013 09:23:41.949,1017.577
31,6 Dec 2013 10:54:06.567,6 Dec 2013 11:10:05.224,958.658
32,6 Dec 2013 12:41:29.495,6 Dec 2013 12:58:19.731,1010.236
33,6 Dec 2013 14:27:58.868,6 Dec 2013 14:42:23.611,864.742
34,7 Dec 2013 06:30:32.444,7 Dec 2013 06:46:26.854,954.410
35,7 Dec 2013 08:15:43.284,7 Dec 2013 08:31:31.254,947.969
36,7 Dec 2013 10:04:48.179,7 Dec 2013 10:19:20.285,872.105
37,7 Dec 2013 11:49:46.364,7 Dec 2013 12:05:31.863,945.499
38,7 Dec 2013 13:28:31.781,7 Dec 2013 13:44:00.431,928.650
39,7 Dec 2013 15:07:39.697,7 Dec 2013 15:21:59.503,859.806
40,7 Dec 2013 16:47:12.261,7 Dec 2013 17:00:28.458,796.197
41,7 Dec 2013 18:27:35.452,7 Dec 2013 18:39:49.497,734.045
42,7 Dec 2013 20:09:31.808,7 Dec 2013 20:19:35.941,604.133
43,8 Dec 2013 03:53:42.046,8 Dec 2013 04:07:54.197,852.151
44,8 Dec 2013 05:36:08.041,8 Dec 2013 05:51:30.995,922.954
45,8 Dec 2013 07:24:35.506,8 Dec 2013 07:34:35.030,599.523
46,8 Dec 2013 09:03:51.379,8 Dec 2013 09:17:11.117,799.738
47,8 Dec 2013 10:43:10.521,8 Dec 2013 10:57:48.111,877.590
48,8 Dec 2013 12:22:42.824,8 Dec 2013 12:37:40.113,897.289
49,8 Dec 2013 14:02:57.233,8 Dec 2013 14:17:41.462,884.229
50,8 Dec 2013 15:44:21.119,8 Dec 2013 15:58:31.535,850.415
51,8 Dec 2013 17:26:30.650,8 Dec 2013 17:43:03.239,992.589
52,9 Dec 2013 01:16:55.834,9 Dec 2013 01:26:49.404,593.570

"Access","Start Time (UTCG)","Stop Time (UTCG)","Duration (sec)"
1,3 Dec 2013 06:41:38.916,3 Dec 2013 06:57:15.591,936.675
2,3 Dec 2013 08:26:14.994,3 Dec 2013 08:41:31.372,916.378
3,3 Dec 2013 10:16:49.066,3 Dec 2013 10:28:17.647,688.581
4,3 Dec 2013 11:57:01.092,3 Dec 2013 12:11:27.831,866.739
5,3 Dec 2013 13:35:41.736,3 Dec 2013 13:51:25.053,943.318
6,3 Dec 2013 15:14:46.689,3 Dec 2013 15:30:46.239,959.550
7,3 Dec 2013 16:54:25.364,3 Dec 2013 17:10:31.567,966.203
8,3 Dec 2013 18:34:57.060,3 Dec 2013 18:51:10.498,973.439
9,3 Dec 2013 20:16:30.879,3 Dec 2013 20:32:35.008,964.129
10,4 Dec 2013 04:04:14.731,4 Dec 2013 04:17:49.869,815.138
11,4 Dec 2013 05:45:42.093,4 Dec 2013 06:00:47.381,905.288
12,4 Dec 2013 07:28:35.953,4 Dec 2013 07:42:58.780,862.827
13,4 Dec 2013 09:09:12.873,4 Dec 2013 09:24:04.709,891.835
14,4 Dec 2013 10:49:08.648,4 Dec 2013 11:04:06.076,897.429
15,4 Dec 2013 12:29:05.348,4 Dec 2013 12:43:32.680,867.332
16,4 Dec 2013 14:10:01.970,4 Dec 2013 14:22:49.933,767.964
17,4 Dec 2013 15:53:14.443,4 Dec 2013 16:04:35.692,681.249
18,4 Dec 2013 17:36:24.767,4 Dec 2013 17:53:05.235,1000.467
19,4 Dec 2013 19:23:53.805,4 Dec 2013 19:28:48.602,294.797
20,5 Dec 2013 01:29:06.435,5 Dec 2013 01:33:04.545,238.110
21,5 Dec 2013 03:07:25.177,5 Dec 2013 03:17:54.221,629.044
22,5 Dec 2013 04:47:07.557,5 Dec 2013 04:59:26.927,739.370
23,5 Dec 2013 06:26:15.075,5 Dec 2013 06:39:36.443,801.368
24,5 Dec 2013 08:04:31.483,5 Dec 2013 08:19:02.589,871.106
25,5 Dec 2013 09:42:28.648,5 Dec 2013 09:58:06.941,938.293
26,5 Dec 2013 11:22:21.616,5 Dec 2013 11:39:00.739,999.123
27,5 Dec 2013 13:11:24.986,5 Dec 2013 13:26:15.671,890.685
28,5 Dec 2013 14:57:45.425,5 Dec 2013 15:14:37.145,1011.720
29,5 Dec 2013 16:44:00.972,5 Dec 2013 16:55:54.087,713.116
30,6 Dec 2013 08:45:55.560,6 Dec 2013 09:02:29.451,993.891
31,6 Dec 2013 10:32:23.632,6 Dec 2013 10:48:37.503,973.871
32,6 Dec 2013 12:20:13.981,6 Dec 2013 12:36:45.751,991.769
33,6 Dec 2013 14:06:25.913,6 Dec 2013 14:22:16.366,950.453
34,7 Dec 2013 06:10:38.312,7 Dec 2013 06:25:11.299,872.986
35,7 Dec 2013 07:54:05.372,7 Dec 2013 08:10:27.824,982.452
36,7 Dec 2013 09:43:10.747,7 Dec 2013 09:57:24.183,853.437
37,7 Dec 2013 11:29:52.855,7 Dec 2013 11:45:39.779,946.924
38,7 Dec 2013 13:08:44.478,7 Dec 2013 13:24:23.392,938.914
39,7 Dec 2013 14:47:48.600,7 Dec 2013 15:02:22.793,874.193
40,7 Dec 2013 16:27:14.797,7 Dec 2013 16:40:42.532,807.734
41,7 Dec 2013 18:07:24.981,7 Dec 2013 18:19:53.647,748.666
42,7 Dec 2013 19:48:58.022,7 Dec 2013 19:59:39.944,641.922
43,8 Dec 2013 03:34:51.738,8 Dec 2013 03:46:26.336,694.598
44,8 Dec 2013 05:14:45.891,8 Dec 2013 05:31:00.771,974.880
45,8 Dec 2013 07:04:46.744,8 Dec 2013 07:13:40.711,533.967
46,8 Dec 2013 08:43:59.747,8 Dec 2013 08:56:52.208,772.461
47,8 Dec 2013 10:23:18.321,8 Dec 2013 10:37:46.381,868.059
48,8 Dec 2013 12:02:46.074,8 Dec 2013 12:17:42.442,896.368
49,8 Dec 2013 13:42:49.398,8 Dec 2013 13:57:38.419,889.020
50,8 Dec 2013 15:23:58.350,8 Dec 2013 15:38:15.979,857.628
51,8 Dec 2013 17:06:01.065,8 Dec 2013 17:22:19.214,978.149
52,8 Dec 2013 18:50:48.238,8 Dec 2013 19:00:42.567,594.329

"Access","Start Time (UTCG)","Stop Time (UTCG)","Duration (sec)"
1,3 Dec 2013 06:22:01.034,3 Dec 2013 06:36:03.069,842.035
2,3 Dec 2013 08:04:36.175,3 Dec 2013 08:20:42.332,966.157
3,3 Dec 2013 09:54:51.795,3 Dec 2013 10:06:20.302,688.508
4,3 Dec 2013 11:37:21.375,3 Dec 2013 11:51:16.098,834.722
5,3 Dec 2013 13:15:55.511,3 Dec 2013 13:31:31.000,935.489
6,3 Dec 2013 14:54:55.602,3 Dec 2013 15:10:53.539,957.937
7,3 Dec 2013 16:34:25.948,3 Dec 2013 16:50:30.735,964.787
8,3 Dec 2013 18:14:45.820,3 Dec 2013 18:30:57.971,972.151
9,3 Dec 2013 19:56:07.155,3 Dec 2013 20:12:22.044,974.889
10,4 Dec 2013 03:45:48.626,4 Dec 2013 03:56:15.000,626.374
11,4 Dec 2013 05:24:26.411,4 Dec 2013 05:40:32.805,966.394
12,4 Dec 2013 07:08:20.598,4 Dec 2013 07:22:36.699,856.100
13,4 Dec 2013 08:49:09.923,4 Dec 2013 09:03:57.401,887.478
14,4 Dec 2013 10:29:10.964,4 Dec 2013 10:44:09.630,898.666
15,4 Dec 2013 12:09:03.387,4 Dec 2013 12:23:40.679,877.292
16,4 Dec 2013 13:49:42.351,4 Dec 2013 14:02:58.653,796.302
17,4 Dec 2013 15:32:24.002,4 Dec 2013 15:42:11.416,587.414
18,4 Dec 2013 17:15:44.544,4 Dec 2013 17:32:11.967,987.423
19,4 Dec 2013 19:00:49.171,4 Dec 2013 19:11:50.646,661.476
20,5 Dec 2013 02:47:30.211,5 Dec 2013 02:57:20.202,589.991
21,5 Dec 2013 04:27:12.431,5 Dec 2013 04:39:16.614,724.182
22,5 Dec 2013 06:06:29.870,5 Dec 2013 06:19:39.068,789.198
23,5 Dec 2013 07:44:55.381,5 Dec 2013 07:59:11.457,856.076
24,5 Dec 2013 09:22:51.939,5 Dec 2013 09:38:19.604,927.665
25,5 Dec 2013 11:01:19.534,5 Dec 2013 11:17:50.222,990.688
26,5 Dec 2013 12:49:39.960,5 Dec 2013 13:04:31.577,891.617
27,5 Dec 2013 14:36:43.127,5 Dec 2013 14:53:16.609,993.482
28,5 Dec 2013 16:22:17.890,5 Dec 2013 16:36:39.016,861.126
29,6 Dec 2013 08:25:27.472,6 Dec 2013 08:41:10.200,942.727
30,6 Dec 2013 10:10:43.727,6 Dec 2013 10:27:17.189,993.463
31,6 Dec 2013 11:58:52.573,6 Dec 2013 12:15:04.820,972.247
32,6 Dec 2013 13:45:05.852,6 Dec 2013 14:01:44.106,998.254
33,7 Dec 2013 05:51:21.438,7 Dec 2013 06:03:34.655,733.217
34,7 Dec 2013 07:32:42.831,7 Dec 2013 07:49:28.747,1005.916
35,7 Dec 2013 09:21:22.802,7 Dec 2013 09:35:37.534,854.732
36,7 Dec 2013 11:08:43.774,7 Dec 2013 11:25:05.555,981.780
37,7 Dec 2013 12:48:58.094,7 Dec 2013 13:04:44.646,946.552
38,7 Dec 2013 14:27:58.304,7 Dec 2013 14:42:47.007,888.703
39,7 Dec 2013 16:07:19.044,7 Dec 2013 16:20:58.823,819.779
40,7 Dec 2013 17:47:17.758,7 Dec 2013 17:59:59.379,761.621
41,7 Dec 2013 19:28:30.254,7 Dec 2013 19:39:42.443,672.189
42,7 Dec 2013 21:12:07.589,7 Dec 2013 21:18:03.099,355.510
43,8 Dec 2013 03:17:28.010,8 Dec 2013 03:23:50.271,382.261
44,8 Dec 2013 04:53:49.658,8 Dec 2013 05:10:26.302,996.644
45,8 Dec 2013 06:43:09.176,8 Dec 2013 06:52:42.337,573.161
46,8 Dec 2013 08:24:08.171,8 Dec 2013 08:36:27.933,739.763
47,8 Dec 2013 10:03:26.416,8 Dec 2013 10:17:42.392,855.975
48,8 Dec 2013 11:42:50.724,8 Dec 2013 11:57:44.818,894.094
49,8 Dec 2013 13:22:44.279,8 Dec 2013 13:37:37.059,892.780
50,8 Dec 2013 15:03:38.507,8 Dec 2013 15:18:03.456,864.949
51,8 Dec 2013 16:45:38.568,8 Dec 2013 17:01:07.675,929.108
52,8 Dec 2013 18:29:05.162,8 Dec 2013 18:42:22.403,797.241
53,9 Dec 2013 02:13:56.199,9 Dec 2013 02:17:41.024,224.825

"Access","Start Time (UTCG)","Stop Time (UTCG)","Duration (sec)"
1,3 Dec 2013 01:24:26.981,3 Dec 2013 01:38:41.721,854.740
2,3 Dec 2013 03:07:33.951,3 Dec 2013 03:23:07.179,933.228
3,3 Dec 2013 10:54:47.168,3 Dec 2013 11:07:40.222,773.053
4,3 Dec 2013 12:35:31.726,3 Dec 2013 12:49:51.817,860.091
5,3 Dec 2013 14:15:48.378,3 Dec 2013 14:30:38.500,890.122
6,3 Dec 2013 15:55:12.375,3 Dec 2013 16:10:24.923,912.548
7,3 Dec 2013 17:33:53.371,3 Dec 2013 17:49:35.917,942.546
8,3 Dec 2013 19:12:37.317,3 Dec 2013 19:28:25.373,948.056
9,3 Dec 2013 20:55:19.149,3 Dec 2013 21:10:22.979,903.830
10,3 Dec 2013 22:43:51.244,3 Dec 2013 22:59:07.170,915.926
11,4 Dec 2013 00:29:01.468,4 Dec 2013 00:45:35.424,993.956
12,4 Dec 2013 16:34:27.892,4 Dec 2013 16:46:46.091,738.199
13,4 Dec 2013 18:16:53.204,4 Dec 2013 18:33:53.954,1020.750
14,4 Dec 2013 20:04:57.527,4 Dec 2013 20:20:50.436,952.909
15,4 Dec 2013 21:51:43.096,4 Dec 2013 22:08:44.896,1021.800
16,4 Dec 2013 23:39:05.365,4 Dec 2013 23:50:18.597,673.232
17,5 Dec 2013 15:40:05.744,5 Dec 2013 15:56:44.461,998.717
18,5 Dec 2013 17:26:43.132,5 Dec 2013 17:42:11.426,928.294
19,5 Dec 2013 19:15:06.185,5 Dec 2013 19:30:45.456,939.271
20,5 Dec 2013 21:00:17.776,5 Dec 2013 21:16:01.214,943.437
21,5 Dec 2013 22:39:23.451,5 Dec 2013 22:53:32.626,849.175
22,6 Dec 2013 00:18:53.718,6 Dec 2013 00:30:40.657,706.939
23,6 Dec 2013 01:58:54.603,6 Dec 2013 02:08:20.442,565.838
24,6 Dec 2013 03:40:15.275,6 Dec 2013 03:46:29.024,373.749
25,6 Dec 2013 13:02:46.807,6 Dec 2013 13:18:27.308,940.501
26,6 Dec 2013 14:47:26.580,6 Dec 2013 15:01:55.275,868.695
27,6 Dec 2013 16:36:22.679,6 Dec 2013 16:46:10.013,587.334
28,6 Dec 2013 18:14:58.724,6 Dec 2013 18:28:40.047,821.323
29,6 Dec 2013 19:54:02.266,6 Dec 2013 20:09:04.103,901.837
30,6 Dec 2013 21:33:26.790,6 Dec 2013 21:48:52.673,925.883
31,6 Dec 2013 23:13:33.803,6 Dec 2013 23:29:02.130,928.327
32,7 Dec 2013 00:54:42.977,7 Dec 2013 01:10:07.890,924.912
33,7 Dec 2013 02:36:51.263,7 Dec 2013 02:53:02.236,970.973
34,7 Dec 2013 10:24:51.786,7 Dec 2013 10:38:19.319,807.533
35,7 Dec 2013 12:04:58.281,7 Dec 2013 12:21:14.696,976.415
36,7 Dec 2013 13:46:30.610,7 Dec 2013 14:02:36.253,965.643
37,7 Dec 2013 15:27:00.695,7 Dec 2013 15:42:57.607,956.912
38,7 Dec 2013 17:06:46.432,7 Dec 2013 17:22:29.357,942.925
39,7 Dec 2013 18:46:30.763,7 Dec 2013 19:01:31.558,900.795
40,7 Dec 2013 20:27:27.361,7 Dec 2013 20:40:07.871,760.510
41,7 Dec 2013 22:13:02.612,7 Dec 2013 22:26:20.005,797.393
42,7 Dec 2013 23:57:23.781,8 Dec 2013 00:14:08.930,1005.148
43,8 Dec 2013 01:45:39.252,8 Dec 2013 01:49:56.541,257.289
44,8 Dec 2013 14:26:37.721,8 Dec 2013 14:35:48.374,550.653
45,8 Dec 2013 16:02:23.725,8 Dec 2013 16:15:56.493,812.769
46,8 Dec 2013 17:44:11.796,8 Dec 2013 18:01:10.590,1018.794
47,8 Dec 2013 19:32:36.478,8 Dec 2013 19:48:08.219,931.742
48,8 Dec 2013 21:19:20.069,8 Dec 2013 21:36:16.383,1016.314
49,8 Dec 2013 23:05:53.763,8 Dec 2013 23:18:09.207,735.444

"Access","Start Time (UTCG)","Stop Time (UTCG)","Duration (sec)"
1,3 Dec 2013 01:04:01.595,3 Dec 2013 01:16:26.884,745.289
2,3 Dec 2013 02:46:43.277,3 Dec 2013 03:03:06.710,983.434
3,3 Dec 2013 10:35:12.355,3 Dec 2013 10:47:00.431,708.076
4,3 Dec 2013 12:15:23.671,3 Dec 2013 12:29:33.178,849.506
5,3 Dec 2013 13:55:48.939,3 Dec 2013 14:10:34.767,885.829
6,3 Dec 2013 15:35:23.859,3 Dec 2013 15:50:31.232,907.373
7,3 Dec 2013 17:14:10.890,3 Dec 2013 17:29:47.584,936.693
8,3 Dec 2013 18:52:49.037,3 Dec 2013 19:08:41.339,952.302
9,3 Dec 2013 20:33:22.110,3 Dec 2013 20:49:04.552,942.442
10,3 Dec 2013 22:22:31.060,3 Dec 2013 22:37:12.556,881.496
11,4 Dec 2013 00:08:01.372,4 Dec 2013 00:24:53.675,1012.303
12,4 Dec 2013 01:55:48.321,4 Dec 2013 02:02:48.715,420.393
13,4 Dec 2013 16:15:57.148,4 Dec 2013 16:23:56.736,479.587
14,4 Dec 2013 17:55:42.595,4 Dec 2013 18:12:43.045,1020.449
15,4 Dec 2013 19:43:17.001,4 Dec 2013 19:59:13.749,956.748
16,4 Dec 2013 21:30:32.437,4 Dec 2013 21:47:25.489,1013.051
17,4 Dec 2013 23:17:01.764,4 Dec 2013 23:31:00.443,838.679
18,5 Dec 2013 15:19:41.700,5 Dec 2013 15:35:37.094,955.395
19,5 Dec 2013 17:04:56.586,5 Dec 2013 17:20:56.891,960.305
20,5 Dec 2013 18:53:41.623,5 Dec 2013 19:08:51.058,909.434
21,5 Dec 2013 20:39:57.544,5 Dec 2013 20:56:22.096,984.553
22,5 Dec 2013 22:19:32.065,5 Dec 2013 22:34:06.372,874.307
23,5 Dec 2013 23:58:57.840,6 Dec 2013 00:11:13.820,735.980
24,6 Dec 2013 01:38:50.548,6 Dec 2013 01:48:44.718,594.169
25,6 Dec 2013 03:19:47.269,6 Dec 2013 03:26:53.391,426.122
26,6 Dec 2013 12:43:12.294,6 Dec 2013 12:57:21.409,849.115
27,6 Dec 2013 14:25:41.054,6 Dec 2013 14:41:19.916,938.862
28,6 Dec 2013 16:16:50.635,6 Dec 2013 16:25:09.501,498.866
29,6 Dec 2013 17:55:12.109,6 Dec 2013 18:08:24.036,791.928
30,6 Dec 2013 19:34:12.287,6 Dec 2013 19:49:04.383,892.096
31,6 Dec 2013 21:13:31.331,6 Dec 2013 21:28:54.747,923.416
32,6 Dec 2013 22:53:27.797,6 Dec 2013 23:08:56.620,928.822
33,7 Dec 2013 00:34:23.997,7 Dec 2013 00:49:49.105,925.108
34,7 Dec 2013 02:16:16.850,7 Dec 2013 02:32:46.692,989.842
35,7 Dec 2013 10:06:33.980,7 Dec 2013 10:16:43.921,609.941
36,7 Dec 2013 11:44:32.600,7 Dec 2013 12:00:51.662,979.062
37,7 Dec 2013 13:26:17.261,7 Dec 2013 13:42:24.727,967.466
38,7 Dec 2013 15:06:59.148,7 Dec 2013 15:22:57.916,958.768
39,7 Dec 2013 16:46:51.155,7 Dec 2013 17:02:37.954,946.799
40,7 Dec 2013 18:26:31.010,7 Dec 2013 18:41:44.833,913.822
41,7 Dec 2013 20:07:05.145,7 Dec 2013 20:20:27.951,802.806
42,7 Dec 2013 21:51:47.434,7 Dec 2013 22:04:04.285,736.851
43,7 Dec 2013 23:36:34.922,7 Dec 2013 23:53:15.017,1000.094
44,8 Dec 2013 01:22:16.624,8 Dec 2013 01:33:05.758,649.134
45,8 Dec 2013 14:07:35.473,8 Dec 2013 14:15:38.347,482.874
46,8 Dec 2013 15:43:09.467,8 Dec 2013 15:55:59.249,769.781
47,8 Dec 2013 17:22:56.659,8 Dec 2013 17:39:58.702,1022.044
48,8 Dec 2013 19:10:52.551,8 Dec 2013 19:26:30.675,938.124
49,8 Dec 2013 20:58:12.451,8 Dec 2013 21:14:54.035,1001.584
50,8 Dec 2013 22:44:08.896,8 Dec 2013 22:58:42.788,873.893

"Access","Start Time (UTCG)","Stop Time (UTCG)","Duration (sec)"
1,3 Dec 2013 02:26:01.685,3 Dec 2013 02:42:39.154,997.470
2,3 Dec 2013 04:13:09.955,3 Dec 2013 04:18:18.958,309.003
3,3 Dec 2013 10:17:47.957,3 Dec 2013 10:25:01.314,433.357
4,3 Dec 2013 11:55:14.733,3 Dec 2013 12:09:10.987,836.254
5,3 Dec 2013 13:35:47.384,3 Dec 2013 13:50:28.413,881.029
6,3 Dec 2013 15:15:33.307,3 Dec 2013 15:30:35.960,902.653
7,3 Dec 2013 16:54:27.956,3 Dec 2013 17:09:58.424,930.468
8,3 Dec 2013 18:33:03.128,3 Dec 2013 18:48:56.262,953.134
9,3 Dec 2013 20:12:23.801,3 Dec 2013 20:27:52.320,928.519
10,3 Dec 2013 22:00:58.514,3 Dec 2013 22:15:17.799,859.285
11,3 Dec 2013 23:47:03.368,4 Dec 2013 00:03:51.514,1008.147
12,4 Dec 2013 01:33:06.081,4 Dec 2013 01:44:55.384,709.303
13,4 Dec 2013 17:34:48.506,4 Dec 2013 17:51:30.124,1001.618
14,4 Dec 2013 19:21:33.797,4 Dec 2013 19:37:44.221,970.424
15,4 Dec 2013 21:09:18.490,4 Dec 2013 21:25:54.251,995.762
16,4 Dec 2013 22:55:26.939,4 Dec 2013 23:11:01.837,934.898
17,5 Dec 2013 14:59:44.447,5 Dec 2013 15:14:19.096,874.649
18,5 Dec 2013 16:43:20.039,5 Dec 2013 16:59:49.843,989.804
19,5 Dec 2013 18:32:07.585,5 Dec 2013 18:46:58.006,890.420
20,5 Dec 2013 20:18:45.624,5 Dec 2013 20:35:44.439,1018.815
21,5 Dec 2013 21:59:41.664,5 Dec 2013 22:14:38.653,896.989
22,5 Dec 2013 23:39:02.936,5 Dec 2013 23:51:48.059,765.123
23,6 Dec 2013 01:18:48.814,6 Dec 2013 01:29:10.852,622.038
24,6 Dec 2013 02:59:26.808,6 Dec 2013 03:07:15.174,468.366
25,6 Dec 2013 12:24:20.488,6 Dec 2013 12:35:50.251,689.763
26,6 Dec 2013 14:04:20.324,6 Dec 2013 14:20:43.448,983.124
27,6 Dec 2013 15:55:02.300,6 Dec 2013 16:03:58.877,536.577
28,6 Dec 2013 17:35:26.572,6 Dec 2013 17:48:02.333,755.761
29,6 Dec 2013 19:14:22.973,6 Dec 2013 19:29:02.767,879.794
30,6 Dec 2013 20:53:37.350,6 Dec 2013 21:08:57.351,920.001
31,6 Dec 2013 22:33:24.263,6 Dec 2013 22:48:53.184,928.921
32,7 Dec 2013 00:14:07.510,7 Dec 2013 00:29:33.267,925.757
33,7 Dec 2013 01:55:51.835,7 Dec 2013 02:12:03.689,971.854
34,7 Dec 2013 03:40:24.598,7 Dec 2013 03:50:17.302,592.704
35,7 Dec 2013 11:24:01.927,7 Dec 2013 11:40:26.635,984.708
36,7 Dec 2013 13:06:01.310,7 Dec 2013 13:22:10.734,969.424
37,7 Dec 2013 14:46:55.528,7 Dec 2013 15:02:56.051,960.523
38,7 Dec 2013 16:26:55.305,7 Dec 2013 16:42:45.260,949.954
39,7 Dec 2013 18:06:33.305,7 Dec 2013 18:21:57.289,923.984
40,7 Dec 2013 19:46:49.492,7 Dec 2013 20:00:45.893,836.401
41,7 Dec 2013 21:30:13.792,7 Dec 2013 21:41:51.927,698.135
42,7 Dec 2013 23:15:47.274,7 Dec 2013 23:31:59.396,972.122
43,8 Dec 2013 01:00:32.685,8 Dec 2013 01:14:18.260,825.575
44,8 Dec 2013 13:48:36.300,8 Dec 2013 13:55:23.528,407.228
45,8 Dec 2013 15:23:58.003,8 Dec 2013 15:36:00.006,722.003
46,8 Dec 2013 17:01:57.558,8 Dec 2013 17:18:44.061,1006.502
47,8 Dec 2013 18:49:05.294,8 Dec 2013 19:05:01.002,955.708
48,8 Dec 2013 20:37:00.278,8 Dec 2013 20:53:19.598,979.320
49,8 Dec 2013 22:22:45.555,8 Dec 2013 22:38:40.586,955.031

"Access","Start Time (UTCG)","Stop Time (UTCG)","Duration (sec)"
1,3 Dec 2013 02:05:26.178,3 Dec 2013 02:21:46.135,979.957
2,3 Dec 2013 03:50:12.225,3 Dec 2013 04:01:18.971,666.746
3,3 Dec 2013 11:35:05.337,3 Dec 2013 11:48:44.993,819.656
4,3 Dec 2013 13:15:43.854,3 Dec 2013 13:30:19.257,875.403
5,3 Dec 2013 14:55:40.576,3 Dec 2013 15:10:38.888,898.313
6,3 Dec 2013 16:34:44.139,3 Dec 2013 16:50:08.351,924.212
7,3 Dec 2013 18:13:18.947,3 Dec 2013 18:29:10.275,951.328
8,3 Dec 2013 19:52:23.875,3 Dec 2013 20:07:49.297,925.422
9,3 Dec 2013 21:39:13.345,3 Dec 2013 21:53:29.140,855.796
10,3 Dec 2013 23:26:04.350,3 Dec 2013 23:42:31.148,986.799
11,4 Dec 2013 01:11:25.198,4 Dec 2013 01:25:44.316,859.118
12,4 Dec 2013 17:14:14.021,4 Dec 2013 17:30:11.156,957.135
13,4 Dec 2013 18:59:52.440,4 Dec 2013 19:16:22.082,989.642
14,4 Dec 2013 20:47:58.885,4 Dec 2013 21:04:14.956,976.071
15,4 Dec 2013 22:34:06.444,4 Dec 2013 22:50:36.201,989.757
16,5 Dec 2013 14:40:23.761,5 Dec 2013 14:52:40.164,736.403
17,5 Dec 2013 16:21:57.519,5 Dec 2013 16:38:47.407,1009.889
18,5 Dec 2013 18:10:24.205,5 Dec 2013 18:25:11.774,887.568
19,5 Dec 2013 19:57:35.234,5 Dec 2013 20:14:16.229,1000.995
20,5 Dec 2013 21:39:52.372,5 Dec 2013 21:55:08.926,916.554
21,5 Dec 2013 23:19:08.915,5 Dec 2013 23:32:22.935,794.020
22,6 Dec 2013 00:58:48.974,6 Dec 2013 01:09:38.942,649.968
23,6 Dec 2013 02:39:11.962,6 Dec 2013 02:47:36.262,504.300
24,6 Dec 2013 04:21:55.582,6 Dec 2013 04:25:10.847,195.265
25,6 Dec 2013 12:06:57.327,6 Dec 2013 12:13:08.779,371.452
26,6 Dec 2013 13:43:23.977,6 Dec 2013 14:00:04.110,1000.132
27,6 Dec 2013 15:32:10.915,6 Dec 2013 15:43:11.004,660.089
28,6 Dec 2013 17:15:42.569,6 Dec 2013 17:27:33.812,711.243
29,6 Dec 2013 18:54:34.265,6 Dec 2013 19:08:58.630,864.365
30,6 Dec 2013 20:33:44.638,6 Dec 2013 20:49:00.081,915.443
31,6 Dec 2013 22:13:23.043,6 Dec 2013 22:28:51.571,928.528
32,6 Dec 2013 23:53:53.623,7 Dec 2013 00:09:20.263,926.639
33,7 Dec 2013 01:35:27.735,7 Dec 2013 01:50:54.518,926.783
34,7 Dec 2013 03:18:42.973,7 Dec 2013 03:31:59.897,796.924
35,7 Dec 2013 11:03:47.210,7 Dec 2013 11:19:58.837,971.627
36,7 Dec 2013 12:45:42.780,7 Dec 2013 13:01:54.340,971.560
37,7 Dec 2013 14:26:49.652,7 Dec 2013 14:42:51.879,962.227
38,7 Dec 2013 16:06:58.501,7 Dec 2013 16:22:51.097,952.596
39,7 Dec 2013 17:46:37.005,7 Dec 2013 18:02:08.908,931.903
40,7 Dec 2013 19:26:39.194,7 Dec 2013 19:41:02.259,863.066
41,7 Dec 2013 21:08:38.443,7 Dec 2013 21:19:53.139,674.695
42,7 Dec 2013 22:54:58.152,7 Dec 2013 23:10:23.286,925.134
43,8 Dec 2013 00:39:17.541,8 Dec 2013 00:54:44.758,927.217
44,8 Dec 2013 13:29:42.396,8 Dec 2013 13:35:01.188,318.792
45,8 Dec 2013 15:04:49.028,8 Dec 2013 15:15:58.639,669.610
46,8 Dec 2013 16:41:17.164,8 Dec 2013 16:57:22.566,965.401
47,8 Dec 2013 18:27:19.646,8 Dec 2013 18:43:39.023,979.376
48,8 Dec 2013 20:15:41.112,8 Dec 2013 20:31:37.172,956.060
49,8 Dec 2013 22:01:33.115,8 Dec 2013 22:18:12.551,999.436

"Access","Start Time (UTCG)","Stop Time (UTCG)","Duration (sec)"
1,3 Dec 2013 01:44:54.978,3 Dec 2013 02:00:27.451,932.473
2,3 Dec 2013 03:28:39.270,3 Dec 2013 03:42:35.646,836.376
3,3 Dec 2013 11:14:55.951,3 Dec 2013 11:28:14.881,798.930
4,3 Dec 2013 12:55:38.555,3 Dec 2013 13:10:07.116,868.561
5,3 Dec 2013 14:35:45.609,3 Dec 2013 14:50:39.806,894.197
6,3 Dec 2013 16:14:59.052,3 Dec 2013 16:30:17.237,918.185
7,3 Dec 2013 17:53:35.883,3 Dec 2013 18:09:23.479,947.596
8,3 Dec 2013 19:32:28.673,3 Dec 2013 19:48:08.127,939.453
9,3 Dec 2013 21:17:18.386,3 Dec 2013 21:31:50.594,872.209
10,3 Dec 2013 23:05:01.334,3 Dec 2013 23:20:55.129,953.796
11,4 Dec 2013 00:50:07.485,4 Dec 2013 01:05:53.965,946.480
12,4 Dec 2013 16:54:03.864,4 Dec 2013 17:08:40.171,876.307
13,4 Dec 2013 18:38:17.567,4 Dec 2013 18:55:06.054,1008.488
14,4 Dec 2013 20:26:32.002,4 Dec 2013 20:42:32.122,960.120
15,4 Dec 2013 22:12:53.305,4 Dec 2013 22:29:49.399,1016.095
16,5 Dec 2013 00:02:35.251,5 Dec 2013 00:07:59.575,324.324
17,5 Dec 2013 14:22:10.064,5 Dec 2013 14:30:09.906,479.842
18,5 Dec 2013 16:00:51.951,5 Dec 2013 16:17:46.653,1014.702
19,5 Dec 2013 17:48:34.332,5 Dec 2013 18:03:35.942,901.610
20,5 Dec 2013 19:36:23.117,5 Dec 2013 19:52:35.439,972.322
21,5 Dec 2013 21:20:04.347,5 Dec 2013 21:35:36.636,932.290
22,5 Dec 2013 22:59:15.755,5 Dec 2013 23:12:57.968,822.214
23,6 Dec 2013 00:38:50.699,6 Dec 2013 00:50:08.939,678.240
24,6 Dec 2013 02:19:01.524,6 Dec 2013 02:27:57.779,536.255
25,6 Dec 2013 04:00:54.502,6 Dec 2013 04:05:58.401,303.899
26,6 Dec 2013 13:22:52.237,6 Dec 2013 13:39:19.759,987.522
27,6 Dec 2013 15:09:37.052,6 Dec 2013 15:22:31.419,774.367
28,6 Dec 2013 16:56:00.838,6 Dec 2013 17:06:57.034,656.196
29,6 Dec 2013 18:34:46.161,6 Dec 2013 18:48:51.302,845.142
30,6 Dec 2013 20:13:53.004,6 Dec 2013 20:29:02.493,909.490
31,6 Dec 2013 21:53:23.958,6 Dec 2013 22:08:51.502,927.545
32,6 Dec 2013 23:33:42.388,6 Dec 2013 23:49:09.943,927.555
33,7 Dec 2013 01:15:04.290,7 Dec 2013 01:30:29.685,925.395
34,7 Dec 2013 02:57:37.822,7 Dec 2013 03:12:48.709,910.888
35,7 Dec 2013 10:44:01.967,7 Dec 2013 10:59:18.766,916.799
36,7 Dec 2013 12:25:21.728,7 Dec 2013 12:41:35.625,973.897
37,7 Dec 2013 14:06:41.384,7 Dec 2013 14:22:45.295,963.911
38,7 Dec 2013 15:47:00.394,7 Dec 2013 16:02:55.270,954.876
39,7 Dec 2013 17:26:41.559,7 Dec 2013 17:42:19.629,938.071
40,7 Dec 2013 19:06:33.232,7 Dec 2013 19:21:17.403,884.171
41,7 Dec 2013 20:47:57.712,7 Dec 2013 20:59:44.744,707.032
42,7 Dec 2013 22:34:04.541,7 Dec 2013 22:48:28.780,864.239
43,8 Dec 2013 00:18:16.713,8 Dec 2013 00:34:39.726,983.013
44,8 Dec 2013 13:11:01.477,8 Dec 2013 13:14:23.071,201.593
45,8 Dec 2013 14:45:42.300,8 Dec 2013 14:55:54.898,612.597
46,8 Dec 2013 16:21:41.116,8 Dec 2013 16:35:51.802,850.686
47,8 Dec 2013 18:05:40.476,8 Dec 2013 18:22:23.058,1002.582
48,8 Dec 2013 19:54:13.266,8 Dec 2013 20:09:51.702,938.436
49,8 Dec 2013 21:40:25.911,8 Dec 2013 21:57:23.465,1017.554
50,8 Dec 2013 23:28:31.428,8 Dec 2013 23:36:28.889,477.461

"Access","Start Time (UTCG)","Stop Time (UTCG)","Duration (sec)"
1,3 Dec 2013 01:03:55.236,3 Dec 2013 01:13:21.912,566.676
2,3 Dec 2013 02:44:40.381,3 Dec 2013 03:01:42.826,1022.445
3,3 Dec 2013 04:32:29.346,3 Dec 2013 04:48:20.456,951.109
4,3 Dec 2013 06:19:37.350,3 Dec 2013 06:36:31.451,1014.101
5,3 Dec 2013 08:06:04.538,3 Dec 2013 08:19:40.210,815.672
6,4 Dec 2013 00:08:46.850,4 Dec 2013 00:24:44.709,957.859
7,4 Dec 2013 01:54:08.277,4 Dec 2013 02:10:17.795,969.517
8,4 Dec 2013 03:42:37.859,4 Dec 2013 03:58:14.900,937.040
9,4 Dec 2013 05:28:54.254,4 Dec 2013 05:45:48.154,1013.900
10,4 Dec 2013 07:10:50.944,4 Dec 2013 07:23:43.959,773.015
11,4 Dec 2013 08:51:07.816,4 Dec 2013 08:59:24.295,496.479
12,4 Dec 2013 21:32:38.726,4 Dec 2013 21:46:44.300,845.573
13,4 Dec 2013 23:15:10.365,4 Dec 2013 23:31:03.721,953.355
14,5 Dec 2013 01:06:13.999,5 Dec 2013 01:15:58.069,584.070
15,5 Dec 2013 02:46:22.273,5 Dec 2013 02:59:47.351,805.078
16,5 Dec 2013 04:25:06.693,5 Dec 2013 04:40:20.317,913.624
17,5 Dec 2013 06:04:14.576,5 Dec 2013 06:20:00.685,946.110
18,5 Dec 2013 07:43:56.184,5 Dec 2013 07:59:54.093,957.909
19,5 Dec 2013 09:24:31.535,5 Dec 2013 09:40:37.884,966.349
20,5 Dec 2013 11:06:06.619,5 Dec 2013 11:22:33.584,986.964
21,5 Dec 2013 18:56:11.789,5 Dec 2013 19:06:32.385,620.595
22,5 Dec 2013 20:34:37.744,5 Dec 2013 20:50:39.275,961.532
23,5 Dec 2013 22:17:04.665,5 Dec 2013 22:32:33.000,928.336
24,5 Dec 2013 23:57:55.689,6 Dec 2013 00:13:26.632,930.943
25,6 Dec 2013 01:37:56.663,6 Dec 2013 01:53:21.220,924.558
26,6 Dec 2013 03:17:46.982,6 Dec 2013 03:32:39.086,892.104
27,6 Dec 2013 04:58:28.978,6 Dec 2013 05:11:37.913,788.935
28,6 Dec 2013 06:41:58.142,6 Dec 2013 06:52:59.629,661.487
29,6 Dec 2013 08:26:07.445,6 Dec 2013 08:42:41.623,994.179
30,6 Dec 2013 10:11:30.782,6 Dec 2013 10:22:26.055,655.274
31,6 Dec 2013 19:40:15.976,6 Dec 2013 19:46:57.724,401.748
32,6 Dec 2013 21:18:16.946,6 Dec 2013 21:27:57.613,580.667
33,6 Dec 2013 22:55:42.467,6 Dec 2013 23:07:51.937,729.469
34,7 Dec 2013 00:32:46.444,7 Dec 2013 00:47:18.887,872.443
35,7 Dec 2013 02:11:53.068,7 Dec 2013 02:28:55.291,1022.224
36,7 Dec 2013 04:00:13.523,7 Dec 2013 04:15:31.952,918.429
37,7 Dec 2013 05:47:25.980,7 Dec 2013 06:04:04.364,998.384
38,7 Dec 2013 07:33:12.632,7 Dec 2013 07:47:38.570,865.938
39,7 Dec 2013 23:36:38.637,7 Dec 2013 23:52:08.661,930.025
40,8 Dec 2013 01:21:35.327,8 Dec 2013 01:38:10.096,994.769
41,8 Dec 2013 03:09:48.184,8 Dec 2013 03:25:53.121,964.937
42,8 Dec 2013 04:56:06.156,8 Dec 2013 05:12:52.930,1006.774
43,8 Dec 2013 21:02:13.520,8 Dec 2013 21:14:27.049,733.529
44,8 Dec 2013 22:43:25.129,8 Dec 2013 23:00:05.988,1000.859
45,9 Dec 2013 00:32:23.174,9 Dec 2013 00:45:54.983,811.809

"Access","Start Time (UTCG)","Stop Time (UTCG)","Duration (sec)"
1,3 Dec 2013 02:23:40.530,3 Dec 2013 02:40:29.854,1009.323
2,3 Dec 2013 04:10:45.509,3 Dec 2013 04:26:49.004,963.495
3,3 Dec 2013 05:58:25.155,3 Dec 2013 06:15:02.440,997.285
4,3 Dec 2013 07:44:28.472,3 Dec 2013 07:59:49.604,921.132
5,3 Dec 2013 23:48:45.826,4 Dec 2013 00:03:24.730,878.904
6,4 Dec 2013 01:32:32.458,4 Dec 2013 01:49:07.681,995.223
7,4 Dec 2013 03:21:06.640,4 Dec 2013 03:36:24.732,918.092
8,4 Dec 2013 05:07:40.572,4 Dec 2013 05:24:42.953,1022.381
9,4 Dec 2013 06:50:54.043,4 Dec 2013 07:04:29.089,815.046
10,4 Dec 2013 08:30:59.111,4 Dec 2013 08:40:20.119,561.008
11,4 Dec 2013 10:13:26.623,4 Dec 2013 10:14:20.120,53.497
12,4 Dec 2013 21:13:45.517,4 Dec 2013 21:25:09.539,684.022
13,4 Dec 2013 22:53:50.927,4 Dec 2013 23:10:21.563,990.636
14,5 Dec 2013 00:43:46.682,5 Dec 2013 00:54:31.208,644.526
15,5 Dec 2013 02:26:41.879,5 Dec 2013 02:39:25.725,763.846
16,5 Dec 2013 04:05:19.781,5 Dec 2013 04:20:20.630,900.849
17,5 Dec 2013 05:44:22.945,5 Dec 2013 06:00:05.219,942.274
18,5 Dec 2013 07:23:56.124,5 Dec 2013 07:39:52.220,956.096
19,5 Dec 2013 09:04:19.558,5 Dec 2013 09:20:24.123,964.566
20,5 Dec 2013 10:45:43.238,5 Dec 2013 11:01:58.684,975.446
21,5 Dec 2013 12:30:06.863,5 Dec 2013 12:39:53.439,586.575
22,5 Dec 2013 18:40:40.587,5 Dec 2013 18:42:25.043,104.455
23,5 Dec 2013 20:13:52.586,5 Dec 2013 20:30:18.825,986.239
24,5 Dec 2013 21:56:46.245,5 Dec 2013 22:12:14.552,928.306
25,5 Dec 2013 23:37:50.425,5 Dec 2013 23:53:21.101,930.677
26,6 Dec 2013 01:17:58.865,6 Dec 2013 01:33:26.066,927.201
27,6 Dec 2013 02:57:47.171,6 Dec 2013 03:12:49.317,902.146
28,6 Dec 2013 04:38:12.435,6 Dec 2013 04:51:51.659,819.224
29,6 Dec 2013 06:20:47.380,6 Dec 2013 06:30:32.520,585.140
30,6 Dec 2013 08:05:24.761,6 Dec 2013 08:21:25.158,960.398
31,6 Dec 2013 09:49:50.696,6 Dec 2013 10:03:40.002,829.305
32,6 Dec 2013 19:20:43.094,6 Dec 2013 19:26:27.874,344.781
33,6 Dec 2013 20:58:42.471,6 Dec 2013 21:07:53.169,550.698
34,6 Dec 2013 22:36:16.575,6 Dec 2013 22:47:55.759,699.184
35,7 Dec 2013 00:13:20.708,7 Dec 2013 00:27:27.313,846.604
36,7 Dec 2013 01:50:50.349,7 Dec 2013 02:07:41.980,1011.632
37,7 Dec 2013 03:38:23.879,7 Dec 2013 03:53:59.821,935.942
38,7 Dec 2013 05:26:16.403,7 Dec 2013 05:42:29.987,973.584
39,7 Dec 2013 07:11:50.633,7 Dec 2013 07:27:41.029,950.396
40,7 Dec 2013 23:16:44.358,7 Dec 2013 23:30:35.156,830.798
41,8 Dec 2013 01:00:05.079,8 Dec 2013 01:16:57.485,1012.406
42,8 Dec 2013 02:48:17.526,8 Dec 2013 03:04:09.021,951.494
43,8 Dec 2013 04:34:52.765,8 Dec 2013 04:51:54.769,1022.005
44,8 Dec 2013 06:23:27.817,8 Dec 2013 06:32:21.560,533.743
45,8 Dec 2013 20:44:08.237,8 Dec 2013 20:52:01.562,473.325
46,8 Dec 2013 22:22:21.249,8 Dec 2013 22:39:11.735,1010.486
47,9 Dec 2013 00:10:22.098,9 Dec 2013 00:24:23.831,841.733
48,9 Dec 2013 01:58:45.028,9 Dec 2013 02:13:51.311,906.283

"Access","Start Time (UTCG)","Stop Time (UTCG)","Duration (sec)"
1,3 Dec 2013 02:02:59.157,3 Dec 2013 02:19:11.598,972.442
2,3 Dec 2013 03:49:02.247,3 Dec 2013 04:05:25.047,982.800
3,3 Dec 2013 05:37:07.454,3 Dec 2013 05:53:24.298,976.845
4,3 Dec 2013 07:23:08.028,3 Dec 2013 07:39:30.041,982.013
5,3 Dec 2013 23:29:20.331,3 Dec 2013 23:41:44.256,743.924
6,4 Dec 2013 01:11:09.463,4 Dec 2013 01:28:02.339,1012.876
7,4 Dec 2013 02:59:26.879,4 Dec 2013 03:14:39.238,912.359
8,4 Dec 2013 04:46:29.218,4 Dec 2013 05:03:22.249,1013.031
9,4 Dec 2013 06:30:59.007,4 Dec 2013 06:45:11.216,852.210
10,4 Dec 2013 08:10:53.545,4 Dec 2013 08:21:14.050,620.506
11,4 Dec 2013 09:52:10.100,4 Dec 2013 09:56:13.494,243.394
12,4 Dec 2013 20:56:23.727,4 Dec 2013 21:02:21.528,357.801
13,4 Dec 2013 22:32:54.448,4 Dec 2013 22:49:37.618,1003.169
14,5 Dec 2013 00:21:16.054,5 Dec 2013 00:33:25.379,729.325
15,5 Dec 2013 02:07:04.360,5 Dec 2013 02:18:56.172,711.812
16,5 Dec 2013 03:45:33.718,5 Dec 2013 04:00:18.291,884.573
17,5 Dec 2013 05:24:32.463,5 Dec 2013 05:40:09.941,937.478
18,5 Dec 2013 07:03:58.112,5 Dec 2013 07:19:52.212,954.100
19,5 Dec 2013 08:44:10.062,5 Dec 2013 09:00:12.950,962.888
20,5 Dec 2013 10:25:21.921,5 Dec 2013 10:41:34.758,972.836
21,5 Dec 2013 12:08:25.465,5 Dec 2013 12:21:39.778,794.312
22,5 Dec 2013 19:53:35.581,5 Dec 2013 20:09:49.361,973.779
23,5 Dec 2013 21:36:24.847,5 Dec 2013 21:51:53.750,928.902
24,5 Dec 2013 23:17:42.882,5 Dec 2013 23:33:13.014,930.132
25,6 Dec 2013 00:58:00.193,6 Dec 2013 01:13:29.237,929.044
26,6 Dec 2013 02:37:48.743,6 Dec 2013 02:52:58.798,910.055
27,6 Dec 2013 04:18:00.761,6 Dec 2013 04:32:04.519,843.758
28,6 Dec 2013 05:59:58.728,6 Dec 2013 06:10:47.304,648.576
29,6 Dec 2013 07:44:41.725,6 Dec 2013 07:59:46.324,904.599
30,6 Dec 2013 09:28:38.895,6 Dec 2013 09:44:08.258,929.362
31,6 Dec 2013 19:01:18.461,6 Dec 2013 19:05:44.814,266.354
32,6 Dec 2013 20:39:06.476,6 Dec 2013 20:47:45.818,519.342
33,6 Dec 2013 22:16:49.308,6 Dec 2013 22:27:58.466,669.157
34,6 Dec 2013 23:53:55.968,7 Dec 2013 00:07:34.804,818.837
35,7 Dec 2013 01:31:15.126,7 Dec 2013 01:46:46.945,931.819
36,7 Dec 2013 03:16:34.226,7 Dec 2013 03:32:36.140,961.913
37,7 Dec 2013 05:04:59.738,7 Dec 2013 05:20:46.440,946.702
38,7 Dec 2013 06:50:39.928,7 Dec 2013 07:07:16.698,996.770
39,7 Dec 2013 22:57:32.294,7 Dec 2013 23:08:32.131,659.836
40,8 Dec 2013 00:38:47.267,8 Dec 2013 00:55:48.208,1020.942
41,8 Dec 2013 02:26:39.790,8 Dec 2013 02:42:28.366,948.576
42,8 Dec 2013 04:13:41.212,8 Dec 2013 04:30:40.673,1019.461
43,8 Dec 2013 06:00:47.992,8 Dec 2013 06:13:33.308,765.316
44,8 Dec 2013 22:01:38.386,8 Dec 2013 22:18:15.447,997.061
45,8 Dec 2013 23:48:21.272,9 Dec 2013 00:03:06.688,885.416
46,9 Dec 2013 01:37:27.199,9 Dec 2013 01:51:46.383,859.184

"Access","Start Time (UTCG)","Stop Time (UTCG)","Duration (sec)"
1,3 Dec 2013 01:42:40.296,3 Dec 2013 01:57:42.683,902.387
2,3 Dec 2013 03:27:24.305,3 Dec 2013 03:44:07.529,1003.224
3,3 Dec 2013 05:15:42.398,3 Dec 2013 05:31:41.489,959.091
4,3 Dec 2013 07:01:55.606,3 Dec 2013 07:18:48.161,1012.555
5,3 Dec 2013 08:52:27.944,3 Dec 2013 08:55:32.951,185.007
6,3 Dec 2013 23:10:59.010,3 Dec 2013 23:19:14.503,495.493
7,4 Dec 2013 00:50:02.417,4 Dec 2013 01:06:58.911,1016.494
8,4 Dec 2013 02:37:40.797,4 Dec 2013 02:53:02.250,921.454
9,4 Dec 2013 04:25:16.927,4 Dec 2013 04:41:48.404,991.476
10,4 Dec 2013 06:11:05.867,4 Dec 2013 06:25:49.958,884.091
11,4 Dec 2013 07:50:50.536,4 Dec 2013 08:02:06.136,675.600
12,4 Dec 2013 09:31:39.738,4 Dec 2013 09:37:24.022,344.284
13,4 Dec 2013 22:12:21.740,4 Dec 2013 22:28:49.391,987.651
14,4 Dec 2013 23:58:55.333,5 Dec 2013 00:12:32.389,817.055
15,5 Dec 2013 01:47:31.143,5 Dec 2013 01:58:16.567,645.424
16,5 Dec 2013 03:25:48.626,5 Dec 2013 03:40:12.551,863.925
17,5 Dec 2013 05:04:42.995,5 Dec 2013 05:20:14.386,931.390
18,5 Dec 2013 06:44:01.976,5 Dec 2013 06:59:53.824,951.848
19,5 Dec 2013 08:24:03.045,5 Dec 2013 08:40:04.298,961.253
20,5 Dec 2013 10:05:02.795,5 Dec 2013 10:21:13.244,970.448
21,5 Dec 2013 11:47:21.868,5 Dec 2013 12:02:31.327,909.459
22,5 Dec 2013 19:33:47.673,5 Dec 2013 19:49:07.274,919.600
23,5 Dec 2013 21:16:00.444,5 Dec 2013 21:31:30.794,930.351
24,5 Dec 2013 22:57:32.850,5 Dec 2013 23:13:02.298,929.448
25,6 Dec 2013 00:38:00.310,6 Dec 2013 00:53:30.530,930.220
26,6 Dec 2013 02:17:51.171,6 Dec 2013 02:33:07.388,916.217
27,6 Dec 2013 03:57:53.120,6 Dec 2013 04:12:16.669,863.549
28,6 Dec 2013 05:39:20.777,6 Dec 2013 05:51:06.395,705.617
29,6 Dec 2013 07:23:55.687,6 Dec 2013 07:37:46.305,830.618
30,6 Dec 2013 09:07:41.421,6 Dec 2013 09:24:04.819,983.398
31,6 Dec 2013 18:42:21.782,6 Dec 2013 18:44:28.862,127.080
32,6 Dec 2013 20:19:29.445,6 Dec 2013 20:27:34.843,485.398
33,6 Dec 2013 21:57:20.386,6 Dec 2013 22:07:59.865,639.479
34,6 Dec 2013 23:34:31.696,6 Dec 2013 23:47:41.404,789.708
35,7 Dec 2013 01:11:43.107,7 Dec 2013 01:26:58.839,915.733
36,7 Dec 2013 02:54:49.805,7 Dec 2013 03:11:19.273,989.468
37,7 Dec 2013 04:43:33.895,7 Dec 2013 04:58:58.767,924.872
38,7 Dec 2013 06:29:34.730,7 Dec 2013 06:46:30.531,1015.801
39,7 Dec 2013 08:17:38.763,7 Dec 2013 08:25:06.805,448.042
40,7 Dec 2013 22:40:07.352,7 Dec 2013 22:44:54.217,286.864
41,8 Dec 2013 00:17:44.926,8 Dec 2013 00:34:39.411,1014.485
42,8 Dec 2013 02:04:57.353,8 Dec 2013 02:20:54.412,957.059
43,8 Dec 2013 03:52:28.327,8 Dec 2013 04:09:13.376,1005.049
44,8 Dec 2013 05:38:55.934,8 Dec 2013 05:53:48.604,892.670
45,8 Dec 2013 21:41:18.976,8 Dec 2013 21:57:13.567,954.591
46,8 Dec 2013 23:26:28.096,8 Dec 2013 23:42:00.337,932.241
47,9 Dec 2013 01:15:58.624,9 Dec 2013 01:29:40.543,821.919

"Access","Start Time (UTCG)","Stop Time (UTCG)","Duration (sec)"
1,3 Dec 2013 01:22:51.788,3 Dec 2013 01:35:53.808,782.020
2,3 Dec 2013 03:05:55.897,3 Dec 2013 03:22:54.344,1018.447
3,3 Dec 2013 04:54:09.326,3 Dec 2013 05:09:58.815,949.489
4,3 Dec 2013 06:40:46.534,3 Dec 2013 06:57:47.686,1021.153
5,3 Dec 2013 08:28:13.141,3 Dec 2013 08:38:45.729,632.588
6,4 Dec 2013 00:29:13.906,4 Dec 2013 00:45:54.288,1000.382
7,4 Dec 2013 02:15:52.784,4 Dec 2013 02:31:35.314,942.529
8,4 Dec 2013 04:04:00.686,4 Dec 2013 04:20:04.529,963.843
9,4 Dec 2013 05:50:14.164,4 Dec 2013 06:06:24.942,970.778
10,4 Dec 2013 07:30:49.736,4 Dec 2013 07:42:56.195,726.458
11,4 Dec 2013 09:11:20.687,4 Dec 2013 09:18:26.084,425.397
12,4 Dec 2013 21:52:14.870,4 Dec 2013 22:07:53.495,938.625
13,4 Dec 2013 23:36:52.256,4 Dec 2013 23:51:46.431,894.175
14,5 Dec 2013 01:28:04.890,5 Dec 2013 01:37:23.519,558.629
15,5 Dec 2013 03:06:04.696,5 Dec 2013 03:20:02.566,837.870
16,5 Dec 2013 04:44:54.426,5 Dec 2013 05:00:18.032,923.606
17,5 Dec 2013 06:24:07.531,5 Dec 2013 06:39:56.764,949.233
18,5 Dec 2013 08:03:58.449,5 Dec 2013 08:19:58.059,959.610
19,5 Dec 2013 09:44:45.968,5 Dec 2013 10:00:54.268,968.300
20,5 Dec 2013 11:26:37.701,5 Dec 2013 11:42:47.182,969.481
21,5 Dec 2013 19:14:34.286,5 Dec 2013 19:28:06.863,812.577
22,5 Dec 2013 20:55:33.097,5 Dec 2013 21:11:05.894,932.797
23,5 Dec 2013 22:37:20.159,5 Dec 2013 22:52:48.950,928.791
24,6 Dec 2013 00:17:58.898,6 Dec 2013 00:33:29.722,930.823
25,6 Dec 2013 01:57:53.964,6 Dec 2013 02:13:14.926,920.962
26,6 Dec 2013 03:37:48.754,6 Dec 2013 03:52:28.187,879.433
27,6 Dec 2013 05:18:51.364,6 Dec 2013 05:31:22.990,751.626
28,6 Dec 2013 07:03:02.983,6 Dec 2013 07:15:28.359,745.377
29,6 Dec 2013 08:46:52.131,6 Dec 2013 09:03:35.159,1003.028
30,6 Dec 2013 10:34:43.991,6 Dec 2013 10:39:20.659,276.668
31,6 Dec 2013 19:59:52.177,6 Dec 2013 20:07:19.274,447.097
32,6 Dec 2013 21:37:49.610,6 Dec 2013 21:47:59.695,610.084
33,6 Dec 2013 23:15:07.358,6 Dec 2013 23:27:47.128,759.769
34,7 Dec 2013 00:52:13.724,7 Dec 2013 01:07:09.430,895.706
35,7 Dec 2013 02:33:15.006,7 Dec 2013 02:50:06.640,1011.634
36,7 Dec 2013 04:21:58.058,7 Dec 2013 04:37:12.422,914.364
37,7 Dec 2013 06:08:31.136,7 Dec 2013 06:25:25.550,1014.414
38,7 Dec 2013 07:54:57.075,7 Dec 2013 08:06:58.734,721.659
39,7 Dec 2013 23:57:00.865,8 Dec 2013 00:13:27.712,986.847
40,8 Dec 2013 01:43:14.266,8 Dec 2013 01:59:28.492,974.226
41,8 Dec 2013 03:31:11.376,8 Dec 2013 03:47:36.149,984.772
42,8 Dec 2013 05:17:25.336,8 Dec 2013 05:33:32.292,966.955
43,8 Dec 2013 21:21:27.429,8 Dec 2013 21:36:00.815,873.386
44,8 Dec 2013 23:04:48.179,8 Dec 2013 23:21:01.195,973.015
45,9 Dec 2013 00:54:16.995,9 Dec 2013 01:07:41.369,804.374

