Raw and processed data/perplane variations/us_greatcircle_15sat/Aircraft-B747LAX_Sydney-Transmitter-adsb_out6212-To-Satellite-700km_p1_1-Receiver-adsb_satrcvr2 Access.csv

"Access","Start Time (UTCG)","Stop Time (UTCG)","Duration (sec)"
1,3 Dec 2013 04:02:52.854,3 Dec 2013 04:06:10.668,197.814
2,3 Dec 2013 05:43:54.793,3 Dec 2013 06:00:31.602,996.810
3,3 Dec 2013 07:32:04.169,3 Dec 2013 07:44:08.807,724.638
4,3 Dec 2013 13:01:21.714,3 Dec 2013 13:16:37.232,915.518
5,3 Dec 2013 14:43:35.235,3 Dec 2013 14:58:47.555,912.320
6,3 Dec 2013 16:26:45.975,3 Dec 2013 16:39:57.673,791.698
7,3 Dec 2013 18:12:38.480,3 Dec 2013 18:19:44.482,426.002
8,4 Dec 2013 02:56:12.586,4 Dec 2013 02:59:44.412,211.826
9,4 Dec 2013 04:38:04.992,4 Dec 2013 04:50:45.564,760.572
10,4 Dec 2013 06:23:02.154,4 Dec 2013 06:39:59.199,1017.045
11,4 Dec 2013 08:15:50.228,4 Dec 2013 08:18:07.927,137.699
12,4 Dec 2013 13:46:12.019,4 Dec 2013 13:59:49.684,817.664
13,4 Dec 2013 15:27:36.923,4 Dec 2013 15:41:01.321,804.397
14,5 Dec 2013 03:44:26.429,5 Dec 2013 03:52:13.320,466.892
15,5 Dec 2013 05:20:42.764,5 Dec 2013 05:35:17.424,874.661
16,5 Dec 2013 07:02:32.649,5 Dec 2013 07:19:06.538,993.889
17,5 Dec 2013 14:31:44.064,5 Dec 2013 14:43:37.012,712.949
18,5 Dec 2013 16:11:33.422,5 Dec 2013 16:25:40.205,846.783
19,6 Dec 2013 04:29:59.130,6 Dec 2013 04:44:25.494,866.364
20,6 Dec 2013 06:08:00.911,6 Dec 2013 06:23:39.883,938.973
21,6 Dec 2013 07:47:44.937,6 Dec 2013 08:00:24.411,759.474
22,6 Dec 2013 15:17:25.166,6 Dec 2013 15:27:54.376,629.210
23,6 Dec 2013 16:56:01.356,6 Dec 2013 17:10:31.604,870.248
24,7 Dec 2013 03:39:14.643,7 Dec 2013 03:53:39.109,864.465
25,7 Dec 2013 05:17:08.800,7 Dec 2013 05:32:36.671,927.870
26,7 Dec 2013 06:58:21.364,7 Dec 2013 07:08:01.444,580.081
27,7 Dec 2013 16:02:54.634,7 Dec 2013 16:12:26.089,571.455
28,7 Dec 2013 17:40:40.581,7 Dec 2013 17:55:31.577,890.996
29,8 Dec 2013 01:12:21.334,8 Dec 2013 01:22:30.743,609.409
30,8 Dec 2013 02:48:01.607,8 Dec 2013 03:03:00.405,898.798
31,8 Dec 2013 04:26:16.362,8 Dec 2013 04:41:43.638,927.276
32,8 Dec 2013 06:08:04.803,8 Dec 2013 06:17:34.289,569.485
33,8 Dec 2013 16:48:11.634,8 Dec 2013 16:56:44.361,512.727
34,8 Dec 2013 18:25:13.160,8 Dec 2013 18:40:32.117,918.957
35,9 Dec 2013 01:51:38.270,9 Dec 2013 02:06:25.135,886.865
36,9 Dec 2013 03:35:21.691,9 Dec 2013 03:50:43.934,922.243
37,9 Dec 2013 05:16:44.092,9 Dec 2013 05:28:08.084,683.992
38,9 Dec 2013 17:33:32.348,9 Dec 2013 17:40:10.072,397.724
39,9 Dec 2013 19:09:24.311,9 Dec 2013 19:25:17.935,953.624
40,10 Dec 2013 02:30:07.592,10 Dec 2013 02:46:12.424,964.832
41,10 Dec 2013 04:16:53.472,10 Dec 2013 04:31:51.077,897.605

"Access","Start Time (UTCG)","Stop Time (UTCG)","Duration (sec)"
1,3 Dec 2013 01:49:20.725,3 Dec 2013 01:52:08.313,167.587
2,3 Dec 2013 05:23:05.765,3 Dec 2013 05:38:51.284,945.519
3,3 Dec 2013 07:09:35.254,3 Dec 2013 07:24:06.880,871.626
4,3 Dec 2013 12:41:32.064,3 Dec 2013 12:54:56.281,804.217
5,3 Dec 2013 14:23:07.733,3 Dec 2013 14:38:31.976,924.243
6,3 Dec 2013 16:05:59.374,3 Dec 2013 16:19:46.224,826.850
7,3 Dec 2013 17:51:02.696,3 Dec 2013 18:00:05.033,542.337
8,4 Dec 2013 04:16:59.819,4 Dec 2013 04:28:06.470,666.651
9,4 Dec 2013 06:01:54.587,4 Dec 2013 06:18:45.922,1011.335
10,4 Dec 2013 07:50:32.638,4 Dec 2013 08:01:06.725,634.087
11,4 Dec 2013 13:27:18.679,4 Dec 2013 13:37:28.543,609.864
12,4 Dec 2013 15:06:36.838,4 Dec 2013 15:21:54.841,918.003
13,5 Dec 2013 03:26:46.542,5 Dec 2013 03:29:48.302,181.761
14,5 Dec 2013 05:01:10.282,5 Dec 2013 05:15:04.930,834.648
15,5 Dec 2013 06:41:16.487,5 Dec 2013 06:58:14.291,1017.804
16,5 Dec 2013 08:33:07.551,5 Dec 2013 08:35:58.296,170.746
17,5 Dec 2013 14:14:21.350,5 Dec 2013 14:20:09.829,348.479
18,5 Dec 2013 15:50:44.187,5 Dec 2013 16:06:23.019,938.831
19,6 Dec 2013 04:10:41.971,6 Dec 2013 04:24:10.257,808.286
20,6 Dec 2013 05:48:15.190,6 Dec 2013 06:04:02.079,946.889
21,6 Dec 2013 07:27:40.422,6 Dec 2013 07:41:14.976,814.555
22,6 Dec 2013 16:35:17.525,6 Dec 2013 16:51:06.353,948.827
23,7 Dec 2013 03:20:04.244,7 Dec 2013 03:33:28.911,804.667
24,7 Dec 2013 04:57:20.130,7 Dec 2013 05:13:02.885,942.756
25,7 Dec 2013 06:37:41.797,7 Dec 2013 06:49:24.649,702.852
26,7 Dec 2013 17:19:59.731,7 Dec 2013 17:35:56.754,957.023
27,8 Dec 2013 00:53:39.466,8 Dec 2013 01:02:03.753,504.286
28,8 Dec 2013 02:28:40.410,8 Dec 2013 02:43:03.810,863.400
29,8 Dec 2013 04:06:24.899,8 Dec 2013 04:22:07.804,942.905
30,8 Dec 2013 05:47:11.888,8 Dec 2013 05:58:52.827,700.939
31,8 Dec 2013 18:04:36.218,8 Dec 2013 18:20:43.517,967.299
32,9 Dec 2013 01:31:55.055,9 Dec 2013 01:44:19.672,744.617
33,9 Dec 2013 03:14:56.145,9 Dec 2013 03:31:03.177,967.032
34,9 Dec 2013 04:56:08.360,9 Dec 2013 05:08:52.030,763.669
35,9 Dec 2013 18:48:54.587,9 Dec 2013 19:05:11.439,976.852
36,10 Dec 2013 02:09:46.871,10 Dec 2013 02:24:26.887,880.016
37,10 Dec 2013 03:54:54.624,10 Dec 2013 04:10:54.730,960.106
38,10 Dec 2013 05:46:50.756,10 Dec 2013 05:56:36.885,586.129

"Access","Start Time (UTCG)","Stop Time (UTCG)","Duration (sec)"
1,3 Dec 2013 01:24:31.211,3 Dec 2013 01:33:24.662,533.451
2,3 Dec 2013 05:02:27.685,3 Dec 2013 05:16:47.086,859.401
3,3 Dec 2013 06:47:40.871,3 Dec 2013 07:03:39.946,959.075
4,3 Dec 2013 12:22:13.467,3 Dec 2013 12:32:20.217,606.750
5,3 Dec 2013 14:02:23.888,3 Dec 2013 14:18:16.821,952.933
6,3 Dec 2013 15:45:17.517,3 Dec 2013 15:59:32.955,855.439
7,3 Dec 2013 17:29:44.200,3 Dec 2013 17:40:12.299,628.099
8,4 Dec 2013 03:55:38.927,4 Dec 2013 04:05:26.914,587.987
9,4 Dec 2013 05:40:54.064,4 Dec 2013 05:57:13.955,979.891
10,4 Dec 2013 07:27:51.779,4 Dec 2013 07:41:37.214,825.436
11,4 Dec 2013 14:46:01.520,4 Dec 2013 15:02:11.529,970.009
12,5 Dec 2013 04:41:42.940,5 Dec 2013 04:54:44.125,781.185
13,5 Dec 2013 06:20:07.319,5 Dec 2013 06:37:03.058,1015.740
14,5 Dec 2013 08:08:17.112,5 Dec 2013 08:19:01.368,644.256
15,5 Dec 2013 15:30:20.769,5 Dec 2013 15:46:32.020,971.251
16,6 Dec 2013 03:51:36.132,6 Dec 2013 04:03:42.213,726.082
17,6 Dec 2013 05:28:33.513,6 Dec 2013 05:44:18.314,944.801
18,6 Dec 2013 07:07:40.042,6 Dec 2013 07:21:59.595,859.554
19,6 Dec 2013 08:48:34.072,6 Dec 2013 08:56:54.829,500.757
20,6 Dec 2013 16:15:01.805,6 Dec 2013 16:31:09.925,968.120
21,7 Dec 2013 03:01:06.076,7 Dec 2013 03:13:07.840,721.765
22,7 Dec 2013 04:37:38.062,7 Dec 2013 04:53:22.241,944.179
23,7 Dec 2013 06:17:18.890,7 Dec 2013 06:30:29.296,790.406
24,7 Dec 2013 16:59:48.868,7 Dec 2013 17:15:54.265,965.397
25,8 Dec 2013 00:36:21.333,8 Dec 2013 00:40:22.165,240.832
26,8 Dec 2013 02:09:25.195,8 Dec 2013 02:23:03.208,818.013
27,8 Dec 2013 03:46:40.062,8 Dec 2013 04:02:27.118,947.056
28,8 Dec 2013 05:26:40.251,8 Dec 2013 05:39:51.212,790.961
29,8 Dec 2013 17:44:29.884,8 Dec 2013 18:00:31.884,962.000
30,9 Dec 2013 01:13:18.581,9 Dec 2013 01:21:10.182,471.600
31,9 Dec 2013 02:53:36.908,9 Dec 2013 03:10:36.708,1019.799
32,9 Dec 2013 04:35:44.777,9 Dec 2013 04:49:27.413,822.636
33,9 Dec 2013 18:28:55.118,9 Dec 2013 18:44:46.692,951.574
34,9 Dec 2013 20:15:39.845,9 Dec 2013 20:22:19.361,399.516
35,10 Dec 2013 01:49:57.530,10 Dec 2013 02:02:08.975,731.445
36,10 Dec 2013 03:33:14.654,10 Dec 2013 03:49:55.823,1001.168
37,10 Dec 2013 05:24:19.855,10 Dec 2013 05:35:03.451,643.596

"Access","Start Time (UTCG)","Stop Time (UTCG)","Duration (sec)"
1,3 Dec 2013 01:01:25.408,3 Dec 2013 01:13:30.842,725.434
2,3 Dec 2013 04:42:01.920,3 Dec 2013 04:54:12.897,730.977
3,3 Dec 2013 06:26:09.587,3 Dec 2013 06:42:54.437,1004.850
4,3 Dec 2013 12:05:50.868,3 Dec 2013 12:06:18.314,27.446
5,3 Dec 2013 13:41:49.400,3 Dec 2013 13:58:13.512,984.112
6,3 Dec 2013 15:24:39.827,3 Dec 2013 15:39:18.444,878.617
7,3 Dec 2013 17:08:36.973,3 Dec 2013 17:20:11.952,694.980
8,4 Dec 2013 03:34:11.910,4 Dec 2013 03:43:03.644,531.734
9,4 Dec 2013 05:19:57.678,4 Dec 2013 05:35:22.918,925.240
10,4 Dec 2013 07:05:53.972,4 Dec 2013 07:21:27.964,933.992
11,4 Dec 2013 14:25:45.014,4 Dec 2013 14:41:57.447,972.433
12,5 Dec 2013 04:22:22.910,5 Dec 2013 04:34:12.473,709.563
13,5 Dec 2013 05:59:58.334,5 Dec 2013 06:15:34.355,936.021
14,5 Dec 2013 07:45:49.561,5 Dec 2013 07:59:40.730,831.169
15,5 Dec 2013 15:10:19.604,5 Dec 2013 15:26:11.001,951.398
16,5 Dec 2013 16:56:46.726,5 Dec 2013 17:00:11.535,204.809
17,6 Dec 2013 03:32:47.700,6 Dec 2013 03:42:55.412,607.711
18,6 Dec 2013 05:08:56.372,6 Dec 2013 05:24:28.146,931.774
19,6 Dec 2013 06:47:43.412,6 Dec 2013 07:02:38.561,895.149
20,6 Dec 2013 08:28:09.816,6 Dec 2013 08:38:22.555,612.739
21,6 Dec 2013 15:55:12.063,6 Dec 2013 16:10:44.812,932.749
22,6 Dec 2013 17:40:32.323,6 Dec 2013 17:46:06.590,334.267
23,7 Dec 2013 02:42:25.280,7 Dec 2013 02:52:31.106,605.826
24,7 Dec 2013 04:18:02.744,7 Dec 2013 04:33:34.901,932.157
25,7 Dec 2013 05:57:07.225,7 Dec 2013 06:11:21.157,853.932
26,7 Dec 2013 16:40:06.905,7 Dec 2013 16:55:25.443,918.538
27,7 Dec 2013 18:24:47.204,7 Dec 2013 18:32:02.750,435.546
28,8 Dec 2013 01:50:16.353,8 Dec 2013 02:02:58.161,761.809
29,8 Dec 2013 03:27:01.387,8 Dec 2013 03:42:42.130,940.743
30,8 Dec 2013 05:06:22.497,8 Dec 2013 05:20:37.003,854.506
31,8 Dec 2013 17:24:54.465,8 Dec 2013 17:39:56.893,902.428
32,8 Dec 2013 19:08:46.549,8 Dec 2013 19:18:15.446,568.897
33,9 Dec 2013 02:32:35.885,9 Dec 2013 02:49:24.338,1008.453
34,9 Dec 2013 04:15:30.322,9 Dec 2013 04:29:56.901,866.579
35,9 Dec 2013 05:59:03.932,9 Dec 2013 06:05:44.160,400.228
36,9 Dec 2013 18:09:28.334,9 Dec 2013 18:24:00.974,872.641
37,9 Dec 2013 19:52:16.569,9 Dec 2013 20:04:19.528,722.959
38,10 Dec 2013 01:31:14.058,10 Dec 2013 01:38:39.628,445.570
39,10 Dec 2013 03:11:53.406,10 Dec 2013 03:28:51.451,1018.045
40,10 Dec 2013 05:01:41.803,10 Dec 2013 05:13:50.093,728.290

"Access","Start Time (UTCG)","Stop Time (UTCG)","Duration (sec)"
1,3 Dec 2013 04:21:55.142,3 Dec 2013 04:30:57.259,542.117
2,3 Dec 2013 06:04:55.405,3 Dec 2013 06:21:51.896,1016.491
3,3 Dec 2013 07:55:39.482,3 Dec 2013 08:03:19.798,460.316
4,3 Dec 2013 13:21:28.734,3 Dec 2013 13:37:40.812,972.078
5,3 Dec 2013 15:04:05.841,3 Dec 2013 15:19:03.169,897.328
6,3 Dec 2013 16:47:38.132,3 Dec 2013 17:00:06.575,748.443
7,3 Dec 2013 18:34:52.456,3 Dec 2013 18:38:50.185,237.729
8,4 Dec 2013 03:14:55.133,4 Dec 2013 03:21:35.331,400.199
9,4 Dec 2013 04:59:02.519,4 Dec 2013 05:13:12.864,850.345
10,4 Dec 2013 06:44:20.270,4 Dec 2013 07:00:53.705,993.435
11,4 Dec 2013 14:05:46.872,4 Dec 2013 14:21:12.338,925.465
12,4 Dec 2013 15:49:22.089,4 Dec 2013 15:59:09.700,587.611
13,5 Dec 2013 04:03:14.223,5 Dec 2013 04:13:25.540,611.317
14,5 Dec 2013 05:40:19.069,5 Dec 2013 05:55:23.287,904.219
15,5 Dec 2013 07:24:00.885,5 Dec 2013 07:39:37.246,936.362
16,5 Dec 2013 14:50:43.286,5 Dec 2013 15:05:17.054,873.768
17,5 Dec 2013 16:33:03.148,5 Dec 2013 16:44:08.050,664.902
18,6 Dec 2013 03:14:33.401,6 Dec 2013 03:21:33.247,419.846
19,6 Dec 2013 04:49:24.530,6 Dec 2013 05:04:30.893,906.363
20,6 Dec 2013 06:27:50.369,6 Dec 2013 06:43:11.999,921.630
21,6 Dec 2013 08:07:54.299,6 Dec 2013 08:19:27.315,693.016
22,6 Dec 2013 15:35:53.284,6 Dec 2013 15:49:46.171,832.887
23,6 Dec 2013 17:17:25.631,6 Dec 2013 17:29:12.707,707.076
24,7 Dec 2013 02:24:15.431,7 Dec 2013 02:31:25.506,430.075
25,7 Dec 2013 03:58:34.643,7 Dec 2013 04:13:40.715,906.073
26,7 Dec 2013 05:37:04.290,7 Dec 2013 05:52:03.077,898.787
27,7 Dec 2013 07:19:33.745,7 Dec 2013 07:26:03.167,389.422
28,7 Dec 2013 16:21:00.438,7 Dec 2013 16:34:24.170,803.731
29,7 Dec 2013 18:02:01.695,7 Dec 2013 18:14:28.314,746.619
30,8 Dec 2013 01:31:14.599,8 Dec 2013 01:42:47.844,693.245
31,8 Dec 2013 03:07:28.608,8 Dec 2013 03:22:53.176,924.568
32,8 Dec 2013 04:46:15.167,8 Dec 2013 05:01:13.801,898.633
33,8 Dec 2013 06:29:43.176,8 Dec 2013 06:35:31.255,348.079
34,8 Dec 2013 17:05:58.090,8 Dec 2013 17:18:50.934,772.844
35,8 Dec 2013 18:46:27.879,8 Dec 2013 18:59:51.089,803.210
36,9 Dec 2013 02:11:55.046,9 Dec 2013 02:28:02.638,967.592
37,9 Dec 2013 03:55:23.069,9 Dec 2013 04:10:22.073,899.004
38,9 Dec 2013 05:37:37.654,9 Dec 2013 05:47:10.275,572.621
39,9 Dec 2013 17:50:45.331,9 Dec 2013 18:02:43.704,718.372
40,9 Dec 2013 19:30:27.569,9 Dec 2013 19:45:04.002,876.433
41,10 Dec 2013 02:50:50.782,10 Dec 2013 03:07:38.400,1007.618
42,10 Dec 2013 04:39:10.334,10 Dec 2013 04:52:48.095,817.760

"Access","Start Time (UTCG)","Stop Time (UTCG)","Duration (sec)"
1,3 Dec 2013 03:26:18.533,3 Dec 2013 03:40:37.205,858.672
2,3 Dec 2013 05:08:41.846,3 Dec 2013 05:20:33.914,712.068
3,3 Dec 2013 12:31:03.728,3 Dec 2013 12:47:53.886,1010.158
4,3 Dec 2013 14:19:07.383,3 Dec 2013 14:32:20.084,792.701
5,3 Dec 2013 16:04:48.414,3 Dec 2013 16:07:07.265,138.852
6,4 Dec 2013 04:10:49.053,4 Dec 2013 04:24:18.289,809.237
7,4 Dec 2013 05:52:10.013,4 Dec 2013 06:06:03.359,833.347
8,4 Dec 2013 11:28:34.317,4 Dec 2013 11:37:41.288,546.970
9,4 Dec 2013 13:10:20.587,4 Dec 2013 13:27:15.385,1014.798
10,4 Dec 2013 15:01:07.870,4 Dec 2013 15:11:23.784,615.915
11,4 Dec 2013 16:52:41.805,4 Dec 2013 17:00:04.841,443.035
12,4 Dec 2013 23:46:55.795,4 Dec 2013 23:56:32.023,576.228
13,5 Dec 2013 01:28:01.185,5 Dec 2013 01:42:16.689,855.504
14,5 Dec 2013 03:10:01.455,5 Dec 2013 03:26:03.778,962.323
15,5 Dec 2013 04:52:20.139,5 Dec 2013 05:08:43.791,983.652
16,5 Dec 2013 06:35:03.734,5 Dec 2013 06:50:36.705,932.971
17,5 Dec 2013 12:05:05.313,5 Dec 2013 12:19:14.483,849.170
18,5 Dec 2013 13:50:06.748,5 Dec 2013 14:06:03.580,956.832
19,5 Dec 2013 19:18:47.117,5 Dec 2013 19:33:54.133,907.017
20,5 Dec 2013 21:00:46.064,5 Dec 2013 21:16:28.938,942.874
21,5 Dec 2013 22:43:15.065,5 Dec 2013 22:59:36.890,981.825
22,6 Dec 2013 00:26:17.820,6 Dec 2013 00:42:36.702,978.881
23,6 Dec 2013 02:10:16.925,6 Dec 2013 02:25:05.206,888.282
24,6 Dec 2013 03:55:27.028,6 Dec 2013 04:07:06.011,698.983
25,6 Dec 2013 05:41:02.924,6 Dec 2013 05:49:14.191,491.267
26,6 Dec 2013 07:24:40.744,6 Dec 2013 07:32:37.792,477.048
27,6 Dec 2013 09:08:38.654,6 Dec 2013 09:15:33.461,414.807
28,6 Dec 2013 11:01:13.533,6 Dec 2013 11:05:13.450,239.918
29,6 Dec 2013 12:43:16.447,6 Dec 2013 12:59:36.677,980.230
30,6 Dec 2013 14:30:35.817,6 Dec 2013 14:43:52.486,796.669
31,6 Dec 2013 20:03:21.986,6 Dec 2013 20:16:24.514,782.528
32,6 Dec 2013 21:44:42.531,6 Dec 2013 21:59:14.771,872.240
33,6 Dec 2013 23:29:19.891,6 Dec 2013 23:38:40.251,560.360
34,7 Dec 2013 11:37:02.176,7 Dec 2013 11:49:36.646,754.470
35,7 Dec 2013 13:22:19.435,7 Dec 2013 13:39:17.570,1018.135
36,7 Dec 2013 15:12:04.478,7 Dec 2013 15:20:09.279,484.801
37,7 Dec 2013 20:49:17.416,7 Dec 2013 20:59:12.188,594.772
38,7 Dec 2013 22:28:16.289,7 Dec 2013 22:43:30.110,913.821
39,8 Dec 2013 10:47:28.503,8 Dec 2013 10:55:30.345,481.842
40,8 Dec 2013 12:23:28.718,8 Dec 2013 12:38:21.732,893.014
41,8 Dec 2013 14:01:53.529,8 Dec 2013 14:18:40.634,1007.105
42,8 Dec 2013 21:36:07.479,8 Dec 2013 21:42:17.925,370.446
43,8 Dec 2013 23:12:31.362,8 Dec 2013 23:28:04.423,933.061
44,9 Dec 2013 09:59:35.318,9 Dec 2013 10:03:09.329,214.011
45,9 Dec 2013 11:32:41.518,9 Dec 2013 11:47:30.009,888.491
46,9 Dec 2013 13:10:55.176,9 Dec 2013 13:26:19.203,924.028
47,9 Dec 2013 14:51:19.001,9 Dec 2013 15:02:12.690,653.690
48,9 Dec 2013 22:23:59.735,9 Dec 2013 22:24:50.522,50.787
49,9 Dec 2013 23:57:07.973,10 Dec 2013 00:12:51.643,943.671

"Access","Start Time (UTCG)","Stop Time (UTCG)","Duration (sec)"
1,3 Dec 2013 03:07:44.084,3 Dec 2013 03:19:13.830,689.745
2,3 Dec 2013 04:46:57.011,3 Dec 2013 05:01:29.592,872.581
3,3 Dec 2013 12:10:20.076,3 Dec 2013 12:26:31.338,971.261
4,3 Dec 2013 13:57:03.412,3 Dec 2013 14:12:19.448,916.036
5,3 Dec 2013 15:42:15.849,3 Dec 2013 15:49:23.688,427.839
6,4 Dec 2013 03:52:36.065,4 Dec 2013 04:02:35.700,599.635
7,4 Dec 2013 05:30:46.897,4 Dec 2013 05:46:19.804,932.907
8,4 Dec 2013 12:49:12.663,4 Dec 2013 13:06:05.415,1012.753
9,4 Dec 2013 14:38:13.582,4 Dec 2013 14:50:40.397,746.814
10,4 Dec 2013 16:31:48.653,4 Dec 2013 16:37:46.583,357.930
11,4 Dec 2013 23:26:56.510,4 Dec 2013 23:34:59.008,482.498
12,5 Dec 2013 01:07:42.235,5 Dec 2013 01:21:19.598,817.362
13,5 Dec 2013 02:49:34.852,5 Dec 2013 03:05:24.785,949.934
14,5 Dec 2013 04:31:52.621,5 Dec 2013 04:48:15.903,983.282
15,5 Dec 2013 06:14:01.295,5 Dec 2013 06:30:21.370,980.075
16,5 Dec 2013 11:45:00.934,5 Dec 2013 11:56:35.652,694.718
17,5 Dec 2013 13:28:31.841,5 Dec 2013 13:45:14.964,1003.123
18,5 Dec 2013 18:58:40.578,5 Dec 2013 19:12:11.955,811.377
19,5 Dec 2013 20:40:19.251,5 Dec 2013 20:55:54.024,934.773
20,5 Dec 2013 22:22:43.122,5 Dec 2013 22:38:58.739,975.617
21,6 Dec 2013 00:05:37.563,6 Dec 2013 00:22:02.906,985.343
22,6 Dec 2013 01:49:23.486,6 Dec 2013 02:04:38.200,914.714
23,6 Dec 2013 03:34:19.987,6 Dec 2013 03:46:43.009,743.021
24,6 Dec 2013 05:19:59.905,6 Dec 2013 05:28:44.536,524.631
25,6 Dec 2013 07:04:11.683,6 Dec 2013 07:11:50.887,459.204
26,6 Dec 2013 08:45:45.718,6 Dec 2013 08:55:31.071,585.353
27,6 Dec 2013 12:22:28.641,6 Dec 2013 12:37:46.682,918.041
28,6 Dec 2013 14:08:25.837,6 Dec 2013 14:23:41.911,916.074
29,6 Dec 2013 19:44:21.302,6 Dec 2013 19:53:38.317,557.014
30,6 Dec 2013 21:23:52.504,6 Dec 2013 21:39:45.137,952.633
31,6 Dec 2013 23:08:20.055,6 Dec 2013 23:18:48.908,628.854
32,7 Dec 2013 11:16:39.434,7 Dec 2013 11:27:09.444,630.010
33,7 Dec 2013 13:01:14.694,7 Dec 2013 13:17:55.044,1000.350
34,7 Dec 2013 14:48:48.798,7 Dec 2013 15:01:19.064,750.265
35,7 Dec 2013 22:07:41.474,7 Dec 2013 22:23:49.196,967.722
36,8 Dec 2013 10:29:58.534,8 Dec 2013 10:33:03.236,184.702
37,8 Dec 2013 12:03:57.792,8 Dec 2013 12:18:12.578,854.786
38,8 Dec 2013 13:42:07.861,8 Dec 2013 13:57:59.037,951.176
39,8 Dec 2013 15:29:21.194,8 Dec 2013 15:38:30.772,549.578
40,8 Dec 2013 22:52:06.826,8 Dec 2013 23:08:16.444,969.618
41,9 Dec 2013 11:13:22.375,9 Dec 2013 11:27:20.829,838.454
42,9 Dec 2013 12:51:06.059,9 Dec 2013 13:06:46.855,940.797
43,9 Dec 2013 14:31:01.264,9 Dec 2013 14:43:19.258,737.994
44,9 Dec 2013 23:36:49.716,9 Dec 2013 23:52:58.011,968.294

"Access","Start Time (UTCG)","Stop Time (UTCG)","Duration (sec)"
1,3 Dec 2013 02:51:02.198,3 Dec 2013 02:56:09.843,307.645
2,3 Dec 2013 04:25:58.854,3 Dec 2013 04:41:50.195,951.341
3,3 Dec 2013 11:49:59.534,3 Dec 2013 12:04:52.048,892.514
4,3 Dec 2013 13:35:08.121,3 Dec 2013 13:51:15.381,967.260
5,3 Dec 2013 15:21:00.217,3 Dec 2013 15:30:29.079,568.862
6,4 Dec 2013 05:10:00.046,4 Dec 2013 05:26:16.143,976.097
7,4 Dec 2013 12:28:23.230,4 Dec 2013 12:44:42.016,978.787
8,4 Dec 2013 14:15:42.177,4 Dec 2013 14:29:56.056,853.879
9,4 Dec 2013 16:10:16.395,4 Dec 2013 16:14:56.710,280.315
10,4 Dec 2013 23:07:08.631,4 Dec 2013 23:13:10.693,362.063
11,5 Dec 2013 00:47:25.666,5 Dec 2013 01:00:17.429,771.763
12,5 Dec 2013 02:29:09.272,5 Dec 2013 02:44:42.930,933.659
13,5 Dec 2013 04:11:24.695,5 Dec 2013 04:27:46.079,981.384
14,5 Dec 2013 05:53:37.329,5 Dec 2013 06:09:56.334,979.005
15,5 Dec 2013 07:42:47.195,5 Dec 2013 07:49:09.285,382.090
16,5 Dec 2013 11:25:45.598,5 Dec 2013 11:32:48.058,422.460
17,5 Dec 2013 13:07:15.972,5 Dec 2013 13:24:12.418,1016.446
18,5 Dec 2013 14:57:55.364,5 Dec 2013 15:06:44.586,529.222
19,5 Dec 2013 18:38:51.861,5 Dec 2013 18:49:36.984,645.123
20,5 Dec 2013 20:19:53.475,5 Dec 2013 20:35:20.822,927.346
21,5 Dec 2013 22:02:12.331,5 Dec 2013 22:18:20.508,968.178
22,5 Dec 2013 23:44:59.366,6 Dec 2013 00:01:27.860,988.495
23,6 Dec 2013 01:28:32.999,6 Dec 2013 01:44:09.897,936.898
24,6 Dec 2013 03:13:15.100,6 Dec 2013 03:26:19.711,784.611
25,6 Dec 2013 04:58:53.294,6 Dec 2013 05:08:17.677,564.383
26,6 Dec 2013 06:43:35.573,6 Dec 2013 06:51:06.124,450.550
27,6 Dec 2013 08:25:35.304,6 Dec 2013 08:34:56.916,561.613
28,6 Dec 2013 12:01:49.088,6 Dec 2013 12:15:32.378,823.290
29,6 Dec 2013 13:46:44.101,6 Dec 2013 14:03:08.225,984.123
30,6 Dec 2013 21:03:20.831,6 Dec 2013 21:19:43.009,982.178
31,6 Dec 2013 22:47:29.436,6 Dec 2013 22:58:51.978,682.542
32,7 Dec 2013 10:57:18.295,7 Dec 2013 11:06:14.487,536.192
33,7 Dec 2013 12:40:14.055,7 Dec 2013 12:56:14.289,960.234
34,7 Dec 2013 14:26:37.136,7 Dec 2013 14:41:27.993,890.857
35,7 Dec 2013 21:47:26.673,7 Dec 2013 22:03:37.388,970.715
36,8 Dec 2013 11:44:32.634,8 Dec 2013 11:57:54.791,802.158
37,8 Dec 2013 13:22:24.124,8 Dec 2013 13:38:11.745,947.621
38,8 Dec 2013 15:06:34.672,8 Dec 2013 15:19:36.080,781.409
39,8 Dec 2013 22:32:05.662,8 Dec 2013 22:47:58.660,952.998
40,9 Dec 2013 10:54:13.649,9 Dec 2013 11:07:00.442,766.792
41,9 Dec 2013 12:31:21.686,9 Dec 2013 12:47:08.048,946.362
42,9 Dec 2013 14:10:51.330,9 Dec 2013 14:24:15.813,804.483
43,9 Dec 2013 15:55:10.334,9 Dec 2013 15:55:41.844,31.511
44,9 Dec 2013 23:16:58.196,9 Dec 2013 23:32:36.364,938.168
45,10 Dec 2013 01:03:10.258,10 Dec 2013 01:07:12.432,242.174

"Access","Start Time (UTCG)","Stop Time (UTCG)","Duration (sec)"
1,3 Dec 2013 04:05:34.159,3 Dec 2013 04:21:47.540,973.381
2,3 Dec 2013 11:30:10.723,3 Dec 2013 11:42:44.204,753.481
3,3 Dec 2013 13:13:28.907,3 Dec 2013 13:30:12.038,1003.130
4,3 Dec 2013 15:00:09.243,3 Dec 2013 15:11:15.027,665.784
5,4 Dec 2013 04:49:43.858,4 Dec 2013 05:05:56.078,972.220
6,4 Dec 2013 06:39:17.743,4 Dec 2013 06:42:11.549,173.807
7,4 Dec 2013 12:07:53.949,4 Dec 2013 12:22:59.581,905.631
8,4 Dec 2013 13:53:33.868,4 Dec 2013 14:09:08.405,934.537
9,4 Dec 2013 15:47:36.282,4 Dec 2013 15:53:11.422,335.140
10,4 Dec 2013 17:35:27.857,4 Dec 2013 17:38:54.830,206.973
11,4 Dec 2013 22:47:53.616,4 Dec 2013 22:50:45.604,171.989
12,5 Dec 2013 00:27:11.908,5 Dec 2013 00:39:09.458,717.550
13,5 Dec 2013 02:08:44.971,5 Dec 2013 02:23:57.888,912.917
14,5 Dec 2013 03:50:56.660,5 Dec 2013 04:07:14.214,977.554
15,5 Dec 2013 05:33:12.769,5 Dec 2013 05:49:33.991,981.223
16,5 Dec 2013 07:19:02.073,5 Dec 2013 07:30:20.701,678.627
17,5 Dec 2013 12:46:16.513,5 Dec 2013 13:02:54.205,997.692
18,5 Dec 2013 14:34:35.594,5 Dec 2013 14:46:55.969,740.375
19,5 Dec 2013 18:19:52.210,5 Dec 2013 18:25:40.834,348.624
20,5 Dec 2013 19:59:28.823,5 Dec 2013 20:14:49.631,920.807
21,5 Dec 2013 21:41:42.598,5 Dec 2013 21:57:42.549,959.951
22,5 Dec 2013 23:24:23.009,5 Dec 2013 23:40:51.713,988.703
23,6 Dec 2013 01:07:45.338,6 Dec 2013 01:23:40.226,954.888
24,6 Dec 2013 02:52:12.800,6 Dec 2013 03:05:55.792,822.992
25,6 Dec 2013 04:37:44.712,6 Dec 2013 04:47:52.785,608.072
26,6 Dec 2013 06:22:51.880,6 Dec 2013 06:30:24.738,452.857
27,6 Dec 2013 08:05:21.564,6 Dec 2013 08:14:12.124,530.560
28,6 Dec 2013 11:41:18.121,6 Dec 2013 11:52:49.276,691.155
29,6 Dec 2013 13:25:21.660,6 Dec 2013 13:42:15.860,1014.200
30,6 Dec 2013 20:43:04.102,6 Dec 2013 20:59:11.165,967.063
31,6 Dec 2013 22:26:45.937,6 Dec 2013 22:38:51.487,725.549
32,7 Dec 2013 00:12:08.736,7 Dec 2013 00:17:45.168,336.432
33,7 Dec 2013 10:38:13.372,7 Dec 2013 10:45:00.390,407.019
34,7 Dec 2013 12:19:14.346,7 Dec 2013 12:34:15.879,901.533
35,7 Dec 2013 14:04:55.378,7 Dec 2013 14:21:06.047,970.669
36,7 Dec 2013 21:27:31.551,7 Dec 2013 21:42:54.514,922.963
37,7 Dec 2013 23:11:07.257,7 Dec 2013 23:20:36.176,568.919
38,8 Dec 2013 11:25:15.552,8 Dec 2013 11:37:25.823,730.271
39,8 Dec 2013 13:02:42.681,8 Dec 2013 13:18:20.281,937.599
40,8 Dec 2013 14:44:38.660,8 Dec 2013 14:59:46.112,907.452
41,8 Dec 2013 22:12:30.199,8 Dec 2013 22:27:08.640,878.441
42,8 Dec 2013 23:55:00.106,9 Dec 2013 00:05:39.458,639.352
43,9 Dec 2013 10:35:19.817,9 Dec 2013 10:46:24.633,664.816
44,9 Dec 2013 12:11:42.361,9 Dec 2013 12:27:22.627,940.265
45,9 Dec 2013 13:50:47.520,9 Dec 2013 14:05:04.084,856.565
46,9 Dec 2013 15:32:37.530,9 Dec 2013 15:39:09.922,392.392
47,9 Dec 2013 22:57:37.622,9 Dec 2013 23:11:42.760,845.137
48,10 Dec 2013 00:39:27.963,10 Dec 2013 00:50:49.881,681.918

"Access","Start Time (UTCG)","Stop Time (UTCG)","Duration (sec)"
1,3 Dec 2013 03:45:39.684,3 Dec 2013 04:01:24.237,944.553
2,3 Dec 2013 05:32:12.653,3 Dec 2013 05:38:06.245,353.592
3,3 Dec 2013 11:11:23.693,3 Dec 2013 11:19:34.193,490.501
4,3 Dec 2013 12:52:07.140,3 Dec 2013 13:09:06.035,1018.895
5,3 Dec 2013 14:39:33.087,3 Dec 2013 14:51:50.764,737.677
6,4 Dec 2013 04:29:58.254,4 Dec 2013 04:45:18.752,920.498
7,4 Dec 2013 06:14:26.391,4 Dec 2013 06:25:12.922,646.531
8,4 Dec 2013 11:47:50.757,4 Dec 2013 12:00:47.896,777.139
9,4 Dec 2013 13:31:47.242,4 Dec 2013 13:48:15.531,988.288
10,4 Dec 2013 15:24:20.527,4 Dec 2013 15:32:10.441,469.913
11,4 Dec 2013 17:13:50.317,4 Dec 2013 17:19:39.624,349.307
12,5 Dec 2013 00:07:01.601,5 Dec 2013 00:17:54.765,653.163
13,5 Dec 2013 01:48:22.193,5 Dec 2013 02:03:09.281,887.089
14,5 Dec 2013 03:30:28.821,5 Dec 2013 03:46:40.179,971.358
15,5 Dec 2013 05:12:46.952,5 Dec 2013 05:29:09.811,982.858
16,5 Dec 2013 06:56:40.251,5 Dec 2013 07:10:38.918,838.667
17,5 Dec 2013 12:25:32.532,5 Dec 2013 12:41:16.882,944.350
18,5 Dec 2013 14:12:05.311,5 Dec 2013 14:26:38.248,872.937
19,5 Dec 2013 19:39:05.438,5 Dec 2013 19:54:20.674,915.236
20,5 Dec 2013 21:21:13.856,5 Dec 2013 21:37:05.234,951.378
21,5 Dec 2013 23:03:48.308,5 Dec 2013 23:20:14.642,986.334
22,6 Dec 2013 00:47:00.342,6 Dec 2013 01:03:09.158,968.817
23,6 Dec 2013 02:31:13.368,6 Dec 2013 02:45:31.027,857.658
24,6 Dec 2013 04:16:35.568,6 Dec 2013 04:27:29.098,653.529
25,6 Dec 2013 06:02:00.720,6 Dec 2013 06:09:47.423,466.703
26,6 Dec 2013 07:45:03.689,6 Dec 2013 07:53:25.349,501.659
27,6 Dec 2013 11:20:59.153,6 Dec 2013 11:29:30.537,511.384
28,6 Dec 2013 13:04:13.481,6 Dec 2013 13:21:05.660,1012.179
29,6 Dec 2013 14:53:34.750,6 Dec 2013 15:03:24.509,589.759
30,6 Dec 2013 20:23:02.734,6 Dec 2013 20:38:07.635,904.900
31,6 Dec 2013 22:06:01.368,6 Dec 2013 22:18:48.716,767.348
32,6 Dec 2013 23:50:32.836,6 Dec 2013 23:58:22.218,469.382
33,7 Dec 2013 10:20:02.485,7 Dec 2013 10:22:45.809,163.324
34,7 Dec 2013 11:58:11.952,7 Dec 2013 12:12:01.741,829.789
35,7 Dec 2013 13:43:31.597,7 Dec 2013 14:00:21.572,1009.975
36,7 Dec 2013 21:08:01.629,7 Dec 2013 21:21:33.726,812.096
37,7 Dec 2013 22:49:17.431,7 Dec 2013 23:02:33.574,796.142
38,8 Dec 2013 11:06:10.815,8 Dec 2013 11:16:41.128,630.313
39,8 Dec 2013 12:43:03.989,8 Dec 2013 12:58:23.910,919.922
40,8 Dec 2013 14:23:06.507,8 Dec 2013 14:39:25.000,978.493
41,8 Dec 2013 21:53:32.292,8 Dec 2013 22:05:33.939,721.646
42,8 Dec 2013 23:33:23.467,8 Dec 2013 23:47:18.053,834.586
43,9 Dec 2013 10:16:51.171,9 Dec 2013 10:25:23.361,512.190
44,9 Dec 2013 11:52:08.665,9 Dec 2013 12:07:30.193,921.528
45,9 Dec 2013 13:30:48.949,9 Dec 2013 13:45:45.035,896.086
46,9 Dec 2013 15:11:48.022,9 Dec 2013 15:20:52.633,544.611
47,9 Dec 2013 22:39:05.403,9 Dec 2013 22:50:00.073,654.670
48,10 Dec 2013 00:17:55.902,10 Dec 2013 00:32:13.942,858.041

"Access","Start Time (UTCG)","Stop Time (UTCG)","Duration (sec)"
1,3 Dec 2013 08:14:08.163,3 Dec 2013 08:27:49.504,821.341
2,3 Dec 2013 09:55:25.775,3 Dec 2013 10:07:35.994,730.218
3,3 Dec 2013 20:36:39.612,3 Dec 2013 20:50:30.702,831.091
4,3 Dec 2013 22:14:14.218,3 Dec 2013 22:29:52.906,938.688
5,3 Dec 2013 23:54:39.215,4 Dec 2013 00:06:00.101,680.886
6,4 Dec 2013 08:59:19.872,4 Dec 2013 09:12:26.357,786.485
7,4 Dec 2013 10:40:01.255,4 Dec 2013 10:52:45.736,764.481
8,4 Dec 2013 18:11:29.173,4 Dec 2013 18:18:04.474,395.301
9,4 Dec 2013 19:45:34.083,4 Dec 2013 19:59:57.037,862.954
10,4 Dec 2013 21:23:20.872,4 Dec 2013 21:38:58.114,937.242
11,4 Dec 2013 23:04:31.116,4 Dec 2013 23:15:05.907,634.791
12,5 Dec 2013 09:44:22.503,5 Dec 2013 09:56:57.844,755.341
13,5 Dec 2013 11:24:33.393,5 Dec 2013 11:38:03.693,810.300
14,5 Dec 2013 18:51:40.961,5 Dec 2013 19:07:27.018,946.057
15,5 Dec 2013 20:32:24.432,5 Dec 2013 20:47:59.337,934.905
16,5 Dec 2013 22:13:29.419,5 Dec 2013 22:25:15.468,706.049
17,6 Dec 2013 10:29:14.993,6 Dec 2013 10:41:00.916,705.923
18,6 Dec 2013 12:08:43.704,6 Dec 2013 12:23:16.923,873.219
19,6 Dec 2013 19:30:33.723,6 Dec 2013 19:47:05.978,992.256
20,6 Dec 2013 21:18:02.582,6 Dec 2013 21:32:37.168,874.586
21,6 Dec 2013 23:06:30.863,6 Dec 2013 23:11:50.008,319.145
22,7 Dec 2013 09:34:23.568,7 Dec 2013 09:38:34.029,250.461
23,7 Dec 2013 11:12:42.484,7 Dec 2013 11:24:17.674,695.190
24,7 Dec 2013 12:52:21.653,7 Dec 2013 13:08:00.785,939.132
25,7 Dec 2013 18:29:04.218,7 Dec 2013 18:35:15.061,370.843
26,7 Dec 2013 20:09:35.745,7 Dec 2013 20:26:32.890,1017.144
27,7 Dec 2013 21:59:50.338,7 Dec 2013 22:10:22.341,632.002
28,8 Dec 2013 01:37:32.476,8 Dec 2013 01:45:02.699,450.224
29,8 Dec 2013 03:21:43.695,8 Dec 2013 03:27:32.366,348.671
30,8 Dec 2013 05:03:57.165,8 Dec 2013 05:13:15.042,557.877
31,8 Dec 2013 06:45:41.303,8 Dec 2013 06:59:05.756,804.453
32,8 Dec 2013 08:27:50.541,8 Dec 2013 08:43:38.670,948.129
33,8 Dec 2013 10:10:33.332,8 Dec 2013 10:27:01.822,988.490
34,8 Dec 2013 11:53:34.052,8 Dec 2013 12:09:40.651,966.599
35,8 Dec 2013 13:36:15.953,8 Dec 2013 13:51:49.191,933.238
36,8 Dec 2013 19:04:35.734,8 Dec 2013 19:17:56.342,800.608
37,8 Dec 2013 20:49:08.548,8 Dec 2013 21:05:28.636,980.088
38,9 Dec 2013 02:20:26.489,9 Dec 2013 02:33:26.421,779.932
39,9 Dec 2013 04:01:41.705,9 Dec 2013 04:18:01.922,980.217
40,9 Dec 2013 05:44:05.790,9 Dec 2013 06:00:27.304,981.514
41,9 Dec 2013 07:27:23.446,9 Dec 2013 07:42:46.315,922.869
42,9 Dec 2013 09:12:07.853,9 Dec 2013 09:24:28.378,740.525
43,9 Dec 2013 10:59:35.516,9 Dec 2013 11:04:42.699,307.183
44,9 Dec 2013 16:10:47.462,9 Dec 2013 16:16:45.065,357.603
45,9 Dec 2013 17:59:00.957,9 Dec 2013 18:04:51.492,350.535
46,9 Dec 2013 19:42:38.017,9 Dec 2013 19:58:37.755,959.739
47,9 Dec 2013 21:29:16.557,9 Dec 2013 21:43:35.828,859.271
48,10 Dec 2013 03:06:31.837,10 Dec 2013 03:15:01.055,509.218
49,10 Dec 2013 04:45:24.517,10 Dec 2013 05:01:16.047,951.531

"Access","Start Time (UTCG)","Stop Time (UTCG)","Duration (sec)"
1,3 Dec 2013 07:55:43.331,3 Dec 2013 08:05:48.518,605.187
2,3 Dec 2013 09:34:08.306,3 Dec 2013 09:48:49.860,881.554
3,3 Dec 2013 20:17:35.456,3 Dec 2013 20:30:11.769,756.313
4,3 Dec 2013 21:54:29.598,3 Dec 2013 22:10:15.000,945.402
5,3 Dec 2013 23:34:17.147,3 Dec 2013 23:47:07.375,770.228
6,4 Dec 2013 08:41:23.151,4 Dec 2013 08:50:15.633,532.482
7,4 Dec 2013 10:18:46.702,4 Dec 2013 10:33:46.412,899.710
8,4 Dec 2013 19:26:21.733,4 Dec 2013 19:39:53.426,811.692
9,4 Dec 2013 21:03:34.137,4 Dec 2013 21:19:20.069,945.932
10,4 Dec 2013 22:43:51.083,4 Dec 2013 22:56:17.237,746.154
11,5 Dec 2013 09:26:48.006,5 Dec 2013 09:34:38.143,470.137
12,5 Dec 2013 11:03:23.313,5 Dec 2013 11:18:45.690,922.378
13,5 Dec 2013 18:31:35.243,5 Dec 2013 18:45:44.417,849.174
14,5 Dec 2013 20:12:32.377,5 Dec 2013 20:28:18.692,946.315
15,5 Dec 2013 21:52:56.676,5 Dec 2013 22:06:02.261,785.585
16,6 Dec 2013 10:12:14.725,6 Dec 2013 10:18:15.221,360.496
17,6 Dec 2013 11:47:42.688,6 Dec 2013 12:03:34.614,951.926
18,6 Dec 2013 19:10:01.502,6 Dec 2013 19:25:33.428,931.926
19,6 Dec 2013 20:55:57.619,6 Dec 2013 21:11:35.838,938.219
20,6 Dec 2013 22:44:57.491,6 Dec 2013 22:53:02.915,485.424
21,7 Dec 2013 10:52:44.969,7 Dec 2013 11:03:34.187,649.217
22,7 Dec 2013 12:31:33.737,7 Dec 2013 12:47:52.805,979.068
23,7 Dec 2013 19:48:35.966,7 Dec 2013 20:05:16.974,1001.008
24,7 Dec 2013 21:36:55.605,7 Dec 2013 21:49:52.655,777.049
25,8 Dec 2013 01:16:40.490,8 Dec 2013 01:24:51.522,491.032
26,8 Dec 2013 03:01:01.719,8 Dec 2013 03:06:44.717,342.998
27,8 Dec 2013 04:43:36.254,8 Dec 2013 04:51:59.998,503.744
28,8 Dec 2013 06:25:19.190,8 Dec 2013 06:38:01.181,761.991
29,8 Dec 2013 08:07:21.942,8 Dec 2013 08:22:50.456,928.513
30,8 Dec 2013 09:49:58.479,8 Dec 2013 10:06:25.499,987.020
31,8 Dec 2013 11:32:58.054,8 Dec 2013 11:49:11.467,973.413
32,8 Dec 2013 13:15:47.018,8 Dec 2013 13:31:25.959,938.941
33,8 Dec 2013 15:03:25.519,8 Dec 2013 15:11:41.522,496.003
34,8 Dec 2013 18:44:34.568,8 Dec 2013 18:54:59.619,625.051
35,8 Dec 2013 20:27:42.793,8 Dec 2013 20:44:35.397,1012.605
36,8 Dec 2013 22:21:05.802,8 Dec 2013 22:24:38.895,213.093
37,9 Dec 2013 02:00:57.156,9 Dec 2013 02:10:37.519,580.364
38,9 Dec 2013 03:41:18.119,9 Dec 2013 03:57:35.280,977.161
39,9 Dec 2013 05:23:33.316,9 Dec 2013 05:39:57.596,984.280
40,9 Dec 2013 07:06:38.398,9 Dec 2013 07:22:20.615,942.217
41,9 Dec 2013 08:51:01.552,9 Dec 2013 09:04:12.236,790.684
42,9 Dec 2013 10:37:42.662,9 Dec 2013 10:44:56.169,433.507
43,9 Dec 2013 15:51:19.680,9 Dec 2013 15:55:16.887,237.207
44,9 Dec 2013 17:37:54.906,9 Dec 2013 17:41:32.747,217.841
45,9 Dec 2013 19:21:49.309,9 Dec 2013 19:36:38.524,889.216
46,9 Dec 2013 21:07:23.000,9 Dec 2013 21:23:16.058,953.059
47,10 Dec 2013 04:24:55.254,10 Dec 2013 04:41:15.414,980.159

"Access","Start Time (UTCG)","Stop Time (UTCG)","Duration (sec)"
1,3 Dec 2013 09:13:27.997,3 Dec 2013 09:29:21.478,953.481
2,3 Dec 2013 19:58:47.043,3 Dec 2013 20:09:37.948,650.905
3,3 Dec 2013 21:34:51.164,3 Dec 2013 21:50:30.200,939.036
4,3 Dec 2013 23:14:05.447,3 Dec 2013 23:28:02.182,836.735
5,4 Dec 2013 09:58:09.953,4 Dec 2013 10:14:09.822,959.869
6,4 Dec 2013 19:07:17.910,4 Dec 2013 19:19:43.456,745.545
7,4 Dec 2013 20:43:54.146,4 Dec 2013 20:59:36.707,942.562
8,4 Dec 2013 22:23:27.936,4 Dec 2013 22:37:11.973,824.037
9,5 Dec 2013 10:42:49.938,5 Dec 2013 10:58:57.431,967.493
10,5 Dec 2013 18:12:09.676,5 Dec 2013 18:23:27.935,678.259
11,5 Dec 2013 19:52:44.824,5 Dec 2013 20:08:35.532,950.708
12,5 Dec 2013 21:32:36.293,5 Dec 2013 21:46:39.769,843.476
13,6 Dec 2013 11:27:15.305,6 Dec 2013 11:43:30.361,975.056
14,6 Dec 2013 18:49:55.556,6 Dec 2013 19:03:37.540,821.983
15,6 Dec 2013 20:34:09.352,6 Dec 2013 20:50:35.398,986.046
16,6 Dec 2013 22:23:56.337,6 Dec 2013 22:33:49.587,593.250
17,7 Dec 2013 10:32:51.520,7 Dec 2013 10:42:42.953,591.433
18,7 Dec 2013 12:11:16.095,7 Dec 2013 12:27:29.835,973.740
19,7 Dec 2013 14:00:00.200,7 Dec 2013 14:05:08.948,308.748
20,7 Dec 2013 19:27:54.395,7 Dec 2013 19:43:44.392,949.997
21,7 Dec 2013 21:14:30.640,7 Dec 2013 21:29:14.931,884.291
22,8 Dec 2013 00:55:51.774,8 Dec 2013 01:04:43.488,531.714
23,8 Dec 2013 02:40:13.538,8 Dec 2013 02:46:07.268,353.730
24,8 Dec 2013 04:23:13.769,8 Dec 2013 04:30:46.049,452.280
25,8 Dec 2013 06:04:58.005,8 Dec 2013 06:16:53.394,715.389
26,8 Dec 2013 07:46:54.763,8 Dec 2013 08:01:59.209,904.446
27,8 Dec 2013 09:29:24.624,8 Dec 2013 09:45:47.238,982.614
28,8 Dec 2013 11:12:21.654,8 Dec 2013 11:28:41.097,979.443
29,8 Dec 2013 12:55:16.083,8 Dec 2013 13:11:01.407,945.324
30,8 Dec 2013 14:40:11.747,8 Dec 2013 14:52:16.175,724.428
31,8 Dec 2013 18:25:36.013,8 Dec 2013 18:30:36.568,300.554
32,8 Dec 2013 20:06:34.059,8 Dec 2013 20:23:26.564,1012.505
33,8 Dec 2013 21:56:11.060,8 Dec 2013 22:06:18.744,607.685
34,9 Dec 2013 01:44:10.796,9 Dec 2013 01:44:32.738,21.941
35,9 Dec 2013 03:20:56.073,9 Dec 2013 03:37:10.098,974.025
36,9 Dec 2013 05:03:02.753,9 Dec 2013 05:19:27.900,985.147
37,9 Dec 2013 06:45:56.393,9 Dec 2013 07:01:53.635,957.242
38,9 Dec 2013 08:30:00.481,9 Dec 2013 08:43:53.703,833.221
39,9 Dec 2013 10:16:05.700,9 Dec 2013 10:24:57.243,531.543
40,9 Dec 2013 17:15:31.174,9 Dec 2013 17:19:28.718,237.545
41,9 Dec 2013 19:01:05.352,9 Dec 2013 19:14:16.111,790.759
42,9 Dec 2013 20:45:52.141,9 Dec 2013 21:02:34.616,1002.475
43,10 Dec 2013 04:04:42.109,10 Dec 2013 04:20:44.811,962.702
44,10 Dec 2013 05:50:03.812,10 Dec 2013 05:56:43.874,400.063

"Access","Start Time (UTCG)","Stop Time (UTCG)","Duration (sec)"
1,3 Dec 2013 01:27:26.561,3 Dec 2013 01:37:11.501,584.940
2,3 Dec 2013 08:53:14.294,3 Dec 2013 09:09:22.060,967.766
3,3 Dec 2013 19:40:24.977,3 Dec 2013 19:48:39.023,494.046
4,3 Dec 2013 21:15:19.365,3 Dec 2013 21:30:38.343,918.978
5,3 Dec 2013 22:54:01.757,3 Dec 2013 23:08:47.157,885.400
6,4 Dec 2013 00:36:25.431,4 Dec 2013 00:42:36.130,370.700
7,4 Dec 2013 09:38:02.100,4 Dec 2013 09:54:05.186,963.086
8,4 Dec 2013 18:48:24.426,4 Dec 2013 18:59:25.397,660.972
9,4 Dec 2013 20:24:20.725,4 Dec 2013 20:39:48.388,927.663
10,4 Dec 2013 22:03:16.670,4 Dec 2013 22:17:55.384,878.714
11,5 Dec 2013 10:22:46.694,5 Dec 2013 10:38:45.192,958.497
12,5 Dec 2013 17:54:28.011,5 Dec 2013 17:59:31.294,303.282
13,5 Dec 2013 19:33:01.134,5 Dec 2013 19:48:50.252,949.118
14,5 Dec 2013 21:12:25.270,5 Dec 2013 21:27:10.787,885.517
15,5 Dec 2013 22:55:43.947,5 Dec 2013 23:02:43.078,419.131
16,6 Dec 2013 11:07:18.202,6 Dec 2013 11:23:06.642,948.440
17,6 Dec 2013 12:54:00.740,6 Dec 2013 13:00:09.794,369.053
18,6 Dec 2013 18:30:31.908,6 Dec 2013 18:40:58.517,626.609
19,6 Dec 2013 20:12:38.957,6 Dec 2013 20:29:32.505,1013.547
20,6 Dec 2013 22:02:46.451,6 Dec 2013 22:14:24.593,698.142
21,7 Dec 2013 10:13:04.695,7 Dec 2013 10:21:41.368,516.673
22,7 Dec 2013 11:51:28.857,7 Dec 2013 12:06:50.661,921.804
23,7 Dec 2013 13:35:57.063,7 Dec 2013 13:47:12.554,675.491
24,7 Dec 2013 19:07:33.688,7 Dec 2013 19:21:48.172,854.485
25,7 Dec 2013 20:52:31.126,7 Dec 2013 21:08:29.721,958.596
26,7 Dec 2013 22:48:09.457,7 Dec 2013 22:50:04.253,114.795
27,8 Dec 2013 00:35:21.031,8 Dec 2013 00:44:35.807,554.776
28,8 Dec 2013 02:19:21.003,8 Dec 2013 02:25:38.978,377.975
29,8 Dec 2013 04:02:48.517,8 Dec 2013 04:09:35.184,406.668
30,8 Dec 2013 05:44:37.508,8 Dec 2013 05:55:42.709,665.201
31,8 Dec 2013 07:26:28.975,8 Dec 2013 07:41:04.752,875.777
32,8 Dec 2013 09:08:51.944,8 Dec 2013 09:25:06.835,974.890
33,8 Dec 2013 10:51:45.194,8 Dec 2013 11:08:09.450,984.256
34,8 Dec 2013 12:34:43.405,8 Dec 2013 12:50:35.634,952.229
35,8 Dec 2013 14:17:58.379,8 Dec 2013 14:32:20.252,861.873
36,8 Dec 2013 19:45:40.024,8 Dec 2013 20:02:00.111,980.087
37,8 Dec 2013 21:33:11.235,8 Dec 2013 21:46:26.516,795.282
38,9 Dec 2013 03:00:33.712,9 Dec 2013 03:16:38.533,964.821
39,9 Dec 2013 04:42:34.005,9 Dec 2013 04:58:58.520,984.515
40,9 Dec 2013 06:25:17.125,9 Dec 2013 06:41:25.590,968.464
41,9 Dec 2013 08:09:04.084,9 Dec 2013 08:23:33.060,868.976
42,9 Dec 2013 09:54:38.894,9 Dec 2013 10:04:51.712,612.817
43,9 Dec 2013 16:52:08.764,9 Dec 2013 16:58:33.031,384.267
44,9 Dec 2013 18:40:24.516,9 Dec 2013 18:51:29.187,664.671
45,9 Dec 2013 20:24:36.950,9 Dec 2013 20:41:34.416,1017.466
46,9 Dec 2013 22:15:42.306,9 Dec 2013 22:21:59.131,376.824
47,10 Dec 2013 03:44:46.071,10 Dec 2013 03:59:41.854,895.782
48,10 Dec 2013 05:27:31.668,10 Dec 2013 05:39:28.255,716.587

"Access","Start Time (UTCG)","Stop Time (UTCG)","Duration (sec)"
1,3 Dec 2013 01:04:53.757,3 Dec 2013 01:18:12.206,798.450
2,3 Dec 2013 08:33:25.789,3 Dec 2013 08:48:53.300,927.510
3,3 Dec 2013 10:18:07.837,3 Dec 2013 10:24:51.258,403.421
4,3 Dec 2013 19:23:23.741,3 Dec 2013 19:26:20.932,177.192
5,3 Dec 2013 20:55:55.046,3 Dec 2013 21:10:38.874,883.829
6,3 Dec 2013 22:34:04.875,3 Dec 2013 22:49:23.778,918.903
7,4 Dec 2013 00:15:16.803,4 Dec 2013 00:24:34.947,558.144
8,4 Dec 2013 09:18:22.828,4 Dec 2013 09:33:33.129,910.301
9,4 Dec 2013 11:02:30.409,4 Dec 2013 11:10:30.616,480.207
10,4 Dec 2013 18:29:44.961,4 Dec 2013 18:38:55.617,550.656
11,4 Dec 2013 20:04:53.939,4 Dec 2013 20:19:55.211,901.273
12,4 Dec 2013 21:43:14.782,4 Dec 2013 21:58:30.223,915.441
13,4 Dec 2013 23:25:41.034,4 Dec 2013 23:33:24.693,463.659
14,5 Dec 2013 10:03:14.431,5 Dec 2013 10:18:08.236,893.806
15,5 Dec 2013 11:46:44.851,5 Dec 2013 11:56:27.536,582.686
16,5 Dec 2013 19:12:13.317,5 Dec 2013 19:28:51.646,998.329
17,5 Dec 2013 20:52:21.741,5 Dec 2013 21:07:36.953,915.212
18,5 Dec 2013 22:34:20.216,5 Dec 2013 22:44:13.944,593.728
19,6 Dec 2013 10:47:54.076,6 Dec 2013 11:02:20.636,866.560
20,6 Dec 2013 12:30:31.269,6 Dec 2013 12:42:26.132,714.863
21,6 Dec 2013 18:14:22.676,6 Dec 2013 18:14:59.759,37.083
22,6 Dec 2013 19:51:26.864,6 Dec 2013 20:08:23.936,1017.072
23,6 Dec 2013 21:40:21.059,6 Dec 2013 21:53:43.446,802.387
24,7 Dec 2013 09:53:29.733,7 Dec 2013 10:00:24.102,414.369
25,7 Dec 2013 11:32:17.732,7 Dec 2013 11:45:49.392,811.660
26,7 Dec 2013 13:13:44.708,7 Dec 2013 13:27:50.987,846.280
27,7 Dec 2013 18:47:43.002,7 Dec 2013 18:59:14.307,691.305
28,7 Dec 2013 20:30:53.658,7 Dec 2013 20:47:36.261,1002.603
29,7 Dec 2013 22:23:21.588,7 Dec 2013 22:30:39.724,438.136
30,8 Dec 2013 00:15:20.879,8 Dec 2013 00:20:49.408,328.529
31,8 Dec 2013 01:58:26.560,8 Dec 2013 02:05:18.051,411.491
32,8 Dec 2013 03:42:19.002,8 Dec 2013 03:48:29.795,370.793
33,8 Dec 2013 05:24:17.372,8 Dec 2013 05:34:29.655,612.284
34,8 Dec 2013 07:06:04.516,8 Dec 2013 07:20:06.957,842.441
35,8 Dec 2013 08:48:20.556,8 Dec 2013 09:04:24.056,963.500
36,8 Dec 2013 10:31:08.992,8 Dec 2013 10:47:36.414,987.422
37,8 Dec 2013 12:14:09.280,8 Dec 2013 12:30:08.707,959.426
38,8 Dec 2013 13:56:42.683,8 Dec 2013 14:12:09.661,926.978
39,8 Dec 2013 19:25:00.018,8 Dec 2013 19:40:12.219,912.200
40,8 Dec 2013 21:10:55.559,8 Dec 2013 21:26:06.510,910.951
41,9 Dec 2013 02:40:22.749,9 Dec 2013 02:55:21.196,898.447
42,9 Dec 2013 04:22:07.005,9 Dec 2013 04:38:29.762,982.757
43,9 Dec 2013 06:04:40.333,9 Dec 2013 06:20:56.725,976.392
44,9 Dec 2013 07:48:11.882,9 Dec 2013 08:03:10.529,898.647
45,9 Dec 2013 09:33:20.022,9 Dec 2013 09:44:41.739,681.716
46,9 Dec 2013 11:22:25.676,9 Dec 2013 11:23:35.190,69.514
47,9 Dec 2013 16:30:28.091,9 Dec 2013 16:37:53.159,445.068
48,9 Dec 2013 18:19:44.640,9 Dec 2013 18:28:18.702,514.062
49,9 Dec 2013 20:03:33.196,9 Dec 2013 20:20:15.797,1002.600
50,9 Dec 2013 21:51:46.939,9 Dec 2013 22:03:24.395,697.456
51,10 Dec 2013 03:25:13.927,10 Dec 2013 03:37:57.276,763.349
52,10 Dec 2013 05:06:13.113,10 Dec 2013 05:20:44.000,870.886

