Raw and processed data/perplane variations/us_greatcircle_15sat/Aircraft-B747LAX_Heathrow-Transmitter-adsb_out6-To-Satellite-700km_p1_1-Receiver-adsb_satrcvr2 Access.csv

"Access","Start Time (UTCG)","Stop Time (UTCG)","Duration (sec)"
1,3 Dec 2013 01:16:46.370,3 Dec 2013 01:32:32.205,945.836
2,3 Dec 2013 02:55:55.871,3 Dec 2013 03:11:51.364,955.493
3,3 Dec 2013 04:34:22.357,3 Dec 2013 04:50:11.494,949.137
4,3 Dec 2013 06:12:51.422,3 Dec 2013 06:28:49.455,958.033
5,3 Dec 2013 07:52:47.535,3 Dec 2013 08:08:17.986,930.452
6,3 Dec 2013 09:35:26.109,3 Dec 2013 09:48:50.484,804.374
7,3 Dec 2013 11:18:32.815,3 Dec 2013 11:33:52.509,919.694
8,3 Dec 2013 13:00:26.754,3 Dec 2013 13:14:06.545,819.791
9,3 Dec 2013 19:19:31.225,3 Dec 2013 19:23:21.379,230.154
10,3 Dec 2013 20:53:26.847,3 Dec 2013 21:08:45.303,918.456
11,3 Dec 2013 22:34:23.239,3 Dec 2013 22:48:48.570,865.331
12,4 Dec 2013 00:13:42.008,4 Dec 2013 00:27:17.048,815.041
13,4 Dec 2013 01:51:17.615,4 Dec 2013 02:05:21.196,843.581
14,4 Dec 2013 03:28:17.320,4 Dec 2013 03:43:47.025,929.704
15,4 Dec 2013 05:06:45.867,4 Dec 2013 05:22:13.657,927.790
16,4 Dec 2013 06:50:46.607,4 Dec 2013 07:04:32.252,825.645
17,4 Dec 2013 08:36:33.725,4 Dec 2013 08:52:48.932,975.207
18,4 Dec 2013 10:20:25.054,4 Dec 2013 10:35:14.456,889.402
19,5 Dec 2013 02:26:18.474,5 Dec 2013 02:41:09.394,890.920
20,5 Dec 2013 04:10:53.354,5 Dec 2013 04:28:01.904,1028.550
21,5 Dec 2013 05:57:22.579,5 Dec 2013 06:14:27.823,1025.245
22,5 Dec 2013 07:43:02.513,5 Dec 2013 07:57:58.037,895.524
23,6 Dec 2013 01:35:52.245,6 Dec 2013 01:51:41.710,949.465
24,6 Dec 2013 03:20:49.739,6 Dec 2013 03:37:54.013,1024.274
25,6 Dec 2013 05:07:01.228,6 Dec 2013 05:22:58.825,957.597
26,6 Dec 2013 23:00:58.117,6 Dec 2013 23:15:40.955,882.838
27,7 Dec 2013 00:44:15.497,7 Dec 2013 01:01:20.295,1024.798
28,7 Dec 2013 02:30:30.030,7 Dec 2013 02:46:23.245,953.215
29,7 Dec 2013 04:08:56.075,7 Dec 2013 04:24:22.903,926.828
30,7 Dec 2013 05:47:06.464,7 Dec 2013 06:02:23.649,917.186
31,7 Dec 2013 07:25:47.064,7 Dec 2013 07:41:37.337,950.273
32,7 Dec 2013 09:06:02.729,7 Dec 2013 09:22:22.927,980.198
33,7 Dec 2013 10:48:09.585,7 Dec 2013 11:04:41.326,991.741
34,7 Dec 2013 12:31:07.373,7 Dec 2013 12:46:41.064,933.691
35,7 Dec 2013 20:23:44.369,7 Dec 2013 20:38:19.593,875.225

"Access","Start Time (UTCG)","Stop Time (UTCG)","Duration (sec)"
1,3 Dec 2013 01:00:00.000,3 Dec 2013 01:12:25.202,745.202
2,3 Dec 2013 02:36:10.043,3 Dec 2013 02:52:07.247,957.203
3,3 Dec 2013 04:14:43.048,3 Dec 2013 04:30:31.915,948.868
4,3 Dec 2013 05:53:05.594,3 Dec 2013 06:09:02.283,956.689
5,3 Dec 2013 07:32:37.131,3 Dec 2013 07:48:19.706,942.575
6,3 Dec 2013 09:14:39.682,3 Dec 2013 09:28:37.587,837.905
7,3 Dec 2013 10:58:34.077,3 Dec 2013 11:12:28.690,834.613
8,3 Dec 2013 12:39:45.411,3 Dec 2013 12:54:57.134,911.724
9,3 Dec 2013 20:33:06.045,3 Dec 2013 20:48:30.604,924.559
10,3 Dec 2013 22:14:19.034,3 Dec 2013 22:28:57.019,877.985
11,3 Dec 2013 23:53:59.003,4 Dec 2013 00:07:39.884,820.881
12,4 Dec 2013 01:31:52.852,4 Dec 2013 01:45:43.012,830.160
13,4 Dec 2013 03:08:50.432,4 Dec 2013 03:24:04.414,913.981
14,4 Dec 2013 04:46:50.750,4 Dec 2013 05:02:34.867,944.117
15,4 Dec 2013 06:29:02.460,4 Dec 2013 06:42:54.439,831.979
16,4 Dec 2013 08:15:42.749,4 Dec 2013 08:31:25.716,942.966
17,4 Dec 2013 09:59:34.094,4 Dec 2013 10:15:27.914,953.821
18,5 Dec 2013 02:06:10.617,5 Dec 2013 02:19:19.869,789.252
19,5 Dec 2013 03:49:39.025,5 Dec 2013 04:06:44.680,1025.655
20,5 Dec 2013 05:36:08.797,5 Dec 2013 05:53:14.506,1025.709
21,5 Dec 2013 07:21:52.649,5 Dec 2013 07:37:46.994,954.344
22,6 Dec 2013 01:15:25.176,6 Dec 2013 01:30:20.241,895.065
23,6 Dec 2013 02:59:38.220,6 Dec 2013 03:16:40.595,1022.374
24,6 Dec 2013 04:45:45.058,6 Dec 2013 05:02:14.026,988.969
25,6 Dec 2013 06:33:58.570,6 Dec 2013 06:42:19.192,500.622
26,6 Dec 2013 22:41:16.516,6 Dec 2013 22:54:20.852,784.336
27,7 Dec 2013 00:23:10.123,7 Dec 2013 00:40:10.678,1020.555
28,7 Dec 2013 02:09:22.532,7 Dec 2013 02:26:29.814,1027.282
29,7 Dec 2013 03:49:16.561,7 Dec 2013 04:04:50.250,933.689
30,7 Dec 2013 05:27:28.190,7 Dec 2013 05:42:43.018,914.828
31,7 Dec 2013 07:05:57.036,7 Dec 2013 07:21:39.405,942.368
32,7 Dec 2013 08:45:50.217,7 Dec 2013 09:02:06.289,976.072
33,7 Dec 2013 10:27:36.731,7 Dec 2013 10:44:06.667,989.936
34,7 Dec 2013 12:10:47.103,7 Dec 2013 12:26:58.309,971.206
35,7 Dec 2013 20:04:32.533,7 Dec 2013 20:17:16.298,763.765
36,7 Dec 2013 21:44:47.006,7 Dec 2013 21:57:56.203,789.197

"Access","Start Time (UTCG)","Stop Time (UTCG)","Duration (sec)"
1,3 Dec 2013 02:16:22.244,3 Dec 2013 02:32:20.027,957.783
2,3 Dec 2013 03:55:03.143,3 Dec 2013 04:10:52.735,949.592
3,3 Dec 2013 05:33:22.515,3 Dec 2013 05:49:17.094,954.578
4,3 Dec 2013 07:12:32.941,3 Dec 2013 07:28:23.786,950.845
5,3 Dec 2013 08:54:00.558,3 Dec 2013 09:08:28.254,867.695
6,3 Dec 2013 10:38:22.214,3 Dec 2013 10:50:27.574,725.360
7,3 Dec 2013 12:19:15.790,3 Dec 2013 12:35:18.847,963.058
8,3 Dec 2013 20:13:26.547,3 Dec 2013 20:28:09.719,883.172
9,3 Dec 2013 21:54:11.092,3 Dec 2013 22:09:01.092,890.001
10,3 Dec 2013 23:34:11.543,3 Dec 2013 23:48:01.141,829.598
11,4 Dec 2013 01:12:25.559,4 Dec 2013 01:26:05.838,820.279
12,4 Dec 2013 02:49:26.076,4 Dec 2013 03:04:22.283,896.207
13,4 Dec 2013 04:27:03.455,4 Dec 2013 04:42:54.199,950.745
14,4 Dec 2013 06:07:34.659,4 Dec 2013 06:21:26.038,831.379
15,4 Dec 2013 07:54:44.923,4 Dec 2013 08:09:49.732,904.809
16,4 Dec 2013 09:38:48.208,4 Dec 2013 09:55:17.726,989.518
17,4 Dec 2013 11:25:17.516,4 Dec 2013 11:30:19.672,302.155
18,5 Dec 2013 01:46:37.807,5 Dec 2013 01:56:59.576,621.769
19,5 Dec 2013 03:28:31.583,5 Dec 2013 03:45:27.144,1015.561
20,5 Dec 2013 05:14:51.662,5 Dec 2013 05:31:57.306,1025.645
21,5 Dec 2013 07:00:46.250,5 Dec 2013 07:17:17.094,990.844
22,5 Dec 2013 08:48:22.980,5 Dec 2013 08:55:02.122,399.143
23,6 Dec 2013 00:55:18.493,6 Dec 2013 01:08:49.266,810.773
24,6 Dec 2013 02:38:30.249,6 Dec 2013 02:55:26.802,1016.554
25,6 Dec 2013 04:24:30.671,6 Dec 2013 04:41:18.403,1007.732
26,6 Dec 2013 06:11:35.524,6 Dec 2013 06:23:24.519,708.994
27,6 Dec 2013 22:22:12.446,6 Dec 2013 22:32:39.901,627.455
28,7 Dec 2013 00:02:14.687,7 Dec 2013 00:19:03.772,1009.085
29,7 Dec 2013 01:48:03.582,7 Dec 2013 02:05:09.344,1025.763
30,7 Dec 2013 03:29:36.142,7 Dec 2013 03:45:16.909,940.766
31,7 Dec 2013 05:07:50.467,7 Dec 2013 05:23:05.158,914.691
32,7 Dec 2013 06:46:10.532,7 Dec 2013 07:01:45.153,934.620
33,7 Dec 2013 08:25:42.468,7 Dec 2013 08:41:53.426,970.958
34,7 Dec 2013 10:07:07.233,7 Dec 2013 10:23:35.316,988.084
35,7 Dec 2013 11:50:04.395,7 Dec 2013 12:06:41.538,997.142
36,7 Dec 2013 13:33:59.792,7 Dec 2013 13:42:16.207,496.415
37,7 Dec 2013 19:46:04.556,7 Dec 2013 19:55:48.538,583.982
38,7 Dec 2013 21:24:00.060,7 Dec 2013 21:40:41.421,1001.360

"Access","Start Time (UTCG)","Stop Time (UTCG)","Duration (sec)"
1,3 Dec 2013 01:56:32.404,3 Dec 2013 02:12:28.936,956.532
2,3 Dec 2013 03:35:22.196,3 Dec 2013 03:51:13.370,951.174
3,3 Dec 2013 05:13:41.437,3 Dec 2013 05:29:33.726,952.288
4,3 Dec 2013 06:52:34.370,3 Dec 2013 07:08:30.139,955.769
5,3 Dec 2013 08:33:28.916,3 Dec 2013 08:48:22.073,893.157
6,3 Dec 2013 10:17:18.515,3 Dec 2013 10:29:29.472,730.957
7,3 Dec 2013 11:58:54.494,3 Dec 2013 12:15:15.136,980.642
8,3 Dec 2013 13:43:19.286,3 Dec 2013 13:50:00.823,401.537
9,3 Dec 2013 19:54:24.085,3 Dec 2013 20:07:18.262,774.176
10,3 Dec 2013 21:33:59.602,3 Dec 2013 21:49:00.565,900.963
11,3 Dec 2013 23:14:19.670,3 Dec 2013 23:28:20.102,840.432
12,4 Dec 2013 00:52:54.998,4 Dec 2013 01:06:29.423,814.425
13,4 Dec 2013 02:30:03.201,4 Dec 2013 02:44:40.905,877.703
14,4 Dec 2013 04:07:22.816,4 Dec 2013 04:23:12.328,949.512
15,4 Dec 2013 05:47:05.592,4 Dec 2013 06:01:21.560,855.968
16,4 Dec 2013 07:33:37.680,4 Dec 2013 07:48:05.144,867.464
17,4 Dec 2013 09:18:04.343,4 Dec 2013 09:34:46.674,1002.331
18,4 Dec 2013 11:02:48.299,4 Dec 2013 11:13:09.634,621.334
19,5 Dec 2013 01:28:45.694,5 Dec 2013 01:34:40.712,355.018
20,5 Dec 2013 03:07:33.677,5 Dec 2013 03:24:07.481,993.805
21,5 Dec 2013 04:53:32.125,5 Dec 2013 05:10:38.535,1026.411
22,5 Dec 2013 06:39:40.333,5 Dec 2013 06:56:31.949,1011.616
23,5 Dec 2013 08:25:56.949,5 Dec 2013 08:36:57.057,660.108
24,6 Dec 2013 00:35:41.937,6 Dec 2013 00:46:59.372,677.435
25,6 Dec 2013 02:17:28.116,6 Dec 2013 02:34:12.915,1004.799
26,6 Dec 2013 04:03:16.780,6 Dec 2013 04:20:14.871,1018.091
27,6 Dec 2013 05:49:50.329,6 Dec 2013 06:03:40.695,830.365
28,6 Dec 2013 22:04:30.473,6 Dec 2013 22:09:54.487,324.014
29,6 Dec 2013 23:41:32.044,6 Dec 2013 23:57:58.124,986.080
30,7 Dec 2013 01:26:44.795,7 Dec 2013 01:43:50.013,1025.217
31,7 Dec 2013 03:09:54.829,7 Dec 2013 03:25:41.939,947.110
32,7 Dec 2013 04:48:12.792,7 Dec 2013 05:03:29.599,916.807
33,7 Dec 2013 06:26:27.010,7 Dec 2013 06:41:54.515,927.505
34,7 Dec 2013 08:05:39.469,7 Dec 2013 08:21:44.322,964.853
35,7 Dec 2013 09:46:41.496,7 Dec 2013 10:03:07.493,985.997
36,7 Dec 2013 11:29:23.755,7 Dec 2013 11:45:59.217,995.462
37,7 Dec 2013 13:12:28.302,7 Dec 2013 13:24:34.727,726.425
38,7 Dec 2013 19:29:34.887,7 Dec 2013 19:32:43.070,188.183
39,7 Dec 2013 21:03:32.525,7 Dec 2013 21:19:57.726,985.201

"Access","Start Time (UTCG)","Stop Time (UTCG)","Duration (sec)"
1,3 Dec 2013 01:36:40.461,3 Dec 2013 01:52:33.232,952.772
2,3 Dec 2013 03:15:39.863,3 Dec 2013 03:31:33.152,953.289
3,3 Dec 2013 04:54:01.609,3 Dec 2013 05:09:51.967,950.358
4,3 Dec 2013 06:32:40.769,3 Dec 2013 06:48:38.713,957.943
5,3 Dec 2013 08:13:04.662,3 Dec 2013 08:28:18.719,914.056
6,3 Dec 2013 09:56:19.355,3 Dec 2013 10:09:07.529,768.174
7,3 Dec 2013 11:38:40.164,3 Dec 2013 11:54:46.779,966.615
8,3 Dec 2013 13:21:28.121,3 Dec 2013 13:32:38.108,669.987
9,3 Dec 2013 19:36:04.817,3 Dec 2013 19:46:02.549,597.732
10,3 Dec 2013 21:13:44.782,3 Dec 2013 21:28:55.306,910.524
11,3 Dec 2013 22:54:23.514,3 Dec 2013 23:08:36.106,852.592
12,4 Dec 2013 00:33:20.606,4 Dec 2013 00:46:53.344,812.739
13,4 Dec 2013 02:10:40.730,4 Dec 2013 02:25:00.498,859.768
14,4 Dec 2013 03:47:47.775,4 Dec 2013 04:03:29.786,942.012
15,4 Dec 2013 05:26:50.205,4 Dec 2013 05:41:49.659,899.454
16,4 Dec 2013 07:12:18.663,4 Dec 2013 07:26:17.372,838.709
17,4 Dec 2013 08:57:20.204,4 Dec 2013 09:13:56.554,996.350
18,4 Dec 2013 10:41:26.107,4 Dec 2013 10:54:32.234,786.127
19,5 Dec 2013 02:46:48.114,5 Dec 2013 03:02:42.945,954.830
20,5 Dec 2013 04:32:11.923,5 Dec 2013 04:49:19.809,1027.886
21,5 Dec 2013 06:18:32.875,5 Dec 2013 06:35:34.578,1021.703
22,5 Dec 2013 08:04:20.691,5 Dec 2013 08:17:44.842,804.151
23,6 Dec 2013 00:17:03.768,6 Dec 2013 00:24:22.535,438.767
24,6 Dec 2013 01:56:34.446,6 Dec 2013 02:12:58.379,983.933
25,6 Dec 2013 03:42:02.986,6 Dec 2013 03:59:06.006,1023.020
26,6 Dec 2013 05:28:21.585,6 Dec 2013 05:43:29.325,907.740
27,6 Dec 2013 23:21:05.252,6 Dec 2013 23:36:51.590,946.338
28,7 Dec 2013 01:05:27.963,7 Dec 2013 01:22:33.399,1025.436
29,7 Dec 2013 02:50:12.733,7 Dec 2013 03:06:04.384,951.650
30,7 Dec 2013 04:28:34.762,7 Dec 2013 04:43:55.750,920.988
31,7 Dec 2013 06:06:45.864,7 Dec 2013 06:22:07.400,921.536
32,7 Dec 2013 07:45:41.087,7 Dec 2013 08:01:38.969,957.882
33,7 Dec 2013 09:26:19.889,7 Dec 2013 09:42:43.338,983.449
34,7 Dec 2013 11:08:45.388,7 Dec 2013 11:25:18.976,993.588
35,7 Dec 2013 12:51:37.791,7 Dec 2013 13:05:55.574,857.783
36,7 Dec 2013 20:43:26.289,7 Dec 2013 20:59:11.539,945.250

"Access","Start Time (UTCG)","Stop Time (UTCG)","Duration (sec)"
1,3 Dec 2013 10:54:39.417,3 Dec 2013 11:09:12.650,873.232
2,3 Dec 2013 12:39:05.911,3 Dec 2013 12:56:13.580,1027.669
3,3 Dec 2013 14:25:46.907,3 Dec 2013 14:42:49.096,1022.189
4,3 Dec 2013 16:11:21.127,3 Dec 2013 16:27:08.472,947.346
5,4 Dec 2013 10:04:23.667,4 Dec 2013 10:19:47.429,923.763
6,4 Dec 2013 11:49:02.328,4 Dec 2013 12:06:06.298,1023.970
7,4 Dec 2013 13:35:09.796,4 Dec 2013 13:51:27.210,977.414
8,4 Dec 2013 15:24:12.785,4 Dec 2013 15:30:03.562,350.777
9,5 Dec 2013 07:30:21.368,5 Dec 2013 07:43:47.620,806.251
10,5 Dec 2013 09:12:41.442,5 Dec 2013 09:29:43.228,1021.787
11,5 Dec 2013 10:58:52.738,5 Dec 2013 11:16:01.982,1029.244
12,5 Dec 2013 12:39:34.395,5 Dec 2013 12:54:52.726,918.331
13,5 Dec 2013 14:17:44.210,5 Dec 2013 14:32:34.085,889.875
14,5 Dec 2013 15:56:08.120,5 Dec 2013 16:11:28.369,920.249
15,5 Dec 2013 17:35:53.638,5 Dec 2013 17:51:57.946,964.308
16,5 Dec 2013 19:17:30.646,5 Dec 2013 19:33:57.148,986.503
17,5 Dec 2013 21:00:36.925,5 Dec 2013 21:16:52.416,975.491
18,6 Dec 2013 04:53:51.231,6 Dec 2013 05:06:56.812,785.581
19,6 Dec 2013 06:34:34.960,6 Dec 2013 06:51:16.356,1001.396
20,6 Dec 2013 08:15:53.779,6 Dec 2013 08:31:56.582,962.804
21,6 Dec 2013 09:54:53.613,6 Dec 2013 10:10:42.219,948.606
22,6 Dec 2013 11:33:09.957,6 Dec 2013 11:49:00.441,950.484
23,6 Dec 2013 13:11:53.798,6 Dec 2013 13:27:43.710,949.912
24,6 Dec 2013 14:52:48.857,6 Dec 2013 15:06:59.083,850.226
25,6 Dec 2013 16:37:53.479,6 Dec 2013 16:46:54.304,540.825
26,6 Dec 2013 18:18:58.429,6 Dec 2013 18:35:22.239,983.810
27,6 Dec 2013 20:02:38.709,6 Dec 2013 20:12:17.291,578.583
28,7 Dec 2013 02:15:46.984,7 Dec 2013 02:27:18.218,691.234
29,7 Dec 2013 03:55:58.088,7 Dec 2013 04:08:27.134,749.045
30,7 Dec 2013 05:36:17.720,7 Dec 2013 05:47:25.444,667.724
31,7 Dec 2013 07:14:38.320,7 Dec 2013 07:25:20.529,642.209
32,7 Dec 2013 08:50:55.318,7 Dec 2013 09:03:43.424,768.106
33,7 Dec 2013 10:27:10.112,7 Dec 2013 10:42:31.559,921.448
34,7 Dec 2013 12:05:38.908,7 Dec 2013 12:21:32.442,953.534
35,7 Dec 2013 13:53:11.659,7 Dec 2013 14:08:41.997,930.337
36,7 Dec 2013 15:38:30.334,7 Dec 2013 15:55:18.690,1008.356
37,7 Dec 2013 17:23:26.518,7 Dec 2013 17:34:50.289,683.771

"Access","Start Time (UTCG)","Stop Time (UTCG)","Duration (sec)"
1,3 Dec 2013 10:35:14.049,3 Dec 2013 10:47:15.514,721.465
2,3 Dec 2013 12:17:51.341,3 Dec 2013 12:34:56.396,1025.055
3,3 Dec 2013 14:04:30.483,3 Dec 2013 14:21:31.165,1020.681
4,3 Dec 2013 15:50:16.445,3 Dec 2013 16:06:43.592,987.147
5,3 Dec 2013 17:38:12.484,3 Dec 2013 17:43:28.797,316.313
6,4 Dec 2013 09:44:05.557,4 Dec 2013 09:58:20.233,854.676
7,4 Dec 2013 11:27:52.153,4 Dec 2013 11:44:52.369,1020.216
8,4 Dec 2013 13:13:55.594,4 Dec 2013 13:30:36.581,1000.987
9,4 Dec 2013 15:01:15.695,4 Dec 2013 15:11:52.555,636.860
10,5 Dec 2013 07:11:05.142,5 Dec 2013 07:22:10.065,664.923
11,5 Dec 2013 08:51:43.359,5 Dec 2013 09:08:34.394,1011.035
12,5 Dec 2013 10:37:35.045,5 Dec 2013 10:54:44.039,1028.995
13,5 Dec 2013 12:19:54.166,5 Dec 2013 12:35:22.687,928.521
14,5 Dec 2013 13:58:07.074,5 Dec 2013 14:12:57.736,890.662
15,5 Dec 2013 15:36:22.844,5 Dec 2013 15:51:33.928,911.084
16,5 Dec 2013 17:15:47.631,5 Dec 2013 17:31:44.525,956.894
17,5 Dec 2013 18:57:02.996,5 Dec 2013 19:13:26.865,983.869
18,5 Dec 2013 20:39:53.943,5 Dec 2013 20:56:21.240,987.297
19,5 Dec 2013 22:25:10.391,5 Dec 2013 22:30:33.572,323.181
20,6 Dec 2013 04:35:11.342,6 Dec 2013 04:45:32.423,621.082
21,6 Dec 2013 06:13:44.331,6 Dec 2013 06:30:28.826,1004.496
22,6 Dec 2013 07:55:57.786,6 Dec 2013 08:12:01.135,963.349
23,6 Dec 2013 09:35:10.478,6 Dec 2013 09:51:01.762,951.284
24,6 Dec 2013 11:13:31.476,6 Dec 2013 11:29:19.729,948.252
25,6 Dec 2013 12:52:02.011,6 Dec 2013 13:07:56.229,954.218
26,6 Dec 2013 14:32:22.073,6 Dec 2013 14:47:06.061,883.988
27,6 Dec 2013 16:16:24.976,6 Dec 2013 16:26:32.537,607.561
28,6 Dec 2013 17:58:39.340,6 Dec 2013 18:14:38.999,959.659
29,6 Dec 2013 19:41:21.065,6 Dec 2013 19:54:04.469,763.404
30,7 Dec 2013 01:58:10.173,7 Dec 2013 02:05:36.685,446.512
31,7 Dec 2013 03:35:44.714,7 Dec 2013 03:48:24.829,760.116
32,7 Dec 2013 05:16:21.545,7 Dec 2013 05:27:46.079,684.534
33,7 Dec 2013 06:55:09.842,7 Dec 2013 07:05:45.247,635.405
34,7 Dec 2013 08:31:45.093,7 Dec 2013 08:43:59.451,734.358
35,7 Dec 2013 10:07:48.253,7 Dec 2013 10:22:46.174,897.920
36,7 Dec 2013 11:45:40.503,7 Dec 2013 12:01:18.057,937.554
37,7 Dec 2013 13:31:43.807,7 Dec 2013 13:47:06.777,922.969
38,7 Dec 2013 15:17:38.063,7 Dec 2013 15:34:22.164,1004.101
39,7 Dec 2013 17:02:08.275,7 Dec 2013 17:15:51.943,823.667

"Access","Start Time (UTCG)","Stop Time (UTCG)","Duration (sec)"
1,3 Dec 2013 10:16:42.573,3 Dec 2013 10:26:43.651,601.078
2,3 Dec 2013 11:56:44.670,3 Dec 2013 12:13:38.477,1013.807
3,3 Dec 2013 13:43:10.401,3 Dec 2013 14:00:11.013,1020.612
4,3 Dec 2013 15:29:12.598,3 Dec 2013 15:46:02.275,1009.678
5,3 Dec 2013 17:15:27.392,3 Dec 2013 17:25:52.306,624.915
6,4 Dec 2013 09:24:12.013,4 Dec 2013 09:36:38.919,746.906
7,4 Dec 2013 11:06:46.533,4 Dec 2013 11:23:38.166,1011.633
8,4 Dec 2013 12:52:42.081,4 Dec 2013 13:09:36.632,1014.551
9,4 Dec 2013 14:39:21.019,4 Dec 2013 14:52:26.849,785.830
10,5 Dec 2013 06:52:53.774,5 Dec 2013 06:59:44.468,410.694
11,5 Dec 2013 08:30:56.853,5 Dec 2013 08:47:26.913,990.060
12,5 Dec 2013 10:16:17.373,5 Dec 2013 10:33:25.709,1028.336
13,5 Dec 2013 12:00:13.093,5 Dec 2013 12:15:51.285,938.193
14,5 Dec 2013 13:38:29.848,5 Dec 2013 13:53:24.087,894.239
15,5 Dec 2013 15:16:40.439,5 Dec 2013 15:31:43.363,902.924
16,5 Dec 2013 16:55:46.268,5 Dec 2013 17:11:34.804,948.536
17,5 Dec 2013 18:36:39.201,5 Dec 2013 18:52:59.605,980.403
18,5 Dec 2013 20:19:13.694,5 Dec 2013 20:35:42.676,988.982
19,5 Dec 2013 22:02:54.992,5 Dec 2013 22:13:43.542,648.550
20,6 Dec 2013 04:17:59.001,6 Dec 2013 04:23:00.739,301.737
21,6 Dec 2013 05:53:12.023,6 Dec 2013 06:09:41.986,989.964
22,6 Dec 2013 07:35:58.839,6 Dec 2013 07:52:00.842,962.003
23,6 Dec 2013 09:15:25.120,6 Dec 2013 09:31:19.657,954.538
24,6 Dec 2013 10:53:53.236,6 Dec 2013 11:09:39.947,946.711
25,6 Dec 2013 12:32:14.604,6 Dec 2013 12:48:10.161,955.557
26,6 Dec 2013 14:12:04.083,6 Dec 2013 14:27:13.846,909.763
27,6 Dec 2013 15:55:12.125,6 Dec 2013 16:06:40.082,687.956
28,6 Dec 2013 17:38:24.612,6 Dec 2013 17:53:30.721,906.109
29,6 Dec 2013 19:20:29.785,6 Dec 2013 19:35:06.472,876.688
30,7 Dec 2013 03:15:29.174,7 Dec 2013 03:28:17.062,767.888
31,7 Dec 2013 04:56:21.031,7 Dec 2013 05:08:03.155,702.124
32,7 Dec 2013 06:35:35.442,7 Dec 2013 06:46:10.985,635.544
33,7 Dec 2013 08:12:33.526,7 Dec 2013 08:24:16.943,703.417
34,7 Dec 2013 09:48:30.867,7 Dec 2013 10:03:00.267,869.399
35,7 Dec 2013 11:25:51.585,7 Dec 2013 11:41:39.880,948.296
36,7 Dec 2013 13:10:07.930,7 Dec 2013 13:25:35.076,927.147
37,7 Dec 2013 14:56:41.915,7 Dec 2013 15:13:11.148,989.233
38,7 Dec 2013 16:41:06.182,7 Dec 2013 16:56:18.702,912.520

"Access","Start Time (UTCG)","Stop Time (UTCG)","Duration (sec)"
1,3 Dec 2013 09:58:32.698,3 Dec 2013 10:06:08.500,455.802
2,3 Dec 2013 11:35:48.436,3 Dec 2013 11:52:17.603,989.166
3,3 Dec 2013 13:21:48.101,3 Dec 2013 13:38:50.705,1022.605
4,3 Dec 2013 15:08:07.344,3 Dec 2013 15:25:07.526,1020.183
5,3 Dec 2013 16:53:48.164,3 Dec 2013 17:06:51.804,783.640
6,4 Dec 2013 09:04:59.121,4 Dec 2013 09:14:27.496,568.374
7,4 Dec 2013 10:45:47.967,4 Dec 2013 11:02:23.496,995.529
8,4 Dec 2013 12:31:28.508,4 Dec 2013 12:48:30.087,1021.579
9,4 Dec 2013 14:17:48.351,4 Dec 2013 14:32:27.243,878.892
10,5 Dec 2013 08:10:24.974,5 Dec 2013 08:26:18.868,953.894
11,5 Dec 2013 09:55:01.088,5 Dec 2013 10:12:08.832,1027.745
12,5 Dec 2013 11:40:31.318,5 Dec 2013 11:56:17.522,946.204
13,5 Dec 2013 13:18:52.149,5 Dec 2013 13:33:52.547,900.398
14,5 Dec 2013 14:57:00.291,5 Dec 2013 15:11:56.627,896.336
15,5 Dec 2013 16:35:49.414,5 Dec 2013 16:51:28.843,939.429
16,5 Dec 2013 18:16:19.553,5 Dec 2013 18:32:35.588,976.035
17,5 Dec 2013 19:58:36.269,5 Dec 2013 20:15:05.467,989.198
18,5 Dec 2013 21:41:51.642,5 Dec 2013 21:55:24.472,812.830
19,6 Dec 2013 05:33:00.057,6 Dec 2013 05:48:53.457,953.400
20,6 Dec 2013 07:15:56.806,6 Dec 2013 07:31:55.265,958.458
21,6 Dec 2013 08:55:37.325,6 Dec 2013 09:11:35.209,957.884
22,6 Dec 2013 10:34:14.551,6 Dec 2013 10:50:00.742,946.191
23,6 Dec 2013 12:12:30.693,6 Dec 2013 12:28:25.532,954.839
24,6 Dec 2013 13:51:53.963,6 Dec 2013 14:07:22.626,928.663
25,6 Dec 2013 15:34:12.759,6 Dec 2013 15:46:46.508,753.749
26,6 Dec 2013 17:18:14.839,6 Dec 2013 17:31:54.663,819.824
27,6 Dec 2013 18:59:51.850,6 Dec 2013 19:15:37.117,945.266
28,7 Dec 2013 02:55:11.907,7 Dec 2013 03:08:03.759,771.852
29,7 Dec 2013 04:36:16.657,7 Dec 2013 04:48:16.005,719.348
30,7 Dec 2013 06:15:55.106,7 Dec 2013 06:26:36.916,641.810
31,7 Dec 2013 07:53:19.313,7 Dec 2013 08:04:36.209,676.896
32,7 Dec 2013 09:29:16.982,7 Dec 2013 09:43:14.232,837.249
33,7 Dec 2013 11:06:10.880,7 Dec 2013 11:21:58.938,948.058
34,7 Dec 2013 12:48:26.841,7 Dec 2013 13:04:08.839,941.998
35,7 Dec 2013 14:35:39.920,7 Dec 2013 14:51:48.356,968.436
36,7 Dec 2013 16:20:11.812,7 Dec 2013 16:36:19.414,967.602

"Access","Start Time (UTCG)","Stop Time (UTCG)","Duration (sec)"
1,3 Dec 2013 09:41:14.080,3 Dec 2013 09:44:47.200,213.120
2,3 Dec 2013 11:15:05.433,3 Dec 2013 11:30:50.588,945.156
3,3 Dec 2013 13:00:25.732,3 Dec 2013 13:17:31.472,1025.740
4,3 Dec 2013 14:46:59.105,3 Dec 2013 15:04:02.177,1023.072
5,3 Dec 2013 16:32:29.902,3 Dec 2013 16:47:13.160,883.257
6,4 Dec 2013 08:48:14.912,4 Dec 2013 08:49:58.026,103.114
7,4 Dec 2013 10:24:59.248,4 Dec 2013 10:41:07.293,968.045
8,4 Dec 2013 12:10:14.968,4 Dec 2013 12:27:19.323,1024.355
9,4 Dec 2013 13:56:26.384,4 Dec 2013 14:12:05.397,939.013
10,5 Dec 2013 07:50:11.361,5 Dec 2013 08:05:07.365,896.004
11,5 Dec 2013 09:33:48.272,5 Dec 2013 09:50:54.563,1026.291
12,5 Dec 2013 11:20:09.932,5 Dec 2013 11:36:40.396,990.465
13,5 Dec 2013 12:59:13.714,5 Dec 2013 13:14:22.373,908.659
14,5 Dec 2013 14:37:21.758,5 Dec 2013 14:52:13.605,891.847
15,5 Dec 2013 16:15:56.820,5 Dec 2013 16:31:26.683,929.863
16,5 Dec 2013 17:56:04.304,5 Dec 2013 18:12:14.994,970.690
17,5 Dec 2013 19:38:01.834,5 Dec 2013 19:54:30.139,988.305
18,5 Dec 2013 21:21:14.768,5 Dec 2013 21:36:23.691,908.923
19,6 Dec 2013 05:13:11.382,6 Dec 2013 05:28:00.105,888.723
20,6 Dec 2013 06:55:42.062,6 Dec 2013 07:11:44.055,961.993
21,6 Dec 2013 08:35:46.921,6 Dec 2013 08:51:47.739,960.818
22,6 Dec 2013 10:14:34.841,6 Dec 2013 10:30:21.676,946.835
23,6 Dec 2013 11:52:49.426,6 Dec 2013 12:08:42.320,952.894
24,6 Dec 2013 13:31:50.825,6 Dec 2013 13:47:32.537,941.713
25,6 Dec 2013 15:13:25.401,6 Dec 2013 15:26:52.676,807.275
26,6 Dec 2013 16:58:12.353,6 Dec 2013 17:09:45.911,693.559
27,6 Dec 2013 18:39:22.204,6 Dec 2013 18:55:41.683,979.479
28,6 Dec 2013 20:25:45.511,6 Dec 2013 20:28:20.761,155.250
29,7 Dec 2013 02:34:53.409,7 Dec 2013 02:47:44.866,771.457
30,7 Dec 2013 04:16:08.869,7 Dec 2013 04:28:24.112,735.243
31,7 Dec 2013 05:56:09.065,7 Dec 2013 06:07:02.073,653.008
32,7 Dec 2013 07:34:01.244,7 Dec 2013 07:44:57.416,656.172
33,7 Dec 2013 09:10:05.523,7 Dec 2013 09:23:28.485,802.962
34,7 Dec 2013 10:46:37.364,7 Dec 2013 11:02:15.971,938.607
35,7 Dec 2013 12:26:44.375,7 Dec 2013 12:42:48.326,963.951
36,7 Dec 2013 14:14:30.270,7 Dec 2013 14:30:17.261,946.991
37,7 Dec 2013 15:59:20.820,7 Dec 2013 16:15:58.495,997.675
38,7 Dec 2013 17:45:26.402,7 Dec 2013 17:52:47.333,440.930

"Access","Start Time (UTCG)","Stop Time (UTCG)","Duration (sec)"
1,3 Dec 2013 15:59:57.659,3 Dec 2013 16:11:39.127,701.468
2,3 Dec 2013 17:41:10.826,3 Dec 2013 17:58:03.685,1012.859
3,3 Dec 2013 19:27:05.251,3 Dec 2013 19:44:14.749,1029.498
4,3 Dec 2013 21:10:13.351,3 Dec 2013 21:25:22.043,908.691
5,3 Dec 2013 22:48:26.014,3 Dec 2013 23:02:41.051,855.037
6,4 Dec 2013 00:26:36.953,4 Dec 2013 00:41:11.867,874.913
7,4 Dec 2013 02:05:53.971,4 Dec 2013 02:21:23.265,929.294
8,4 Dec 2013 03:47:01.476,4 Dec 2013 04:03:03.170,961.694
9,4 Dec 2013 05:29:50.801,4 Dec 2013 05:45:42.135,951.334
10,4 Dec 2013 13:24:19.488,4 Dec 2013 13:35:12.616,653.128
11,4 Dec 2013 15:03:27.166,4 Dec 2013 15:20:14.668,1007.502
12,4 Dec 2013 16:46:17.670,4 Dec 2013 17:02:15.837,958.167
13,4 Dec 2013 18:25:24.124,4 Dec 2013 18:41:17.134,953.010
14,4 Dec 2013 20:03:46.117,4 Dec 2013 20:19:36.066,949.949
15,4 Dec 2013 21:42:22.120,4 Dec 2013 21:58:17.727,955.607
16,4 Dec 2013 23:22:45.917,4 Dec 2013 23:37:42.643,896.726
17,5 Dec 2013 01:06:24.700,5 Dec 2013 01:17:53.966,689.266
18,5 Dec 2013 02:48:39.901,5 Dec 2013 03:04:42.762,962.862
19,5 Dec 2013 04:31:21.884,5 Dec 2013 04:43:23.762,721.877
20,5 Dec 2013 10:47:02.284,5 Dec 2013 10:55:55.192,532.908
21,5 Dec 2013 12:24:34.260,5 Dec 2013 12:38:44.350,850.090
22,5 Dec 2013 14:05:11.923,5 Dec 2013 14:18:16.167,784.244
23,5 Dec 2013 15:44:04.585,5 Dec 2013 15:56:25.423,740.838
24,5 Dec 2013 17:21:05.403,5 Dec 2013 17:34:34.030,808.626
25,5 Dec 2013 18:57:43.692,5 Dec 2013 19:13:09.396,925.704
26,5 Dec 2013 20:36:12.543,5 Dec 2013 20:51:33.296,920.753
27,5 Dec 2013 22:21:57.519,5 Dec 2013 22:36:41.277,883.758
28,6 Dec 2013 00:07:28.313,6 Dec 2013 00:24:08.360,1000.047
29,6 Dec 2013 01:51:45.987,6 Dec 2013 02:05:12.119,806.132
30,6 Dec 2013 17:57:56.982,6 Dec 2013 18:13:05.353,908.371
31,6 Dec 2013 19:42:40.790,6 Dec 2013 19:59:49.877,1029.088
32,6 Dec 2013 21:29:00.242,6 Dec 2013 21:46:03.120,1022.878
33,6 Dec 2013 23:14:54.191,6 Dec 2013 23:28:38.645,824.454
34,7 Dec 2013 15:29:42.641,7 Dec 2013 15:33:46.985,244.344
35,7 Dec 2013 17:07:22.274,7 Dec 2013 17:23:33.670,971.396
36,7 Dec 2013 18:52:37.279,7 Dec 2013 19:09:41.630,1024.351
37,7 Dec 2013 20:38:54.734,7 Dec 2013 20:54:29.146,934.412

"Access","Start Time (UTCG)","Stop Time (UTCG)","Duration (sec)"
1,3 Dec 2013 15:41:22.752,3 Dec 2013 15:49:27.592,484.840
2,3 Dec 2013 17:20:20.622,3 Dec 2013 17:36:54.594,993.972
3,3 Dec 2013 19:05:48.479,3 Dec 2013 19:22:58.115,1029.636
4,3 Dec 2013 20:50:32.101,3 Dec 2013 21:05:54.849,922.748
5,3 Dec 2013 22:28:49.146,3 Dec 2013 22:43:09.800,860.654
6,4 Dec 2013 00:06:55.861,4 Dec 2013 00:21:21.615,865.754
7,4 Dec 2013 01:45:54.254,4 Dec 2013 02:01:13.324,919.069
8,4 Dec 2013 03:26:39.075,4 Dec 2013 03:42:37.138,958.063
9,4 Dec 2013 05:09:09.785,4 Dec 2013 05:25:08.054,958.269
10,4 Dec 2013 06:53:36.096,4 Dec 2013 07:02:37.281,541.185
11,4 Dec 2013 13:06:40.801,4 Dec 2013 13:12:58.363,377.562
12,4 Dec 2013 14:42:50.488,4 Dec 2013 14:59:24.596,994.107
13,4 Dec 2013 16:26:21.024,4 Dec 2013 16:42:14.940,953.917
14,4 Dec 2013 18:05:39.370,4 Dec 2013 18:21:35.016,955.647
15,4 Dec 2013 19:44:07.208,4 Dec 2013 19:59:55.873,948.666
16,4 Dec 2013 21:22:33.462,4 Dec 2013 21:38:30.084,956.622
17,4 Dec 2013 23:02:27.945,4 Dec 2013 23:17:46.121,918.176
18,5 Dec 2013 00:45:22.547,5 Dec 2013 00:57:47.390,744.843
19,5 Dec 2013 02:28:29.336,5 Dec 2013 02:43:40.993,911.658
20,5 Dec 2013 04:10:26.679,5 Dec 2013 04:24:37.893,851.214
21,5 Dec 2013 12:04:17.334,5 Dec 2013 12:18:35.579,858.244
22,5 Dec 2013 13:45:11.658,5 Dec 2013 13:58:30.640,798.982
23,5 Dec 2013 15:24:27.875,5 Dec 2013 15:36:50.136,742.261
24,5 Dec 2013 17:01:47.283,5 Dec 2013 17:14:53.716,786.433
25,5 Dec 2013 18:38:19.274,5 Dec 2013 18:53:25.509,906.235
26,5 Dec 2013 20:16:15.709,5 Dec 2013 20:31:56.590,940.881
27,5 Dec 2013 22:00:22.360,5 Dec 2013 22:15:03.687,881.327
28,5 Dec 2013 23:46:36.871,6 Dec 2013 00:02:58.786,981.915
29,6 Dec 2013 01:30:44.611,6 Dec 2013 01:45:46.383,901.772
30,6 Dec 2013 17:37:43.304,6 Dec 2013 17:51:22.818,819.514
31,6 Dec 2013 19:21:26.695,6 Dec 2013 19:38:32.816,1026.121
32,6 Dec 2013 21:07:48.327,6 Dec 2013 21:24:55.095,1026.768
33,6 Dec 2013 22:53:36.131,6 Dec 2013 23:08:43.813,907.682
34,7 Dec 2013 16:46:46.995,7 Dec 2013 17:02:16.441,929.446
35,7 Dec 2013 18:31:24.550,7 Dec 2013 18:48:28.684,1024.134
36,7 Dec 2013 20:17:35.736,7 Dec 2013 20:33:50.535,974.799

"Access","Start Time (UTCG)","Stop Time (UTCG)","Duration (sec)"
1,3 Dec 2013 16:59:43.785,3 Dec 2013 17:15:45.218,961.433
2,3 Dec 2013 18:44:32.674,3 Dec 2013 19:01:41.627,1028.953
3,3 Dec 2013 20:30:50.199,3 Dec 2013 20:46:25.527,935.328
4,3 Dec 2013 22:09:11.612,3 Dec 2013 22:23:41.098,869.486
5,3 Dec 2013 23:47:16.884,4 Dec 2013 00:01:35.518,858.634
6,4 Dec 2013 01:25:59.018,4 Dec 2013 01:41:07.091,908.074
7,4 Dec 2013 03:06:20.964,4 Dec 2013 03:22:13.908,952.944
8,4 Dec 2013 04:48:32.262,4 Dec 2013 05:04:34.589,962.327
9,4 Dec 2013 06:32:12.015,4 Dec 2013 06:44:46.004,753.989
10,4 Dec 2013 14:22:33.154,4 Dec 2013 14:38:33.573,960.418
11,4 Dec 2013 16:06:21.698,4 Dec 2013 16:22:08.421,946.723
12,4 Dec 2013 17:45:52.484,4 Dec 2013 18:01:50.543,958.060
13,4 Dec 2013 19:24:28.071,4 Dec 2013 19:40:16.397,948.326
14,4 Dec 2013 21:02:48.339,4 Dec 2013 21:18:44.192,955.853
15,4 Dec 2013 22:42:17.287,4 Dec 2013 22:57:51.365,934.078
16,5 Dec 2013 00:24:29.777,5 Dec 2013 00:37:43.196,793.419
17,5 Dec 2013 02:08:25.745,5 Dec 2013 02:22:10.240,824.494
18,5 Dec 2013 03:49:47.608,5 Dec 2013 04:05:17.987,930.378
19,5 Dec 2013 11:43:58.016,5 Dec 2013 11:58:21.809,863.793
20,5 Dec 2013 13:25:07.460,5 Dec 2013 13:38:41.043,813.582
21,5 Dec 2013 15:04:46.143,5 Dec 2013 15:17:14.364,748.220
22,5 Dec 2013 16:42:27.044,5 Dec 2013 16:55:14.799,767.755
23,5 Dec 2013 18:18:58.323,5 Dec 2013 18:33:41.683,883.360
24,5 Dec 2013 19:56:27.557,5 Dec 2013 20:12:17.106,949.549
25,5 Dec 2013 21:38:38.775,5 Dec 2013 21:53:32.530,893.755
26,5 Dec 2013 23:25:40.106,5 Dec 2013 23:41:35.562,955.455
27,6 Dec 2013 01:09:52.063,6 Dec 2013 01:25:53.292,961.228
28,6 Dec 2013 17:17:59.731,6 Dec 2013 17:29:15.906,676.175
29,6 Dec 2013 19:00:18.481,6 Dec 2013 19:17:15.703,1017.222
30,6 Dec 2013 20:46:33.548,6 Dec 2013 21:03:41.583,1028.035
31,6 Dec 2013 22:32:25.288,6 Dec 2013 22:48:26.532,961.244
32,7 Dec 2013 16:26:29.007,7 Dec 2013 16:40:53.080,864.073
33,7 Dec 2013 18:10:14.444,7 Dec 2013 18:27:15.091,1020.647
34,7 Dec 2013 19:56:19.897,7 Dec 2013 20:12:59.524,999.627
35,7 Dec 2013 21:44:01.356,7 Dec 2013 21:54:14.250,612.895

"Access","Start Time (UTCG)","Stop Time (UTCG)","Duration (sec)"
1,3 Dec 2013 16:39:23.814,3 Dec 2013 16:54:32.960,909.145
2,3 Dec 2013 18:23:19.549,3 Dec 2013 18:40:26.726,1027.177
3,3 Dec 2013 20:09:38.667,3 Dec 2013 20:26:39.908,1021.241
4,3 Dec 2013 21:49:33.180,3 Dec 2013 22:04:14.177,880.997
5,3 Dec 2013 23:27:39.338,3 Dec 2013 23:41:53.529,854.191
6,4 Dec 2013 01:06:07.995,4 Dec 2013 01:21:04.690,896.695
7,4 Dec 2013 02:46:07.334,4 Dec 2013 03:01:53.717,946.384
8,4 Dec 2013 04:27:58.274,4 Dec 2013 04:44:02.298,964.024
9,4 Dec 2013 06:11:23.739,4 Dec 2013 06:26:01.383,877.644
10,4 Dec 2013 14:02:38.076,4 Dec 2013 14:17:38.554,900.478
11,4 Dec 2013 15:45:29.848,4 Dec 2013 16:01:55.823,985.975
12,4 Dec 2013 17:26:03.313,4 Dec 2013 17:42:02.987,959.675
13,4 Dec 2013 19:04:48.138,4 Dec 2013 19:20:37.168,949.030
14,4 Dec 2013 20:43:05.942,4 Dec 2013 20:58:59.984,954.042
15,4 Dec 2013 22:22:13.254,4 Dec 2013 22:37:58.374,945.120
16,5 Dec 2013 00:03:46.316,5 Dec 2013 00:17:41.104,834.788
17,5 Dec 2013 01:48:32.975,5 Dec 2013 02:00:03.859,690.884
18,5 Dec 2013 03:29:18.390,5 Dec 2013 03:45:30.780,972.390
19,5 Dec 2013 11:23:54.749,5 Dec 2013 11:38:03.094,848.346
20,5 Dec 2013 13:04:59.630,5 Dec 2013 13:18:46.960,827.330
21,5 Dec 2013 14:44:59.436,5 Dec 2013 14:57:37.315,757.879
22,5 Dec 2013 16:23:03.693,5 Dec 2013 16:35:37.277,753.584
23,5 Dec 2013 17:59:39.768,5 Dec 2013 18:13:58.277,858.509
24,5 Dec 2013 19:36:46.854,5 Dec 2013 19:52:35.678,948.824
25,5 Dec 2013 21:16:50.683,5 Dec 2013 21:32:08.774,918.092
26,5 Dec 2013 23:04:35.835,5 Dec 2013 23:20:01.950,926.115
27,6 Dec 2013 00:49:03.697,6 Dec 2013 01:05:37.558,993.862
28,6 Dec 2013 02:35:16.837,6 Dec 2013 02:41:37.456,380.619
29,6 Dec 2013 16:59:20.291,6 Dec 2013 17:06:09.098,408.807
30,6 Dec 2013 18:39:18.820,6 Dec 2013 18:55:57.147,998.327
31,6 Dec 2013 20:25:16.389,6 Dec 2013 20:42:25.033,1028.644
32,6 Dec 2013 22:11:17.332,6 Dec 2013 22:27:51.746,994.414
33,6 Dec 2013 23:58:40.248,7 Dec 2013 00:06:30.234,469.987
34,7 Dec 2013 16:06:34.860,7 Dec 2013 16:19:17.562,762.702
35,7 Dec 2013 17:49:09.002,7 Dec 2013 18:06:01.582,1012.581
36,7 Dec 2013 19:35:05.328,7 Dec 2013 19:51:59.260,1013.932
37,7 Dec 2013 21:21:58.049,7 Dec 2013 21:34:50.734,772.685

"Access","Start Time (UTCG)","Stop Time (UTCG)","Duration (sec)"
1,3 Dec 2013 16:19:25.567,3 Dec 2013 16:33:13.608,828.041
2,3 Dec 2013 18:02:11.395,3 Dec 2013 18:19:14.113,1022.718
3,3 Dec 2013 19:48:22.025,3 Dec 2013 20:05:29.491,1027.467
4,3 Dec 2013 21:29:53.752,3 Dec 2013 21:44:48.146,894.393
5,3 Dec 2013 23:08:02.581,3 Dec 2013 23:22:15.474,852.893
6,4 Dec 2013 00:46:20.804,4 Dec 2013 01:01:06.251,885.447
7,4 Dec 2013 02:25:58.317,4 Dec 2013 02:41:36.776,938.459
8,4 Dec 2013 04:07:27.953,4 Dec 2013 04:23:31.675,963.722
9,4 Dec 2013 05:50:35.387,4 Dec 2013 06:06:16.234,940.847
10,4 Dec 2013 13:43:10.121,4 Dec 2013 13:56:34.806,804.684
11,4 Dec 2013 15:24:21.003,4 Dec 2013 15:41:06.136,1005.133
12,4 Dec 2013 17:06:11.739,4 Dec 2013 17:22:11.644,959.904
13,4 Dec 2013 18:45:06.947,4 Dec 2013 19:00:57.624,950.677
14,4 Dec 2013 20:23:25.455,4 Dec 2013 20:39:17.340,951.885
15,4 Dec 2013 22:02:15.121,4 Dec 2013 22:18:07.158,952.037
16,4 Dec 2013 23:43:11.853,4 Dec 2013 23:57:40.952,869.099
17,5 Dec 2013 01:27:35.935,5 Dec 2013 01:38:03.350,627.416
18,5 Dec 2013 03:08:56.224,5 Dec 2013 03:25:18.901,982.677
19,5 Dec 2013 04:52:51.770,5 Dec 2013 05:01:16.046,504.277
20,5 Dec 2013 11:05:03.526,5 Dec 2013 11:17:20.612,737.087
21,5 Dec 2013 12:44:48.463,5 Dec 2013 12:58:48.119,839.655
22,5 Dec 2013 14:25:07.944,5 Dec 2013 14:37:58.166,770.222
23,5 Dec 2013 16:03:36.402,5 Dec 2013 16:16:00.947,744.546
24,5 Dec 2013 17:40:22.514,5 Dec 2013 17:54:15.629,833.115
25,5 Dec 2013 19:17:12.562,5 Dec 2013 19:32:52.931,940.369
26,5 Dec 2013 20:56:19.597,5 Dec 2013 21:11:06.057,886.460
27,5 Dec 2013 22:43:22.073,5 Dec 2013 22:58:22.222,900.150
28,6 Dec 2013 00:28:16.550,6 Dec 2013 00:45:01.924,1005.374
29,6 Dec 2013 02:13:05.736,6 Dec 2013 02:24:00.470,654.733
30,6 Dec 2013 18:18:30.523,6 Dec 2013 18:34:34.871,964.348
31,6 Dec 2013 20:03:58.151,6 Dec 2013 20:21:07.395,1029.243
32,6 Dec 2013 21:50:09.567,6 Dec 2013 22:07:02.945,1013.378
33,6 Dec 2013 23:36:27.782,6 Dec 2013 23:48:02.160,694.377
34,7 Dec 2013 15:47:18.470,7 Dec 2013 15:57:16.328,597.858
35,7 Dec 2013 17:28:10.679,7 Dec 2013 17:44:48.080,997.401
36,7 Dec 2013 19:13:51.128,7 Dec 2013 19:30:52.492,1021.364
37,7 Dec 2013 21:00:20.192,7 Dec 2013 21:14:51.312,871.120

